CurrentTime,PlatformType,PlatformDirection,PlatformMovementType,PlayerVelocity.x,PlayerVelocity.y,PlayerVelocity.z,PlayerPosition.x,PlayerPosition.y,PlayerPosition.z,PlayerRotation.Pitch,PlayerRotation.Roll,PlayerRotation.Yaw,PlayerCurrentSpeed,UnixTimeStamp [us],ControllerId,MotorFlags,HallPosition,EncoderPosition,MotorVelocity,MotorVoltage,MotorCurrent 
1.473423,0,0,250,294.106460,-27.494833,0.000000,258.886084,9869.268354,138.911656,0.000000,2.240085,357.900000,500.000000,1708344677441458,1,0,0,-29734,-302.458649,35.910000,-4.539000
1.473423,0,0,250,294.106460,-27.494833,0.000000,258.886084,9869.268354,138.911656,0.000000,2.240085,357.900000,500.000000,1708344677441458,2,0,0,-30127,-379.038605,35.910000,-4.531908
1.473423,0,0,250,294.106460,-27.494833,0.000000,258.886084,9869.268354,138.911656,0.000000,2.240085,357.900000,500.000000,1708344677441458,3,0,0,32658,382.256256,35.910000,4.481073
1.473423,0,0,250,294.106460,-27.494833,0.000000,258.886084,9869.268354,138.911656,0.000000,2.240085,357.900000,500.000000,1708344677441458,4,0,0,32751,382.256256,35.910000,4.488133
1.473423,0,0,250,294.106460,-27.494833,0.000000,258.886084,9869.268354,138.911656,0.000000,2.240085,357.900000,500.000000,1708344677595978,1,0,0,-33383,-339.113037,35.910000,-4.455815
1.473423,0,0,250,294.106460,-27.494833,0.000000,258.886084,9869.268354,138.911656,0.000000,2.240085,357.900000,500.000000,1708344677595978,2,0,0,-33420,-339.266907,35.910000,-4.473155
1.473423,0,0,250,294.106460,-27.494833,0.000000,258.886084,9869.268354,138.911656,0.000000,2.240085,357.900000,500.000000,1708344677595978,3,0,0,36312,393.426544,35.910000,4.437768
1.473423,0,0,250,294.106460,-27.494833,0.000000,258.886084,9869.268354,138.911656,0.000000,2.240085,357.900000,500.000000,1708344677595978,4,0,0,36067,341.420990,35.910000,4.436211
1.473423,0,0,250,294.106460,-27.494833,0.000000,258.886084,9869.268354,138.911656,0.000000,2.240085,357.900000,500.000000,1708344677732113,1,0,0,-36267,-308.025116,35.910000,-4.460614
1.473423,0,0,250,294.106460,-27.494833,0.000000,258.886084,9869.268354,138.911656,0.000000,2.240085,357.900000,500.000000,1708344677732113,2,0,0,-36675,-385.764771,35.910000,-4.453927
1.473423,0,0,250,294.106460,-27.494833,0.000000,258.886084,9869.268354,138.911656,0.000000,2.240085,357.900000,500.000000,1708344677732113,3,0,0,39248,387.860168,35.910000,4.426138
1.473423,0,0,250,294.106460,-27.494833,0.000000,258.886084,9869.268354,138.911656,0.000000,2.240085,357.900000,500.000000,1708344677732113,4,0,0,38968,309.701416,35.910000,4.418380
1.473423,0,0,250,294.106460,-27.494833,0.000000,258.886084,9869.268354,138.911656,0.000000,2.240085,357.900000,500.000000,1708344677869796,1,0,0,-39582,-388.584778,35.910000,-4.419946
1.473423,0,0,250,294.106460,-27.494833,0.000000,258.886084,9869.268354,138.911656,0.000000,2.240085,357.900000,500.000000,1708344677869796,2,0,0,-39619,-311.207001,35.910000,-4.424392
1.473423,0,0,250,294.106460,-27.494833,0.000000,258.886084,9869.268354,138.911656,0.000000,2.240085,357.900000,500.000000,1708344677869796,3,0,0,42203,312.054993,35.910000,4.398576
1.473423,0,0,250,294.106460,-27.494833,0.000000,258.886084,9869.268354,138.911656,0.000000,2.240085,357.900000,500.000000,1708344677869796,4,0,0,42297,312.054993,35.910000,4.397861
1.473423,0,0,250,294.106460,-27.494833,0.000000,258.886084,9869.268354,138.911656,0.000000,2.240085,357.900000,500.000000,1708344677995366,1,0,0,-42883,-390.722809,35.910000,-4.417209
1.473423,0,0,250,294.106460,-27.494833,0.000000,258.886084,9869.268354,138.911656,0.000000,2.240085,357.900000,500.000000,1708344677995366,2,0,0,-42920,-390.722809,35.910000,-4.405279
1.473423,0,0,250,294.106460,-27.494833,0.000000,258.886084,9869.268354,138.911656,0.000000,2.240085,357.900000,500.000000,1708344677995366,3,0,0,45515,313.341461,35.910000,4.384522
1.473423,0,0,250,294.106460,-27.494833,0.000000,258.886084,9869.268354,138.911656,0.000000,2.240085,357.900000,500.000000,1708344677995366,4,0,0,45609,391.994812,35.910000,4.387962
1.473423,0,0,250,294.106460,-27.494833,0.000000,258.886084,9869.268354,138.911656,0.000000,2.240085,357.900000,500.000000,1708344678120621,1,0,0,-45822,-391.693420,35.910000,-4.398269
1.473423,0,0,250,294.106460,-27.494833,0.000000,258.886084,9869.268354,138.911656,0.000000,2.240085,357.900000,500.000000,1708344678120621,2,0,0,-45859,-315.957489,35.910000,-4.398446
1.473423,0,0,250,294.106460,-27.494833,0.000000,258.886084,9869.268354,138.911656,0.000000,2.240085,357.900000,500.000000,1708344678120621,3,0,0,48460,316.597504,35.910000,4.368893
1.473423,0,0,250,294.106460,-27.494833,0.000000,258.886084,9869.268354,138.911656,0.000000,2.240085,357.900000,500.000000,1708344678120621,4,0,0,48554,392.333435,35.910000,4.375217
1.473423,0,0,250,294.106460,-27.494833,0.000000,258.886084,9869.268354,138.911656,0.000000,2.240085,357.900000,500.000000,1708344678247147,1,0,0,-48779,-385.974701,35.910000,-4.379423
1.473423,0,0,250,294.106460,-27.494833,0.000000,258.886084,9869.268354,138.911656,0.000000,2.240085,357.900000,500.000000,1708344678247147,2,0,0,-48816,-385.974701,35.910000,-4.378106
1.473423,0,0,250,294.106460,-27.494833,0.000000,258.886084,9869.268354,138.911656,0.000000,2.240085,357.900000,500.000000,1708344678247147,3,0,0,51421,307.115204,35.910000,4.367544
1.473423,0,0,250,294.106460,-27.494833,0.000000,258.886084,9869.268354,138.911656,0.000000,2.240085,357.900000,500.000000,1708344678247147,4,0,0,51515,386.807007,35.910000,4.369489
1.473423,0,0,250,294.106460,-27.494833,0.000000,258.886084,9869.268354,138.911656,0.000000,2.240085,357.900000,500.000000,1708344678399722,1,0,0,-52083,-376.672119,35.910000,-4.377629
1.473423,0,0,250,294.106460,-27.494833,0.000000,258.886084,9869.268354,138.911656,0.000000,2.240085,357.900000,500.000000,1708344678399722,2,0,0,-52120,-376.672119,35.910000,-4.362160
1.473423,0,0,250,294.106460,-27.494833,0.000000,258.886084,9869.268354,138.911656,0.000000,2.240085,357.900000,500.000000,1708344678399722,3,0,0,54732,377.285248,35.910000,4.362290
1.473423,0,0,250,294.106460,-27.494833,0.000000,258.886084,9869.268354,138.911656,0.000000,2.240085,357.900000,500.000000,1708344678399722,4,0,0,54827,377.489655,35.910000,4.369836
1.473423,0,0,250,294.106460,-27.494833,0.000000,258.886084,9869.268354,138.911656,0.000000,2.240085,357.900000,500.000000,1708344678544718,1,0,0,-55031,-376.755920,35.910000,-4.589318
1.473423,0,0,250,294.106460,-27.494833,0.000000,258.886084,9869.268354,138.911656,0.000000,2.240085,357.900000,500.000000,1708344678544718,2,0,0,-55068,-376.755920,35.910000,-4.362718
1.473423,0,0,250,294.106460,-27.494833,0.000000,258.886084,9869.268354,138.911656,0.000000,2.240085,357.900000,500.000000,1708344678544718,3,0,0,57682,287.838470,35.910000,4.356006
1.473423,0,0,250,294.106460,-27.494833,0.000000,258.886084,9869.268354,138.911656,0.000000,2.240085,357.900000,500.000000,1708344678544718,4,0,0,57777,377.009949,35.910000,4.357450
1.473423,0,0,250,294.106460,-27.494833,0.000000,258.886084,9869.268354,138.911656,0.000000,2.240085,357.900000,500.000000,1708344678670134,1,0,0,-58336,-386.338287,35.910000,-4.359477
1.473423,0,0,250,294.106460,-27.494833,0.000000,258.886084,9869.268354,138.911656,0.000000,2.240085,357.900000,500.000000,1708344678670134,2,0,0,-58373,-287.458771,35.910000,-4.351710
1.473423,0,0,250,294.106460,-27.494833,0.000000,258.886084,9869.268354,138.911656,0.000000,2.240085,357.900000,500.000000,1708344678670134,3,0,0,60989,287.983337,35.910000,4.356900
1.473423,0,0,250,294.106460,-27.494833,0.000000,258.886084,9869.268354,138.911656,0.000000,2.240085,357.900000,500.000000,1708344678670134,4,0,0,61084,287.983337,35.910000,4.347872
2.740915,0,0,0,695.781935,76.730041,0.000000,914.899325,9881.730906,139.090130,0.000000,2.380085,358.775000,700.000000,1708344678795741,1,0,0,-61634,-311.515289,35.910000,-4.365073
2.740915,0,0,0,695.781935,76.730041,0.000000,914.899325,9881.730906,139.090130,0.000000,2.380085,358.775000,700.000000,1708344678795741,2,0,0,-61671,-311.515289,35.910000,-4.354700
2.740915,0,0,0,695.781935,76.730041,0.000000,914.899325,9881.730906,139.090130,0.000000,2.380085,358.775000,700.000000,1708344678795741,3,0,0,64290,311.725769,35.910000,4.355513
2.740915,0,0,0,695.781935,76.730041,0.000000,914.899325,9881.730906,139.090130,0.000000,2.380085,358.775000,700.000000,1708344678795741,4,0,0,64385,311.725769,35.910000,4.361658
2.740915,0,0,0,695.781935,76.730041,0.000000,914.899325,9881.730906,139.090130,0.000000,2.380085,358.775000,700.000000,1708344678921921,1,0,0,-64632,-385.570587,35.910000,-4.359334
2.740915,0,0,0,695.781935,76.730041,0.000000,914.899325,9881.730906,139.090130,0.000000,2.380085,358.775000,700.000000,1708344678921921,2,0,0,-64669,-286.924286,35.910000,-4.352318
2.740915,0,0,0,695.781935,76.730041,0.000000,914.899325,9881.730906,139.090130,0.000000,2.380085,358.775000,700.000000,1708344678921921,3,0,0,67289,286.924286,35.910000,4.350304
2.740915,0,0,0,695.781935,76.730041,0.000000,914.899325,9881.730906,139.090130,0.000000,2.380085,358.775000,700.000000,1708344678921921,4,0,0,67384,385.570587,35.910000,4.356778
2.740915,0,0,0,695.781935,76.730041,0.000000,914.899325,9881.730906,139.090130,0.000000,2.380085,358.775000,700.000000,1708344679060876,1,0,0,-67610,-384.244965,35.910000,-4.353621
2.740915,0,0,0,695.781935,76.730041,0.000000,914.899325,9881.730906,139.090130,0.000000,2.380085,358.775000,700.000000,1708344679060876,2,0,0,-67647,-285.608337,35.910000,-4.362261
2.740915,0,0,0,695.781935,76.730041,0.000000,914.899325,9881.730906,139.090130,0.000000,2.380085,358.775000,700.000000,1708344679060876,3,0,0,70270,286.123413,35.910000,4.348842
2.740915,0,0,0,695.781935,76.730041,0.000000,914.899325,9881.730906,139.090130,0.000000,2.380085,358.775000,700.000000,1708344679060876,4,0,0,70365,384.760040,35.910000,4.351716
2.740915,0,0,0,695.781935,76.730041,0.000000,914.899325,9881.730906,139.090130,0.000000,2.380085,358.775000,700.000000,1708344679186608,1,0,0,-70939,-389.089111,35.910000,-4.350064
2.740915,0,0,0,695.781935,76.730041,0.000000,914.899325,9881.730906,139.090130,0.000000,2.380085,358.775000,700.000000,1708344679186608,2,0,0,-70976,-314.723206,35.910000,-4.348976
2.740915,0,0,0,695.781935,76.730041,0.000000,914.899325,9881.730906,139.090130,0.000000,2.380085,358.775000,700.000000,1708344679186608,3,0,0,73600,314.936310,35.910000,4.348097
2.740915,0,0,0,695.781935,76.730041,0.000000,914.899325,9881.730906,139.090130,0.000000,2.380085,358.775000,700.000000,1708344679186608,4,0,0,73696,315.149384,35.910000,4.348669
2.740915,0,0,0,695.781935,76.730041,0.000000,914.899325,9881.730906,139.090130,0.000000,2.380085,358.775000,700.000000,1708344679313123,1,0,0,-73937,-394.311371,35.910000,-4.348723
2.740915,0,0,0,695.781935,76.730041,0.000000,914.899325,9881.730906,139.090130,0.000000,2.380085,358.775000,700.000000,1708344679313123,2,0,0,-73974,-315.365540,35.910000,-4.346278
2.740915,0,0,0,695.781935,76.730041,0.000000,914.899325,9881.730906,139.090130,0.000000,2.380085,358.775000,700.000000,1708344679313123,3,0,0,76598,315.365540,35.910000,4.338500
2.740915,0,0,0,695.781935,76.730041,0.000000,914.899325,9881.730906,139.090130,0.000000,2.380085,358.775000,700.000000,1708344679313123,4,0,0,76694,315.365540,35.910000,4.347656
2.740915,0,0,0,695.781935,76.730041,0.000000,914.899325,9881.730906,139.090130,0.000000,2.380085,358.775000,700.000000,1708344679454295,1,0,0,-77268,-323.288727,35.910000,-4.347879
2.740915,0,0,0,695.781935,76.730041,0.000000,914.899325,9881.730906,139.090130,0.000000,2.380085,358.775000,700.000000,1708344679454295,2,0,0,-77305,-256.197601,35.910000,-4.337371
2.740915,0,0,0,695.781935,76.730041,0.000000,914.899325,9881.730906,139.090130,0.000000,2.380085,358.775000,700.000000,1708344679454295,3,0,0,79932,256.545227,35.910000,4.349259
2.740915,0,0,0,695.781935,76.730041,0.000000,914.899325,9881.730906,139.090130,0.000000,2.380085,358.775000,700.000000,1708344679454295,4,0,0,80028,323.636322,35.910000,4.347085
2.740915,0,0,0,695.781935,76.730041,0.000000,914.899325,9881.730906,139.090130,0.000000,2.380085,358.775000,700.000000,1708344679588098,1,0,0,-80558,-346.541077,35.910000,-4.340168
2.740915,0,0,0,695.781935,76.730041,0.000000,914.899325,9881.730906,139.090130,0.000000,2.380085,358.775000,700.000000,1708344679588098,2,0,0,-80595,-346.541077,35.910000,-4.344759
2.740915,0,0,0,695.781935,76.730041,0.000000,914.899325,9881.730906,139.090130,0.000000,2.380085,358.775000,700.000000,1708344679588098,3,0,0,83223,346.730560,35.910000,4.344215
2.740915,0,0,0,695.781935,76.730041,0.000000,914.899325,9881.730906,139.090130,0.000000,2.380085,358.775000,700.000000,1708344679588098,4,0,0,83319,346.730560,35.910000,4.355109
2.740915,0,0,0,695.781935,76.730041,0.000000,914.899325,9881.730906,139.090130,0.000000,2.380085,358.775000,700.000000,1708344679726588,1,0,0,-83533,-384.913727,35.910000,-4.338557
2.740915,0,0,0,695.781935,76.730041,0.000000,914.899325,9881.730906,139.090130,0.000000,2.380085,358.775000,700.000000,1708344679726588,2,0,0,-83570,-384.913727,35.910000,-4.346397
2.740915,0,0,0,695.781935,76.730041,0.000000,914.899325,9881.730906,139.090130,0.000000,2.380085,358.775000,700.000000,1708344679726588,3,0,0,86198,384.913727,35.910000,4.345160
2.740915,0,0,0,695.781935,76.730041,0.000000,914.899325,9881.730906,139.090130,0.000000,2.380085,358.775000,700.000000,1708344679726588,4,0,0,86294,384.913727,35.910000,4.359539
2.740915,0,0,0,695.781935,76.730041,0.000000,914.899325,9881.730906,139.090130,0.000000,2.380085,358.775000,700.000000,1708344679852002,1,0,0,-86510,-391.704529,35.910000,-4.346486
2.740915,0,0,0,695.781935,76.730041,0.000000,914.899325,9881.730906,139.090130,0.000000,2.380085,358.775000,700.000000,1708344679852002,2,0,0,-86547,-391.704529,35.910000,-4.346069
2.740915,0,0,0,695.781935,76.730041,0.000000,914.899325,9881.730906,139.090130,0.000000,2.380085,358.775000,700.000000,1708344679852002,3,0,0,89175,391.704529,35.910000,4.345742
2.740915,0,0,0,695.781935,76.730041,0.000000,914.899325,9881.730906,139.090130,0.000000,2.380085,358.775000,700.000000,1708344679852002,4,0,0,89271,391.704529,35.910000,4.347710
2.740915,0,0,0,695.781935,76.730041,0.000000,914.899325,9881.730906,139.090130,0.000000,2.380085,358.775000,700.000000,1708344679977035,1,0,0,-89474,-387.424683,35.910000,-4.345147
2.740915,0,0,0,695.781935,76.730041,0.000000,914.899325,9881.730906,139.090130,0.000000,2.380085,358.775000,700.000000,1708344679977035,2,0,0,-89511,-387.424683,35.910000,-4.347995
2.740915,0,0,0,695.781935,76.730041,0.000000,914.899325,9881.730906,139.090130,0.000000,2.380085,358.775000,700.000000,1708344679977035,3,0,0,92139,387.424683,35.910000,4.340162
2.740915,0,0,0,695.781935,76.730041,0.000000,914.899325,9881.730906,139.090130,0.000000,2.380085,358.775000,700.000000,1708344679977035,4,0,0,92235,387.424683,35.910000,4.346097
4.028170,0,0,0,699.150360,-34.478608,0.000000,1822.277818,9887.068280,138.921413,0.000000,2.380085,358.775000,700.000000,1708344680102065,1,0,0,-92445,-321.913116,35.910000,-4.340096
4.028170,0,0,0,699.150360,-34.478608,0.000000,1822.277818,9887.068280,138.921413,0.000000,2.380085,358.775000,700.000000,1708344680102065,2,0,0,-92841,-399.893433,35.910000,-4.349823
4.028170,0,0,0,699.150360,-34.478608,0.000000,1822.277818,9887.068280,138.921413,0.000000,2.380085,358.775000,700.000000,1708344680102065,3,0,0,95469,399.893433,35.910000,4.349628
4.028170,0,0,0,699.150360,-34.478608,0.000000,1822.277818,9887.068280,138.921413,0.000000,2.380085,358.775000,700.000000,1708344680102065,4,0,0,95206,321.913116,35.910000,4.345833
4.028170,0,0,0,699.150360,-34.478608,0.000000,1822.277818,9887.068280,138.921413,0.000000,2.380085,358.775000,700.000000,1708344680227035,1,0,0,-95400,-314.023224,35.910000,-4.350187
4.028170,0,0,0,699.150360,-34.478608,0.000000,1822.277818,9887.068280,138.921413,0.000000,2.380085,358.775000,700.000000,1708344680227035,2,0,0,-95817,-394.979004,35.910000,-4.346233
4.028170,0,0,0,699.150360,-34.478608,0.000000,1822.277818,9887.068280,138.921413,0.000000,2.380085,358.775000,700.000000,1708344680227035,3,0,0,98445,394.979004,35.910000,4.346088
4.028170,0,0,0,699.150360,-34.478608,0.000000,1822.277818,9887.068280,138.921413,0.000000,2.380085,358.775000,700.000000,1708344680227035,4,0,0,98161,314.023224,35.910000,4.344473
4.028170,0,0,0,699.150360,-34.478608,0.000000,1822.277818,9887.068280,138.921413,0.000000,2.380085,358.775000,700.000000,1708344680352724,1,0,0,-98367,-314.284882,35.910000,-4.352152
4.028170,0,0,0,699.150360,-34.478608,0.000000,1822.277818,9887.068280,138.921413,0.000000,2.380085,358.775000,700.000000,1708344680352724,2,0,0,-98788,-395.884186,35.910000,-4.350711
4.028170,0,0,0,699.150360,-34.478608,0.000000,1822.277818,9887.068280,138.921413,0.000000,2.380085,358.775000,700.000000,1708344680352724,3,0,0,101416,395.884186,35.910000,4.350595
4.028170,0,0,0,699.150360,-34.478608,0.000000,1822.277818,9887.068280,138.921413,0.000000,2.380085,358.775000,700.000000,1708344680352724,4,0,0,101128,314.284882,35.910000,4.344956
4.028170,0,0,0,699.150360,-34.478608,0.000000,1822.277818,9887.068280,138.921413,0.000000,2.380085,358.775000,700.000000,1708344680510363,1,0,0,-102152,-373.047424,35.910000,-4.353607
4.028170,0,0,0,699.150360,-34.478608,0.000000,1822.277818,9887.068280,138.921413,0.000000,2.380085,358.775000,700.000000,1708344680510363,2,0,0,-102189,-373.047424,35.910000,-4.341045
4.028170,0,0,0,699.150360,-34.478608,0.000000,1822.277818,9887.068280,138.921413,0.000000,2.380085,358.775000,700.000000,1708344680510363,3,0,0,104817,373.047424,35.910000,4.340966
4.028170,0,0,0,699.150360,-34.478608,0.000000,1822.277818,9887.068280,138.921413,0.000000,2.380085,358.775000,700.000000,1708344680510363,4,0,0,104913,373.047424,35.910000,4.341775
4.028170,0,0,0,699.150360,-34.478608,0.000000,1822.277818,9887.068280,138.921413,0.000000,2.380085,358.775000,700.000000,1708344680635339,1,0,0,-105092,-313.939392,35.910000,-4.339129
4.028170,0,0,0,699.150360,-34.478608,0.000000,1822.277818,9887.068280,138.921413,0.000000,2.380085,358.775000,700.000000,1708344680635339,2,0,0,-105488,-389.681488,35.910000,-4.342782
4.028170,0,0,0,699.150360,-34.478608,0.000000,1822.277818,9887.068280,138.921413,0.000000,2.380085,358.775000,700.000000,1708344680635339,3,0,0,108116,389.681488,35.910000,4.342721
4.028170,0,0,0,699.150360,-34.478608,0.000000,1822.277818,9887.068280,138.921413,0.000000,2.380085,358.775000,700.000000,1708344680635339,4,0,0,108212,389.681488,35.910000,4.349494
4.028170,0,0,0,699.150360,-34.478608,0.000000,1822.277818,9887.068280,138.921413,0.000000,2.380085,358.775000,700.000000,1708344680759717,1,0,0,-108024,-313.390289,35.910000,-4.347810
4.028170,0,0,0,699.150360,-34.478608,0.000000,1822.277818,9887.068280,138.921413,0.000000,2.380085,358.775000,700.000000,1708344680759717,2,0,0,-108437,-394.209717,35.910000,-4.340067
4.028170,0,0,0,699.150360,-34.478608,0.000000,1822.277818,9887.068280,138.921413,0.000000,2.380085,358.775000,700.000000,1708344680759717,3,0,0,111065,394.209717,35.910000,4.340023
4.028170,0,0,0,699.150360,-34.478608,0.000000,1822.277818,9887.068280,138.921413,0.000000,2.380085,358.775000,700.000000,1708344680759717,4,0,0,110785,313.390289,35.910000,4.351780
4.028170,0,0,0,699.150360,-34.478608,0.000000,1822.277818,9887.068280,138.921413,0.000000,2.380085,358.775000,700.000000,1708344680884675,1,0,0,-110993,-312.679382,35.910000,-4.333414
4.028170,0,0,0,699.150360,-34.478608,0.000000,1822.277818,9887.068280,138.921413,0.000000,2.380085,358.775000,700.000000,1708344680884675,2,0,0,-111377,-385.990021,35.910000,-4.336391
4.028170,0,0,0,699.150360,-34.478608,0.000000,1822.277818,9887.068280,138.921413,0.000000,2.380085,358.775000,700.000000,1708344680884675,3,0,0,114005,385.990021,35.910000,4.336358
4.028170,0,0,0,699.150360,-34.478608,0.000000,1822.277818,9887.068280,138.921413,0.000000,2.380085,358.775000,700.000000,1708344680884675,4,0,0,114101,385.990021,35.910000,4.344463
4.028170,0,0,0,699.150360,-34.478608,0.000000,1822.277818,9887.068280,138.921413,0.000000,2.380085,358.775000,700.000000,1708344681034941,1,0,0,-113959,-293.241302,35.910000,-4.344948
4.028170,0,0,0,699.150360,-34.478608,0.000000,1822.277818,9887.068280,138.921413,0.000000,2.380085,358.775000,700.000000,1708344681034941,2,0,0,-114366,-388.919678,35.910000,-4.345263
4.028170,0,0,0,699.150360,-34.478608,0.000000,1822.277818,9887.068280,138.921413,0.000000,2.380085,358.775000,700.000000,1708344681034941,3,0,0,116994,388.919678,35.910000,4.529811
4.028170,0,0,0,699.150360,-34.478608,0.000000,1822.277818,9887.068280,138.921413,0.000000,2.380085,358.775000,700.000000,1708344681034941,4,0,0,117090,388.919678,35.910000,4.348586
4.028170,0,0,0,699.150360,-34.478608,0.000000,1822.277818,9887.068280,138.921413,0.000000,2.380085,358.775000,700.000000,1708344681171704,1,0,0,-117673,-389.696808,35.910000,-4.346140
4.028170,0,0,0,699.150360,-34.478608,0.000000,1822.277818,9887.068280,138.921413,0.000000,2.380085,358.775000,700.000000,1708344681171704,2,0,0,-117710,-288.500519,35.910000,-4.338377
4.028170,0,0,0,699.150360,-34.478608,0.000000,1822.277818,9887.068280,138.921413,0.000000,2.380085,358.775000,700.000000,1708344681171704,3,0,0,120338,288.500519,35.910000,4.340260
4.028170,0,0,0,699.150360,-34.478608,0.000000,1822.277818,9887.068280,138.921413,0.000000,2.380085,358.775000,700.000000,1708344681171704,4,0,0,120434,389.696808,35.910000,4.346117
4.028170,0,0,0,699.150360,-34.478608,0.000000,1822.277818,9887.068280,138.921413,0.000000,2.380085,358.775000,700.000000,1708344681296264,1,0,0,-120609,-383.921051,35.910000,-4.343491
4.028170,0,0,0,699.150360,-34.478608,0.000000,1822.277818,9887.068280,138.921413,0.000000,2.380085,358.775000,700.000000,1708344681296264,2,0,0,-120646,-287.550110,35.910000,-4.346462
4.028170,0,0,0,699.150360,-34.478608,0.000000,1822.277818,9887.068280,138.921413,0.000000,2.380085,358.775000,700.000000,1708344681296264,3,0,0,123274,287.550110,35.910000,4.344261
4.028170,0,0,0,699.150360,-34.478608,0.000000,1822.277818,9887.068280,138.921413,0.000000,2.380085,358.775000,700.000000,1708344681296264,4,0,0,123370,383.921051,35.910000,4.343474
5.327384,0,0,0,699.954035,8.021735,0.000000,2720.838472,9960.408153,139.112744,0.000000,2.380085,358.775000,700.000000,1708344681435342,1,0,0,-123931,-394.634705,35.910000,-4.345638
5.327384,0,0,0,699.954035,8.021735,0.000000,2720.838472,9960.408153,139.112744,0.000000,2.380085,358.775000,700.000000,1708344681435342,2,0,0,-123968,-316.306976,35.910000,-4.350977
5.327384,0,0,0,699.954035,8.021735,0.000000,2720.838472,9960.408153,139.112744,0.000000,2.380085,358.775000,700.000000,1708344681435342,3,0,0,126596,316.306976,35.910000,4.345759
5.327384,0,0,0,699.954035,8.021735,0.000000,2720.838472,9960.408153,139.112744,0.000000,2.380085,358.775000,700.000000,1708344681435342,4,0,0,126692,394.634705,35.910000,4.340185
5.327384,0,0,0,699.954035,8.021735,0.000000,2720.838472,9960.408153,139.112744,0.000000,2.380085,358.775000,700.000000,1708344681559980,1,0,0,-127253,-393.885468,35.910000,-4.345824
5.327384,0,0,0,699.954035,8.021735,0.000000,2720.838472,9960.408153,139.112744,0.000000,2.380085,358.775000,700.000000,1708344681559980,2,0,0,-127290,-393.885468,35.910000,-4.341975
5.327384,0,0,0,699.954035,8.021735,0.000000,2720.838472,9960.408153,139.112744,0.000000,2.380085,358.775000,700.000000,1708344681559980,3,0,0,129918,315.065430,35.910000,4.348404
5.327384,0,0,0,699.954035,8.021735,0.000000,2720.838472,9960.408153,139.112744,0.000000,2.380085,358.775000,700.000000,1708344681559980,4,0,0,130014,393.885468,35.910000,4.345984
5.327384,0,0,0,699.954035,8.021735,0.000000,2720.838472,9960.408153,139.112744,0.000000,2.380085,358.775000,700.000000,1708344681697340,1,0,0,-130184,-385.036469,35.910000,-4.339935
5.327384,0,0,0,699.954035,8.021735,0.000000,2720.838472,9960.408153,139.112744,0.000000,2.380085,358.775000,700.000000,1708344681697340,2,0,0,-130221,-385.036469,35.910000,-4.339863
5.327384,0,0,0,699.954035,8.021735,0.000000,2720.838472,9960.408153,139.112744,0.000000,2.380085,358.775000,700.000000,1708344681697340,3,0,0,132849,385.036469,35.910000,4.345328
5.327384,0,0,0,699.954035,8.021735,0.000000,2720.838472,9960.408153,139.112744,0.000000,2.380085,358.775000,700.000000,1708344681697340,4,0,0,132945,385.036469,35.910000,4.339928
5.327384,0,0,0,699.954035,8.021735,0.000000,2720.838472,9960.408153,139.112744,0.000000,2.380085,358.775000,700.000000,1708344681821954,1,0,0,-133171,-322.956116,35.910000,-4.351029
5.327384,0,0,0,699.954035,8.021735,0.000000,2720.838472,9960.408153,139.112744,0.000000,2.380085,358.775000,700.000000,1708344681821954,2,0,0,-133591,-404.980133,35.910000,-4.342011
5.327384,0,0,0,699.954035,8.021735,0.000000,2720.838472,9960.408153,139.112744,0.000000,2.380085,358.775000,700.000000,1708344681821954,3,0,0,136219,404.980133,35.910000,4.342006
5.327384,0,0,0,699.954035,8.021735,0.000000,2720.838472,9960.408153,139.112744,0.000000,2.380085,358.775000,700.000000,1708344681821954,4,0,0,136315,404.980133,35.910000,4.348216
5.327384,0,0,0,699.954035,8.021735,0.000000,2720.838472,9960.408153,139.112744,0.000000,2.380085,358.775000,700.000000,1708344681948750,1,0,0,-136170,-315.272491,35.910000,-4.345065
5.327384,0,0,0,699.954035,8.021735,0.000000,2720.838472,9960.408153,139.112744,0.000000,2.380085,358.775000,700.000000,1708344681948750,2,0,0,-136578,-392.733490,35.910000,-4.344356
5.327384,0,0,0,699.954035,8.021735,0.000000,2720.838472,9960.408153,139.112744,0.000000,2.380085,358.775000,700.000000,1708344681948750,3,0,0,139206,392.733490,35.910000,4.344352
5.327384,0,0,0,699.954035,8.021735,0.000000,2720.838472,9960.408153,139.112744,0.000000,2.380085,358.775000,700.000000,1708344681948750,4,0,0,139302,392.733490,35.910000,4.346435
5.327384,0,0,0,699.954035,8.021735,0.000000,2720.838472,9960.408153,139.112744,0.000000,2.380085,358.775000,700.000000,1708344682073887,1,0,0,-139119,-311.727448,35.910000,-4.354761
5.327384,0,0,0,699.954035,8.021735,0.000000,2720.838472,9960.408153,139.112744,0.000000,2.380085,358.775000,700.000000,1708344682073887,2,0,0,-139546,-394.940125,35.910000,-4.345776
5.327384,0,0,0,699.954035,8.021735,0.000000,2720.838472,9960.408153,139.112744,0.000000,2.380085,358.775000,700.000000,1708344682073887,3,0,0,142174,394.940125,35.910000,4.345773
5.327384,0,0,0,699.954035,8.021735,0.000000,2720.838472,9960.408153,139.112744,0.000000,2.380085,358.775000,700.000000,1708344682073887,4,0,0,142270,394.940125,35.910000,4.344386
5.327384,0,0,0,699.954035,8.021735,0.000000,2720.838472,9960.408153,139.112744,0.000000,2.380085,358.775000,700.000000,1708344682198517,1,0,0,-142102,-314.344147,35.910000,-4.350142
5.327384,0,0,0,699.954035,8.021735,0.000000,2720.838472,9960.408153,139.112744,0.000000,2.380085,358.775000,700.000000,1708344682198517,2,0,0,-142520,-395.958862,35.910000,-4.355531
5.327384,0,0,0,699.954035,8.021735,0.000000,2720.838472,9960.408153,139.112744,0.000000,2.380085,358.775000,700.000000,1708344682198517,3,0,0,145148,395.958862,35.910000,4.355528
5.327384,0,0,0,699.954035,8.021735,0.000000,2720.838472,9960.408153,139.112744,0.000000,2.380085,358.775000,700.000000,1708344682198517,4,0,0,145244,395.958862,35.910000,4.341053
5.327384,0,0,0,699.954035,8.021735,0.000000,2720.838472,9960.408153,139.112744,0.000000,2.380085,358.775000,700.000000,1708344682325140,1,0,0,-145105,-289.053345,35.910000,-4.347419
5.327384,0,0,0,699.954035,8.021735,0.000000,2720.838472,9960.408153,139.112744,0.000000,2.380085,358.775000,700.000000,1708344682325140,2,0,0,-145518,-386.266266,35.910000,-4.339306
5.327384,0,0,0,699.954035,8.021735,0.000000,2720.838472,9960.408153,139.112744,0.000000,2.380085,358.775000,700.000000,1708344682325140,3,0,0,148146,386.266266,35.910000,4.339304
5.327384,0,0,0,699.954035,8.021735,0.000000,2720.838472,9960.408153,139.112744,0.000000,2.380085,358.775000,700.000000,1708344682325140,4,0,0,147866,289.053345,35.910000,4.356275
5.327384,0,0,0,699.954035,8.021735,0.000000,2720.838472,9960.408153,139.112744,0.000000,2.380085,358.775000,700.000000,1708344682485458,1,0,0,-148130,-302.019409,35.910000,-4.348579
5.327384,0,0,0,699.954035,8.021735,0.000000,2720.838472,9960.408153,139.112744,0.000000,2.380085,358.775000,700.000000,1708344682485458,2,0,0,-148167,-302.019409,35.910000,-4.343996
5.327384,0,0,0,699.954035,8.021735,0.000000,2720.838472,9960.408153,139.112744,0.000000,2.380085,358.775000,700.000000,1708344682485458,3,0,0,151173,400.862122,35.910000,4.715490
5.327384,0,0,0,699.954035,8.021735,0.000000,2720.838472,9960.408153,139.112744,0.000000,2.380085,358.775000,700.000000,1708344682485458,4,0,0,150891,302.019409,35.910000,4.343994
5.327384,0,0,0,699.954035,8.021735,0.000000,2720.838472,9960.408153,139.112744,0.000000,2.380085,358.775000,700.000000,1708344682611777,1,0,0,-151836,-386.229462,35.910000,-4.350237
5.327384,0,0,0,699.954035,8.021735,0.000000,2720.838472,9960.408153,139.112744,0.000000,2.380085,358.775000,700.000000,1708344682611777,2,0,0,-151873,-386.229462,35.910000,-4.338782
5.327384,0,0,0,699.954035,8.021735,0.000000,2720.838472,9960.408153,139.112744,0.000000,2.380085,358.775000,700.000000,1708344682611777,3,0,0,154501,386.229462,35.910000,4.343316
5.327384,0,0,0,699.954035,8.021735,0.000000,2720.838472,9960.408153,139.112744,0.000000,2.380085,358.775000,700.000000,1708344682611777,4,0,0,154597,386.229462,35.910000,4.350235
6.711101,0,0,0,699.899913,-11.836899,0.000000,3693.821663,9905.627177,139.112744,0.000000,2.380085,358.775000,700.000000,1708344682736460,1,0,0,-155197,-396.301788,35.910000,-4.350678
6.711101,0,0,0,699.899913,-11.836899,0.000000,3693.821663,9905.627177,139.112744,0.000000,2.380085,358.775000,700.000000,1708344682736460,2,0,0,-155234,-396.301788,35.910000,-4.345941
6.711101,0,0,0,699.899913,-11.836899,0.000000,3693.821663,9905.627177,139.112744,0.000000,2.380085,358.775000,700.000000,1708344682736460,3,0,0,157862,396.301788,35.910000,4.345940
6.711101,0,0,0,699.899913,-11.836899,0.000000,3693.821663,9905.627177,139.112744,0.000000,2.380085,358.775000,700.000000,1708344682736460,4,0,0,157958,396.301788,35.910000,4.354462
6.711101,0,0,0,699.899913,-11.836899,0.000000,3693.821663,9905.627177,139.112744,0.000000,2.380085,358.775000,700.000000,1708344682861692,1,0,0,-157816,-296.627686,35.910000,-4.341956
6.711101,0,0,0,699.899913,-11.836899,0.000000,3693.821663,9905.627177,139.112744,0.000000,2.380085,358.775000,700.000000,1708344682861692,2,0,0,-158218,-392.610931,35.910000,-4.344146
6.711101,0,0,0,699.899913,-11.836899,0.000000,3693.821663,9905.627177,139.112744,0.000000,2.380085,358.775000,700.000000,1708344682861692,3,0,0,160846,392.610931,35.910000,4.344146
6.711101,0,0,0,699.899913,-11.836899,0.000000,3693.821663,9905.627177,139.112744,0.000000,2.380085,358.775000,700.000000,1708344682861692,4,0,0,160942,392.610931,35.910000,4.350167
6.711101,0,0,0,699.899913,-11.836899,0.000000,3693.821663,9905.627177,139.112744,0.000000,2.380085,358.775000,700.000000,1708344683013184,1,0,0,-161137,-307.528107,35.910000,-4.336049
6.711101,0,0,0,699.899913,-11.836899,0.000000,3693.821663,9905.627177,139.112744,0.000000,2.380085,358.775000,700.000000,1708344683013184,2,0,0,-161527,-380.581573,35.910000,-4.340272
6.711101,0,0,0,699.899913,-11.836899,0.000000,3693.821663,9905.627177,139.112744,0.000000,2.380085,358.775000,700.000000,1708344683013184,3,0,0,164155,380.581573,35.910000,4.340271
6.711101,0,0,0,699.899913,-11.836899,0.000000,3693.821663,9905.627177,139.112744,0.000000,2.380085,358.775000,700.000000,1708344683013184,4,0,0,164251,380.581573,35.910000,4.342393
6.711101,0,0,0,699.899913,-11.836899,0.000000,3693.821663,9905.627177,139.112744,0.000000,2.380085,358.775000,700.000000,1708344683138074,1,0,0,-164438,-315.214050,35.910000,-4.343664
6.711101,0,0,0,699.899913,-11.836899,0.000000,3693.821663,9905.627177,139.112744,0.000000,2.380085,358.775000,700.000000,1708344683138074,2,0,0,-164475,-315.214050,35.910000,-4.342762
6.711101,0,0,0,699.899913,-11.836899,0.000000,3693.821663,9905.627177,139.112744,0.000000,2.380085,358.775000,700.000000,1708344683138074,3,0,0,167472,394.231689,35.910000,4.349562
6.711101,0,0,0,699.899913,-11.836899,0.000000,3693.821663,9905.627177,139.112744,0.000000,2.380085,358.775000,700.000000,1708344683138074,4,0,0,167199,315.214050,35.910000,4.342762
6.711101,0,0,0,699.899913,-11.836899,0.000000,3693.821663,9905.627177,139.112744,0.000000,2.380085,358.775000,700.000000,1708344683262723,1,0,0,-167406,-316.596741,35.910000,-4.342205
6.711101,0,0,0,699.899913,-11.836899,0.000000,3693.821663,9905.627177,139.112744,0.000000,2.380085,358.775000,700.000000,1708344683262723,2,0,0,-167443,-316.596741,35.910000,-4.346677
6.711101,0,0,0,699.899913,-11.836899,0.000000,3693.821663,9905.627177,139.112744,0.000000,2.380085,358.775000,700.000000,1708344683262723,3,0,0,170437,394.574158,35.910000,4.339863
6.711101,0,0,0,699.899913,-11.836899,0.000000,3693.821663,9905.627177,139.112744,0.000000,2.380085,358.775000,700.000000,1708344683262723,4,0,0,170167,316.596741,35.910000,4.346677
6.711101,0,0,0,699.899913,-11.836899,0.000000,3693.821663,9905.627177,139.112744,0.000000,2.380085,358.775000,700.000000,1708344683407655,1,0,0,-170352,-246.561325,35.910000,-4.536705
6.711101,0,0,0,699.899913,-11.836899,0.000000,3693.821663,9905.627177,139.112744,0.000000,2.380085,358.775000,700.000000,1708344683407655,2,0,0,-171135,-371.432159,35.910000,-4.352647
6.711101,0,0,0,699.899913,-11.836899,0.000000,3693.821663,9905.627177,139.112744,0.000000,2.380085,358.775000,700.000000,1708344683407655,3,0,0,173763,371.432159,35.910000,4.352647
6.711101,0,0,0,699.899913,-11.836899,0.000000,3693.821663,9905.627177,139.112744,0.000000,2.380085,358.775000,700.000000,1708344683407655,4,0,0,173859,371.432159,35.910000,4.343652
6.711101,0,0,0,699.899913,-11.836899,0.000000,3693.821663,9905.627177,139.112744,0.000000,2.380085,358.775000,700.000000,1708344683543878,1,0,0,-173734,-292.821960,35.910000,-4.339099
6.711101,0,0,0,699.899913,-11.836899,0.000000,3693.821663,9905.627177,139.112744,0.000000,2.380085,358.775000,700.000000,1708344683543878,2,0,0,-174131,-386.524963,35.910000,-4.339941
6.711101,0,0,0,699.899913,-11.836899,0.000000,3693.821663,9905.627177,139.112744,0.000000,2.380085,358.775000,700.000000,1708344683543878,3,0,0,176759,386.524963,35.910000,4.339941
6.711101,0,0,0,699.899913,-11.836899,0.000000,3693.821663,9905.627177,139.112744,0.000000,2.380085,358.775000,700.000000,1708344683543878,4,0,0,176855,386.524963,35.910000,4.340190
6.711101,0,0,0,699.899913,-11.836899,0.000000,3693.821663,9905.627177,139.112744,0.000000,2.380085,358.775000,700.000000,1708344683668989,1,0,0,-176679,-288.615234,35.910000,-4.343738
6.711101,0,0,0,699.899913,-11.836899,0.000000,3693.821663,9905.627177,139.112744,0.000000,2.380085,358.775000,700.000000,1708344683668989,2,0,0,-177085,-384.994446,35.910000,-4.340539
6.711101,0,0,0,699.899913,-11.836899,0.000000,3693.821663,9905.627177,139.112744,0.000000,2.380085,358.775000,700.000000,1708344683668989,3,0,0,179713,384.994446,35.910000,4.340539
6.711101,0,0,0,699.899913,-11.836899,0.000000,3693.821663,9905.627177,139.112744,0.000000,2.380085,358.775000,700.000000,1708344683668989,4,0,0,179440,288.615234,35.910000,4.334551
6.711101,0,0,0,699.899913,-11.836899,0.000000,3693.821663,9905.627177,139.112744,0.000000,2.380085,358.775000,700.000000,1708344683795293,1,0,0,-179975,-386.154755,35.910000,-4.352035
6.711101,0,0,0,699.899913,-11.836899,0.000000,3693.821663,9905.627177,139.112744,0.000000,2.380085,358.775000,700.000000,1708344683795293,2,0,0,-180012,-386.154755,35.910000,-4.534396
6.711101,0,0,0,699.899913,-11.836899,0.000000,3693.821663,9905.627177,139.112744,0.000000,2.380085,358.775000,700.000000,1708344683795293,3,0,0,182640,386.154755,35.910000,4.534395
6.711101,0,0,0,699.899913,-11.836899,0.000000,3693.821663,9905.627177,139.112744,0.000000,2.380085,358.775000,700.000000,1708344683795293,4,0,0,182736,386.154755,35.910000,4.352035
6.711101,0,0,0,699.899913,-11.836899,0.000000,3693.821663,9905.627177,139.112744,0.000000,2.380085,358.775000,700.000000,1708344683931762,1,0,0,-183314,-345.793274,35.910000,-4.341352
6.711101,0,0,0,699.899913,-11.836899,0.000000,3693.821663,9905.627177,139.112744,0.000000,2.380085,358.775000,700.000000,1708344683931762,2,0,0,-183351,-345.793274,35.910000,-4.531878
6.711101,0,0,0,699.899913,-11.836899,0.000000,3693.821663,9905.627177,139.112744,0.000000,2.380085,358.775000,700.000000,1708344683931762,3,0,0,185979,345.793274,35.910000,4.351194
6.711101,0,0,0,699.899913,-11.836899,0.000000,3693.821663,9905.627177,139.112744,0.000000,2.380085,358.775000,700.000000,1708344683931762,4,0,0,186075,345.793274,35.910000,4.531878
8.000290,0,0,0,699.431253,-28.212099,0.000000,4535.795931,9892.522474,138.934132,0.000000,2.380085,358.775000,700.000000,1708344684055715,1,0,0,-186311,-322.592651,35.910000,-4.343098
8.000290,0,0,0,699.431253,-28.212099,0.000000,4535.795931,9892.522474,138.934132,0.000000,2.380085,358.775000,700.000000,1708344684055715,2,0,0,-186348,-322.592651,35.910000,-4.339467
8.000290,0,0,0,699.431253,-28.212099,0.000000,4535.795931,9892.522474,138.934132,0.000000,2.380085,358.775000,700.000000,1708344684055715,3,0,0,188976,322.592651,35.910000,4.344510
8.000290,0,0,0,699.431253,-28.212099,0.000000,4535.795931,9892.522474,138.934132,0.000000,2.380085,358.775000,700.000000,1708344684055715,4,0,0,189072,322.592651,35.910000,4.343098
8.000290,0,0,0,699.431253,-28.212099,0.000000,4535.795931,9892.522474,138.934132,0.000000,2.380085,358.775000,700.000000,1708344684193565,1,0,0,-189261,-385.212402,35.910000,-4.338349
8.000290,0,0,0,699.431253,-28.212099,0.000000,4535.795931,9892.522474,138.934132,0.000000,2.380085,358.775000,700.000000,1708344684193565,2,0,0,-189298,-287.020996,35.910000,-4.354825
8.000290,0,0,0,699.431253,-28.212099,0.000000,4535.795931,9892.522474,138.934132,0.000000,2.380085,358.775000,700.000000,1708344684193565,3,0,0,191926,287.020996,35.910000,4.344028
8.000290,0,0,0,699.431253,-28.212099,0.000000,4535.795931,9892.522474,138.934132,0.000000,2.380085,358.775000,700.000000,1708344684193565,4,0,0,192022,385.212402,35.910000,4.338349
8.000290,0,0,0,699.431253,-28.212099,0.000000,4535.795931,9892.522474,138.934132,0.000000,2.380085,358.775000,700.000000,1708344684337703,1,0,0,-192589,-294.742493,35.910000,-4.340109
8.000290,0,0,0,699.431253,-28.212099,0.000000,4535.795931,9892.522474,138.934132,0.000000,2.380085,358.775000,700.000000,1708344684337703,2,0,0,-192626,-294.742493,35.910000,-4.341531
8.000290,0,0,0,699.431253,-28.212099,0.000000,4535.795931,9892.522474,138.934132,0.000000,2.380085,358.775000,700.000000,1708344684337703,3,0,0,195616,390.348907,35.910000,4.343393
8.000290,0,0,0,699.431253,-28.212099,0.000000,4535.795931,9892.522474,138.934132,0.000000,2.380085,358.775000,700.000000,1708344684337703,4,0,0,195350,294.742493,35.910000,4.341531
8.000290,0,0,0,699.431253,-28.212099,0.000000,4535.795931,9892.522474,138.934132,0.000000,2.380085,358.775000,700.000000,1708344684462818,1,0,0,-195501,-289.751953,35.910000,-4.343732
8.000290,0,0,0,699.431253,-28.212099,0.000000,4535.795931,9892.522474,138.934132,0.000000,2.380085,358.775000,700.000000,1708344684462818,2,0,0,-195907,-386.161743,35.910000,-4.341757
8.000290,0,0,0,699.431253,-28.212099,0.000000,4535.795931,9892.522474,138.934132,0.000000,2.380085,358.775000,700.000000,1708344684462818,3,0,0,198535,386.161743,35.910000,4.341757
8.000290,0,0,0,699.431253,-28.212099,0.000000,4535.795931,9892.522474,138.934132,0.000000,2.380085,358.775000,700.000000,1708344684462818,4,0,0,198262,289.751953,35.910000,4.343364
8.000290,0,0,0,699.431253,-28.212099,0.000000,4535.795931,9892.522474,138.934132,0.000000,2.380085,358.775000,700.000000,1708344684587987,1,0,0,-198801,-313.121368,35.910000,-4.352265
8.000290,0,0,0,699.431253,-28.212099,0.000000,4535.795931,9892.522474,138.934132,0.000000,2.380085,358.775000,700.000000,1708344684587987,2,0,0,-198838,-313.121368,35.910000,-4.337013
8.000290,0,0,0,699.431253,-28.212099,0.000000,4535.795931,9892.522474,138.934132,0.000000,2.380085,358.775000,700.000000,1708344684587987,3,0,0,201852,395.008148,35.910000,4.344284
8.000290,0,0,0,699.431253,-28.212099,0.000000,4535.795931,9892.522474,138.934132,0.000000,2.380085,358.775000,700.000000,1708344684587987,4,0,0,201562,313.121368,35.910000,4.337013
8.000290,0,0,0,699.431253,-28.212099,0.000000,4535.795931,9892.522474,138.934132,0.000000,2.380085,358.775000,700.000000,1708344684712762,1,0,0,-201770,-316.794891,35.910000,-4.340569
8.000290,0,0,0,699.431253,-28.212099,0.000000,4535.795931,9892.522474,138.934132,0.000000,2.380085,358.775000,700.000000,1708344684712762,2,0,0,-201807,-316.794891,35.910000,-4.345203
8.000290,0,0,0,699.431253,-28.212099,0.000000,4535.795931,9892.522474,138.934132,0.000000,2.380085,358.775000,700.000000,1708344684712762,3,0,0,204797,393.968323,35.910000,4.341472
8.000290,0,0,0,699.431253,-28.212099,0.000000,4535.795931,9892.522474,138.934132,0.000000,2.380085,358.775000,700.000000,1708344684712762,4,0,0,204531,316.794891,35.910000,4.345203
8.000290,0,0,0,699.431253,-28.212099,0.000000,4535.795931,9892.522474,138.934132,0.000000,2.380085,358.775000,700.000000,1708344684860446,1,0,0,-204695,-306.564270,35.910000,-4.349056
8.000290,0,0,0,699.431253,-28.212099,0.000000,4535.795931,9892.522474,138.934132,0.000000,2.380085,358.775000,700.000000,1708344684860446,2,0,0,-205111,-386.473389,35.910000,-4.542858
8.000290,0,0,0,699.431253,-28.212099,0.000000,4535.795931,9892.522474,138.934132,0.000000,2.380085,358.775000,700.000000,1708344684860446,3,0,0,207739,386.473389,35.910000,4.335238
8.000290,0,0,0,699.431253,-28.212099,0.000000,4535.795931,9892.522474,138.934132,0.000000,2.380085,358.775000,700.000000,1708344684860446,4,0,0,207456,306.564270,35.910000,4.344813
8.000290,0,0,0,699.431253,-28.212099,0.000000,4535.795931,9892.522474,138.934132,0.000000,2.380085,358.775000,700.000000,1708344684986059,1,0,0,-208388,-389.586090,35.910000,-4.340901
8.000290,0,0,0,699.431253,-28.212099,0.000000,4535.795931,9892.522474,138.934132,0.000000,2.380085,358.775000,700.000000,1708344684986059,2,0,0,-208425,-309.714569,35.910000,-4.344612
8.000290,0,0,0,699.431253,-28.212099,0.000000,4535.795931,9892.522474,138.934132,0.000000,2.380085,358.775000,700.000000,1708344684986059,3,0,0,211053,309.714569,35.910000,4.346701
8.000290,0,0,0,699.431253,-28.212099,0.000000,4535.795931,9892.522474,138.934132,0.000000,2.380085,358.775000,700.000000,1708344684986059,4,0,0,211149,389.586090,35.910000,4.340901
8.000290,0,0,0,699.431253,-28.212099,0.000000,4535.795931,9892.522474,138.934132,0.000000,2.380085,358.775000,700.000000,1708344685111326,1,0,0,-211349,-394.595947,35.910000,-4.343769
8.000290,0,0,0,699.431253,-28.212099,0.000000,4535.795931,9892.522474,138.934132,0.000000,2.380085,358.775000,700.000000,1708344685111326,2,0,0,-211386,-315.975067,35.910000,-4.342766
8.000290,0,0,0,699.431253,-28.212099,0.000000,4535.795931,9892.522474,138.934132,0.000000,2.380085,358.775000,700.000000,1708344685111326,3,0,0,214014,315.975067,35.910000,4.349467
8.000290,0,0,0,699.431253,-28.212099,0.000000,4535.795931,9892.522474,138.934132,0.000000,2.380085,358.775000,700.000000,1708344685111326,4,0,0,214110,315.975067,35.910000,4.343769
8.000290,0,0,0,699.431253,-28.212099,0.000000,4535.795931,9892.522474,138.934132,0.000000,2.380085,358.775000,700.000000,1708344685236695,1,0,0,-214302,-391.561157,35.910000,-4.354908
8.000290,0,0,0,699.431253,-28.212099,0.000000,4535.795931,9892.522474,138.934132,0.000000,2.380085,358.775000,700.000000,1708344685236695,2,0,0,-214339,-312.481598,35.910000,-4.346027
8.000290,0,0,0,699.431253,-28.212099,0.000000,4535.795931,9892.522474,138.934132,0.000000,2.380085,358.775000,700.000000,1708344685236695,3,0,0,216967,312.481598,35.910000,4.345253
8.000290,0,0,0,699.431253,-28.212099,0.000000,4535.795931,9892.522474,138.934132,0.000000,2.380085,358.775000,700.000000,1708344685236695,4,0,0,217063,312.481598,35.910000,4.354908
9.368085,0,0,0,699.977765,-5.579355,0.000000,5509.109985,9914.732620,139.102075,0.000000,2.380085,358.775000,700.000000,1708344685377451,1,0,0,-217700,-392.176605,35.910000,-4.345128
9.368085,0,0,0,699.977765,-5.579355,0.000000,5509.109985,9914.732620,139.102075,0.000000,2.380085,358.775000,700.000000,1708344685377451,2,0,0,-217737,-327.854095,35.910000,-4.343599
9.368085,0,0,0,699.977765,-5.579355,0.000000,5509.109985,9914.732620,139.102075,0.000000,2.380085,358.775000,700.000000,1708344685377451,3,0,0,220365,327.854095,35.910000,4.343818
9.368085,0,0,0,699.977765,-5.579355,0.000000,5509.109985,9914.732620,139.102075,0.000000,2.380085,358.775000,700.000000,1708344685377451,4,0,0,220461,327.854095,35.910000,4.345128
9.368085,0,0,0,699.977765,-5.579355,0.000000,5509.109985,9914.732620,139.102075,0.000000,2.380085,358.775000,700.000000,1708344685537324,1,0,0,-220656,-387.982147,35.910000,-4.348220
9.368085,0,0,0,699.977765,-5.579355,0.000000,5509.109985,9914.732620,139.102075,0.000000,2.380085,358.775000,700.000000,1708344685537324,2,0,0,-220693,-387.982147,35.910000,-4.537148
9.368085,0,0,0,699.977765,-5.579355,0.000000,5509.109985,9914.732620,139.102075,0.000000,2.380085,358.775000,700.000000,1708344685537324,3,0,0,223321,387.982147,35.910000,4.340832
9.368085,0,0,0,699.977765,-5.579355,0.000000,5509.109985,9914.732620,139.102075,0.000000,2.380085,358.775000,700.000000,1708344685537324,4,0,0,223417,387.982147,35.910000,4.353525
9.368085,0,0,0,699.977765,-5.579355,0.000000,5509.109985,9914.732620,139.102075,0.000000,2.380085,358.775000,700.000000,1708344685676136,1,0,0,-224770,-396.072205,35.910000,-4.343903
9.368085,0,0,0,699.977765,-5.579355,0.000000,5509.109985,9914.732620,139.102075,0.000000,2.380085,358.775000,700.000000,1708344685676136,2,0,0,-224807,-315.076691,35.910000,-4.343017
9.368085,0,0,0,699.977765,-5.579355,0.000000,5509.109985,9914.732620,139.102075,0.000000,2.380085,358.775000,700.000000,1708344685676136,3,0,0,227435,315.076691,35.910000,4.348619
9.368085,0,0,0,699.977765,-5.579355,0.000000,5509.109985,9914.732620,139.102075,0.000000,2.380085,358.775000,700.000000,1708344685676136,4,0,0,227531,396.072205,35.910000,4.343903
9.368085,0,0,0,699.977765,-5.579355,0.000000,5509.109985,9914.732620,139.102075,0.000000,2.380085,358.775000,700.000000,1708344685818276,1,0,0,-228098,-379.017761,35.910000,-4.346429
9.368085,0,0,0,699.977765,-5.579355,0.000000,5509.109985,9914.732620,139.102075,0.000000,2.380085,358.775000,700.000000,1708344685818276,2,0,0,-228135,-314.649811,35.910000,-4.345261
9.368085,0,0,0,699.977765,-5.579355,0.000000,5509.109985,9914.732620,139.102075,0.000000,2.380085,358.775000,700.000000,1708344685818276,3,0,0,230763,314.649811,35.910000,4.340800
9.368085,0,0,0,699.977765,-5.579355,0.000000,5509.109985,9914.732620,139.102075,0.000000,2.380085,358.775000,700.000000,1708344685818276,4,0,0,230859,379.017761,35.910000,4.346429
9.368085,0,0,0,699.977765,-5.579355,0.000000,5509.109985,9914.732620,139.102075,0.000000,2.380085,358.775000,700.000000,1708344685962269,1,0,0,-231105,-403.018524,35.910000,-4.345691
9.368085,0,0,0,699.977765,-5.579355,0.000000,5509.109985,9914.732620,139.102075,0.000000,2.380085,358.775000,700.000000,1708344685962269,2,0,0,-231142,-322.924683,35.910000,-4.540309
9.368085,0,0,0,699.977765,-5.579355,0.000000,5509.109985,9914.732620,139.102075,0.000000,2.380085,358.775000,700.000000,1708344685962269,3,0,0,233770,322.924683,35.910000,4.339365
9.368085,0,0,0,699.977765,-5.579355,0.000000,5509.109985,9914.732620,139.102075,0.000000,2.380085,358.775000,700.000000,1708344685962269,4,0,0,233866,322.924683,35.910000,4.345691
9.368085,0,0,0,699.977765,-5.579355,0.000000,5509.109985,9914.732620,139.102075,0.000000,2.380085,358.775000,700.000000,1708344686100348,1,0,0,-234465,-385.428650,35.910000,-4.351751
9.368085,0,0,0,699.977765,-5.579355,0.000000,5509.109985,9914.732620,139.102075,0.000000,2.380085,358.775000,700.000000,1708344686100348,2,0,0,-234502,-288.240265,35.910000,-4.344186
9.368085,0,0,0,699.977765,-5.579355,0.000000,5509.109985,9914.732620,139.102075,0.000000,2.380085,358.775000,700.000000,1708344686100348,3,0,0,237130,288.240265,35.910000,4.340234
9.368085,0,0,0,699.977765,-5.579355,0.000000,5509.109985,9914.732620,139.102075,0.000000,2.380085,358.775000,700.000000,1708344686100348,4,0,0,237226,385.428650,35.910000,4.351751
9.368085,0,0,0,699.977765,-5.579355,0.000000,5509.109985,9914.732620,139.102075,0.000000,2.380085,358.775000,700.000000,1708344686246726,1,0,0,-237778,-292.874359,35.910000,-4.343664
9.368085,0,0,0,699.977765,-5.579355,0.000000,5509.109985,9914.732620,139.102075,0.000000,2.380085,358.775000,700.000000,1708344686246726,2,0,0,-238184,-389.625153,35.910000,-4.340296
9.368085,0,0,0,699.977765,-5.579355,0.000000,5509.109985,9914.732620,139.102075,0.000000,2.380085,358.775000,700.000000,1708344686246726,3,0,0,240812,389.625153,35.910000,4.340296
9.368085,0,0,0,699.977765,-5.579355,0.000000,5509.109985,9914.732620,139.102075,0.000000,2.380085,358.775000,700.000000,1708344686246726,4,0,0,240539,292.874359,35.910000,4.343794
9.368085,0,0,0,699.977765,-5.579355,0.000000,5509.109985,9914.732620,139.102075,0.000000,2.380085,358.775000,700.000000,1708344686358976,1,0,0,-240717,-282.609192,35.910000,-4.339258
9.368085,0,0,0,699.977765,-5.579355,0.000000,5509.109985,9914.732620,139.102075,0.000000,2.380085,358.775000,700.000000,1708344686358976,2,0,0,-241114,-376.205597,35.910000,-4.342710
9.368085,0,0,0,699.977765,-5.579355,0.000000,5509.109985,9914.732620,139.102075,0.000000,2.380085,358.775000,700.000000,1708344686358976,3,0,0,243742,376.205597,35.910000,4.342710
9.368085,0,0,0,699.977765,-5.579355,0.000000,5509.109985,9914.732620,139.102075,0.000000,2.380085,358.775000,700.000000,1708344686358976,4,0,0,243838,376.205597,35.910000,4.345677
9.368085,0,0,0,699.977765,-5.579355,0.000000,5509.109985,9914.732620,139.102075,0.000000,2.380085,358.775000,700.000000,1708344686492342,1,0,0,-244033,-345.170685,35.910000,-4.348845
9.368085,0,0,0,699.977765,-5.579355,0.000000,5509.109985,9914.732620,139.102075,0.000000,2.380085,358.775000,700.000000,1708344686492342,2,0,0,-244070,-345.170685,35.910000,-4.341524
9.368085,0,0,0,699.977765,-5.579355,0.000000,5509.109985,9914.732620,139.102075,0.000000,2.380085,358.775000,700.000000,1708344686492342,3,0,0,246698,345.170685,35.910000,4.347597
9.368085,0,0,0,699.977765,-5.579355,0.000000,5509.109985,9914.732620,139.102075,0.000000,2.380085,358.775000,700.000000,1708344686492342,4,0,0,246794,345.170685,35.910000,4.348845
9.368085,0,0,0,699.977765,-5.579355,0.000000,5509.109985,9914.732620,139.102075,0.000000,2.380085,358.775000,700.000000,1708344686630534,1,0,0,-247393,-395.012329,35.910000,-4.347812
9.368085,0,0,0,699.977765,-5.579355,0.000000,5509.109985,9914.732620,139.102075,0.000000,2.380085,358.775000,700.000000,1708344686630534,2,0,0,-247430,-316.052216,35.910000,-4.343449
9.368085,0,0,0,699.977765,-5.579355,0.000000,5509.109985,9914.732620,139.102075,0.000000,2.380085,358.775000,700.000000,1708344686630534,3,0,0,250058,316.052216,35.910000,4.342670
9.368085,0,0,0,699.977765,-5.579355,0.000000,5509.109985,9914.732620,139.102075,0.000000,2.380085,358.775000,700.000000,1708344686630534,4,0,0,250154,395.012329,35.910000,4.347812
10.736396,40,0,0,629.380369,-306.399006,0.000000,6460.289933,9736.052063,140.073455,0.000000,0.280085,299.099999,700.000000,1708344686757838,1,0,0,-250371,-388.271240,35.910000,-4.345348
10.736396,40,0,0,629.380369,-306.399006,0.000000,6460.289933,9736.052063,140.073455,0.000000,0.280085,299.099999,700.000000,1708344686757838,2,0,0,-250408,-307.745544,35.910000,-4.345068
10.736396,40,0,0,629.380369,-306.399006,0.000000,6460.289933,9736.052063,140.073455,0.000000,0.280085,299.099999,700.000000,1708344686757838,3,0,0,253036,307.745544,35.910000,4.344144
10.736396,40,0,0,629.380369,-306.399006,0.000000,6460.289933,9736.052063,140.073455,0.000000,0.280085,299.099999,700.000000,1708344686757838,4,0,0,253132,388.271240,35.910000,4.345348
10.736396,40,0,0,629.380369,-306.399006,0.000000,6460.289933,9736.052063,140.073455,0.000000,0.280085,299.099999,700.000000,1708344686882374,1,0,0,-253327,-394.918549,35.910000,-4.345752
10.736396,40,0,0,629.380369,-306.399006,0.000000,6460.289933,9736.052063,140.073455,0.000000,0.280085,299.099999,700.000000,1708344686882374,2,0,0,-253364,-315.249512,35.910000,-4.343338
10.736396,40,0,0,629.380369,-306.399006,0.000000,6460.289933,9736.052063,140.073455,0.000000,0.280085,299.099999,700.000000,1708344686882374,3,0,0,255992,315.249512,35.910000,4.343896
10.736396,40,0,0,629.380369,-306.399006,0.000000,6460.289933,9736.052063,140.073455,0.000000,0.280085,299.099999,700.000000,1708344686882374,4,0,0,256088,315.249512,35.910000,4.345752
10.736396,40,0,0,629.380369,-306.399006,0.000000,6460.289933,9736.052063,140.073455,0.000000,0.280085,299.099999,700.000000,1708344687010789,1,0,0,-256296,-312.742371,35.910000,-4.346621
10.736396,40,0,0,629.380369,-306.399006,0.000000,6460.289933,9736.052063,140.073455,0.000000,0.280085,299.099999,700.000000,1708344687010789,2,0,0,-256333,-312.742371,35.910000,-4.354212
10.736396,40,0,0,629.380369,-306.399006,0.000000,6460.289933,9736.052063,140.073455,0.000000,0.280085,299.099999,700.000000,1708344687010789,3,0,0,258961,312.742371,35.910000,4.340691
10.736396,40,0,0,629.380369,-306.399006,0.000000,6460.289933,9736.052063,140.073455,0.000000,0.280085,299.099999,700.000000,1708344687010789,4,0,0,259057,312.742371,35.910000,4.354212
10.736396,40,0,0,629.380369,-306.399006,0.000000,6460.289933,9736.052063,140.073455,0.000000,0.280085,299.099999,700.000000,1708344687135155,1,0,0,-259295,-389.356232,35.910000,-4.339600
10.736396,40,0,0,629.380369,-306.399006,0.000000,6460.289933,9736.052063,140.073455,0.000000,0.280085,299.099999,700.000000,1708344687135155,2,0,0,-259332,-294.824402,35.910000,-4.343480
10.736396,40,0,0,629.380369,-306.399006,0.000000,6460.289933,9736.052063,140.073455,0.000000,0.280085,299.099999,700.000000,1708344687135155,3,0,0,261960,294.824402,35.910000,4.343748
10.736396,40,0,0,629.380369,-306.399006,0.000000,6460.289933,9736.052063,140.073455,0.000000,0.280085,299.099999,700.000000,1708344687135155,4,0,0,262056,294.824402,35.910000,4.339600
10.736396,40,0,0,629.380369,-306.399006,0.000000,6460.289933,9736.052063,140.073455,0.000000,0.280085,299.099999,700.000000,1708344687296844,1,0,0,-262637,-345.217285,35.910000,-4.342358
10.736396,40,0,0,629.380369,-306.399006,0.000000,6460.289933,9736.052063,140.073455,0.000000,0.280085,299.099999,700.000000,1708344687296844,2,0,0,-263040,-346.873444,35.910000,-4.340601
10.736396,40,0,0,629.380369,-306.399006,0.000000,6460.289933,9736.052063,140.073455,0.000000,0.280085,299.099999,700.000000,1708344687296844,3,0,0,265668,346.873444,35.910000,4.340601
10.736396,40,0,0,629.380369,-306.399006,0.000000,6460.289933,9736.052063,140.073455,0.000000,0.280085,299.099999,700.000000,1708344687296844,4,0,0,265764,346.873444,35.910000,4.346953
10.736396,40,0,0,629.380369,-306.399006,0.000000,6460.289933,9736.052063,140.073455,0.000000,0.280085,299.099999,700.000000,1708344687422096,1,0,0,-265625,-295.021454,35.910000,-4.345960
10.736396,40,0,0,629.380369,-306.399006,0.000000,6460.289933,9736.052063,140.073455,0.000000,0.280085,299.099999,700.000000,1708344687422096,2,0,0,-266035,-391.720062,35.910000,-4.347465
10.736396,40,0,0,629.380369,-306.399006,0.000000,6460.289933,9736.052063,140.073455,0.000000,0.280085,299.099999,700.000000,1708344687422096,3,0,0,268663,391.720062,35.910000,4.347465
10.736396,40,0,0,629.380369,-306.399006,0.000000,6460.289933,9736.052063,140.073455,0.000000,0.280085,299.099999,700.000000,1708344687422096,4,0,0,268386,295.021454,35.910000,4.342454
10.736396,40,0,0,629.380369,-306.399006,0.000000,6460.289933,9736.052063,140.073455,0.000000,0.280085,299.099999,700.000000,1708344687546919,1,0,0,-268961,-315.279877,35.910000,-4.341238
10.736396,40,0,0,629.380369,-306.399006,0.000000,6460.289933,9736.052063,140.073455,0.000000,0.280085,299.099999,700.000000,1708344687546919,2,0,0,-268998,-315.279877,35.910000,-4.349148
10.736396,40,0,0,629.380369,-306.399006,0.000000,6460.289933,9736.052063,140.073455,0.000000,0.280085,299.099999,700.000000,1708344687546919,3,0,0,271626,315.279877,35.910000,4.341188
10.736396,40,0,0,629.380369,-306.399006,0.000000,6460.289933,9736.052063,140.073455,0.000000,0.280085,299.099999,700.000000,1708344687546919,4,0,0,271722,315.279877,35.910000,4.349148
10.736396,40,0,0,629.380369,-306.399006,0.000000,6460.289933,9736.052063,140.073455,0.000000,0.280085,299.099999,700.000000,1708344687671858,1,0,0,-271925,-321.290955,35.910000,-4.344440
10.736396,40,0,0,629.380369,-306.399006,0.000000,6460.289933,9736.052063,140.073455,0.000000,0.280085,299.099999,700.000000,1708344687671858,2,0,0,-271962,-321.290955,35.910000,-4.346413
10.736396,40,0,0,629.380369,-306.399006,0.000000,6460.289933,9736.052063,140.073455,0.000000,0.280085,299.099999,700.000000,1708344687671858,3,0,0,274590,321.290955,35.910000,4.343696
10.736396,40,0,0,629.380369,-306.399006,0.000000,6460.289933,9736.052063,140.073455,0.000000,0.280085,299.099999,700.000000,1708344687671858,4,0,0,274686,321.290955,35.910000,4.346413
10.736396,40,0,0,629.380369,-306.399006,0.000000,6460.289933,9736.052063,140.073455,0.000000,0.280085,299.099999,700.000000,1708344687825765,1,0,0,-275254,-315.993317,35.910000,-4.343870
10.736396,40,0,0,629.380369,-306.399006,0.000000,6460.289933,9736.052063,140.073455,0.000000,0.280085,299.099999,700.000000,1708344687825765,2,0,0,-275291,-315.993317,35.910000,-4.338689
10.736396,40,0,0,629.380369,-306.399006,0.000000,6460.289933,9736.052063,140.073455,0.000000,0.280085,299.099999,700.000000,1708344687825765,3,0,0,278287,379.123535,35.910000,4.349947
10.736396,40,0,0,629.380369,-306.399006,0.000000,6460.289933,9736.052063,140.073455,0.000000,0.280085,299.099999,700.000000,1708344687825765,4,0,0,278014,315.993317,35.910000,4.338689
10.736396,40,0,0,629.380369,-306.399006,0.000000,6460.289933,9736.052063,140.073455,0.000000,0.280085,299.099999,700.000000,1708344687951914,1,0,0,-278598,-316.909088,35.910000,-4.342041
10.736396,40,0,0,629.380369,-306.399006,0.000000,6460.289933,9736.052063,140.073455,0.000000,0.280085,299.099999,700.000000,1708344687951914,2,0,0,-278635,-316.909088,35.910000,-4.342185
10.736396,40,0,0,629.380369,-306.399006,0.000000,6460.289933,9736.052063,140.073455,0.000000,0.280085,299.099999,700.000000,1708344687951914,3,0,0,281262,316.909088,35.910000,4.344380
10.736396,40,0,0,629.380369,-306.399006,0.000000,6460.289933,9736.052063,140.073455,0.000000,0.280085,299.099999,700.000000,1708344687951914,4,0,0,281358,316.909088,35.910000,4.342185
12.089115,30,250,0,470.528741,-518.268950,0.000000,6737.725565,8918.972856,140.073455,0.000000,0.140115,350.199999,700.000000,1708344688077106,1,0,0,-281555,-313.603882,35.910000,-4.346000
12.089115,30,250,0,470.528741,-518.268950,0.000000,6737.725565,8918.972856,140.073455,0.000000,0.140115,350.199999,700.000000,1708344688077106,2,0,0,-281592,-313.603882,35.910000,-4.343111
12.089115,30,250,0,470.528741,-518.268950,0.000000,6737.725565,8918.972856,140.073455,0.000000,0.140115,350.199999,700.000000,1708344688077106,3,0,0,284219,313.603882,35.910000,4.346702
12.089115,30,250,0,470.528741,-518.268950,0.000000,6737.725565,8918.972856,140.073455,0.000000,0.140115,350.199999,700.000000,1708344688077106,4,0,0,284315,313.603882,35.910000,4.343111
12.089115,30,250,0,470.528741,-518.268950,0.000000,6737.725565,8918.972856,140.073455,0.000000,0.140115,350.199999,700.000000,1708344688202101,1,0,0,-284513,-311.782013,35.910000,-4.353362
12.089115,30,250,0,470.528741,-518.268950,0.000000,6737.725565,8918.972856,140.073455,0.000000,0.140115,350.199999,700.000000,1708344688202101,2,0,0,-284550,-311.782013,35.910000,-4.343053
12.089115,30,250,0,470.528741,-518.268950,0.000000,6737.725565,8918.972856,140.073455,0.000000,0.140115,350.199999,700.000000,1708344688202101,3,0,0,287177,311.782013,35.910000,4.347920
