CurrentTime,PlatformType,PlatformDirection,PlatformMovementType,PlayerVelocity.x,PlayerVelocity.y,PlayerVelocity.z,PlayerPosition.x,PlayerPosition.y,PlayerPosition.z,PlayerRotation.Pitch,PlayerRotation.Roll,PlayerRotation.Yaw,PlayerCurrentSpeed,UnixTimeStamp [us],ControllerId,MotorFlags,HallPosition,EncoderPosition,MotorVelocity,MotorVoltage,MotorCurrent 
1.834810,0,0,250,66.828892,-1.311825,0.000000,55.503921,7699.629748,138.911654,0.000000,0.980000,357.900001,500.000000,1713113745537165,1,0,0,-414886,-73.936127,35.910000,-0.844589,0
1.834810,0,0,250,66.828892,-1.311825,0.000000,55.503921,7699.629748,138.911654,0.000000,0.980000,357.900001,500.000000,1713113745537165,2,0,0,-1193023,-73.936127,35.910000,-0.852508,0
1.834810,0,0,250,66.828892,-1.311825,0.000000,55.503921,7699.629748,138.911654,0.000000,0.980000,357.900001,500.000000,1713113745537165,3,0,0,1203934,73.936127,35.910000,0.852508,0
1.834810,0,0,250,66.828892,-1.311825,0.000000,55.503921,7699.629748,138.911654,0.000000,0.980000,357.900001,500.000000,1713113745537165,4,0,0,525186,73.936127,35.910000,0.844589,0
1.834810,0,0,250,66.828892,-1.311825,0.000000,55.503921,7699.629748,138.911654,0.000000,0.980000,357.900001,500.000000,1713113745667111,1,0,0,-415641,-61.905338,35.910000,-0.844649,0
1.834810,0,0,250,66.828892,-1.311825,0.000000,55.503921,7699.629748,138.911654,0.000000,0.980000,357.900001,500.000000,1713113745667111,2,0,0,-1193855,-77.637054,35.910000,-0.844678,0
1.834810,0,0,250,66.828892,-1.311825,0.000000,55.503921,7699.629748,138.911654,0.000000,0.980000,357.900001,500.000000,1713113745667111,3,0,0,1204766,77.637054,35.910000,0.844678,0
1.834810,0,0,250,66.828892,-1.311825,0.000000,55.503921,7699.629748,138.911654,0.000000,0.980000,357.900001,500.000000,1713113745667111,4,0,0,525941,61.905338,35.910000,0.844099,0
1.834810,0,0,250,66.828892,-1.311825,0.000000,55.503921,7699.629748,138.911654,0.000000,0.980000,357.900001,500.000000,1713113745791389,1,0,0,-416238,-58.076191,35.910000,-0.844267,0
1.834810,0,0,250,66.828892,-1.311825,0.000000,55.503921,7699.629748,138.911654,0.000000,0.980000,357.900001,500.000000,1713113745791389,2,0,0,-1194448,-77.173317,35.910000,-0.844516,0
1.834810,0,0,250,66.828892,-1.311825,0.000000,55.503921,7699.629748,138.911654,0.000000,0.980000,357.900001,500.000000,1713113745791389,3,0,0,1205359,77.173317,35.910000,0.844516,0
1.834810,0,0,250,66.828892,-1.311825,0.000000,55.503921,7699.629748,138.911654,0.000000,0.980000,357.900001,500.000000,1713113745791389,4,0,0,526538,58.076191,35.910000,0.844064,0
1.834810,0,0,250,66.828892,-1.311825,0.000000,55.503921,7699.629748,138.911654,0.000000,0.980000,357.900001,500.000000,1713113745963857,1,0,0,-416981,-78.426353,35.910000,-0.844314,0
1.834810,0,0,250,66.828892,-1.311825,0.000000,55.503921,7699.629748,138.911654,0.000000,0.980000,357.900001,500.000000,1713113745963857,2,0,0,-1195118,-78.426353,35.910000,-0.844308,0
1.834810,0,0,250,66.828892,-1.311825,0.000000,55.503921,7699.629748,138.911654,0.000000,0.980000,357.900001,500.000000,1713113745963857,3,0,0,1206029,78.426353,35.910000,0.844317,0
1.834810,0,0,250,66.828892,-1.311825,0.000000,55.503921,7699.629748,138.911654,0.000000,0.980000,357.900001,500.000000,1713113745963857,4,0,0,527281,78.426353,35.910000,0.844351,0
1.834810,0,0,250,66.828892,-1.311825,0.000000,55.503921,7699.629748,138.911654,0.000000,0.980000,357.900001,500.000000,1713113746086611,1,0,0,-417653,-64.740120,35.910000,-0.844350,0
1.834810,0,0,250,66.828892,-1.311825,0.000000,55.503921,7699.629748,138.911654,0.000000,0.980000,357.900001,500.000000,1713113746086611,2,0,0,-1195790,-64.740120,35.910000,-0.844253,0
1.834810,0,0,250,66.828892,-1.311825,0.000000,55.503921,7699.629748,138.911654,0.000000,0.980000,357.900001,500.000000,1713113746086611,3,0,0,1206775,80.762756,35.910000,0.844131,0
1.834810,0,0,250,66.828892,-1.311825,0.000000,55.503921,7699.629748,138.911654,0.000000,0.980000,357.900001,500.000000,1713113746086611,4,0,0,527953,64.740120,35.910000,0.844253,0
1.834810,0,0,250,66.828892,-1.311825,0.000000,55.503921,7699.629748,138.911654,0.000000,0.980000,357.900001,500.000000,1713113746229464,1,0,0,-418317,-58.231712,35.910000,-0.844319,0
1.834810,0,0,250,66.828892,-1.311825,0.000000,55.503921,7699.629748,138.911654,0.000000,0.980000,357.900001,500.000000,1713113746229464,2,0,0,-1196528,-77.730110,35.910000,-0.844348,0
1.834810,0,0,250,66.828892,-1.311825,0.000000,55.503921,7699.629748,138.911654,0.000000,0.980000,357.900001,500.000000,1713113746229464,3,0,0,1207439,77.730110,35.910000,0.844348,0
1.834810,0,0,250,66.828892,-1.311825,0.000000,55.503921,7699.629748,138.911654,0.000000,0.980000,357.900001,500.000000,1713113746229464,4,0,0,528691,77.730110,35.910000,0.844311,0
1.834810,0,0,250,66.828892,-1.311825,0.000000,55.503921,7699.629748,138.911654,0.000000,0.980000,357.900001,500.000000,1713113746389766,1,0,0,-419051,-67.516190,35.910000,-0.844031,0
1.834810,0,0,250,66.828892,-1.311825,0.000000,55.503921,7699.629748,138.911654,0.000000,0.980000,357.900001,500.000000,1713113746389766,2,0,0,-1197188,-67.516190,35.910000,-0.844638,0
1.834810,0,0,250,66.828892,-1.311825,0.000000,55.503921,7699.629748,138.911654,0.000000,0.980000,357.900001,500.000000,1713113746389766,3,0,0,1208099,67.516190,35.910000,0.844312,0
1.834810,0,0,250,66.828892,-1.311825,0.000000,55.503921,7699.629748,138.911654,0.000000,0.980000,357.900001,500.000000,1713113746389766,4,0,0,529351,67.516190,35.910000,0.844638,0
1.834810,0,0,250,66.828892,-1.311825,0.000000,55.503921,7699.629748,138.911654,0.000000,0.980000,357.900001,500.000000,1713113746514139,1,0,0,-419641,-77.188240,35.910000,-0.844425,0
1.834810,0,0,250,66.828892,-1.311825,0.000000,55.503921,7699.629748,138.911654,0.000000,0.980000,357.900001,500.000000,1713113746514139,2,0,0,-1197778,-57.234818,35.910000,-0.844590,0
1.834810,0,0,250,66.828892,-1.311825,0.000000,55.503921,7699.629748,138.911654,0.000000,0.980000,357.900001,500.000000,1713113746514139,3,0,0,1208689,57.234818,35.910000,0.844282,0
1.834810,0,0,250,66.828892,-1.311825,0.000000,55.503921,7699.629748,138.911654,0.000000,0.980000,357.900001,500.000000,1713113746514139,4,0,0,529941,57.234818,35.910000,0.844590,0
1.834810,0,0,250,66.828892,-1.311825,0.000000,55.503921,7699.629748,138.911654,0.000000,0.980000,357.900001,500.000000,1713113746661440,1,0,0,-420387,-62.991261,35.910000,-0.844045,0
1.834810,0,0,250,66.828892,-1.311825,0.000000,55.503921,7699.629748,138.911654,0.000000,0.980000,357.900001,500.000000,1713113746661440,2,0,0,-1198595,-78.049782,35.910000,-0.844332,0
1.834810,0,0,250,66.828892,-1.311825,0.000000,55.503921,7699.629748,138.911654,0.000000,0.980000,357.900001,500.000000,1713113746661440,3,0,0,1209506,78.049782,35.910000,0.844332,0
1.834810,0,0,250,66.828892,-1.311825,0.000000,55.503921,7699.629748,138.911654,0.000000,0.980000,357.900001,500.000000,1713113746661440,4,0,0,530687,62.991261,35.910000,0.844168,0
1.834810,0,0,250,66.828892,-1.311825,0.000000,55.503921,7699.629748,138.911654,0.000000,0.980000,357.900001,500.000000,1713113746799244,1,0,0,-420978,-57.862247,35.910000,-0.844501,0
1.834810,0,0,250,66.828892,-1.311825,0.000000,55.503921,7699.629748,138.911654,0.000000,0.980000,357.900001,500.000000,1713113746799244,2,0,0,-1199191,-77.582115,35.910000,-0.844356,0
1.834810,0,0,250,66.828892,-1.311825,0.000000,55.503921,7699.629748,138.911654,0.000000,0.980000,357.900001,500.000000,1713113746799244,3,0,0,1210102,77.582115,35.910000,0.844356,0
1.834810,0,0,250,66.828892,-1.311825,0.000000,55.503921,7699.629748,138.911654,0.000000,0.980000,357.900001,500.000000,1713113746799244,4,0,0,531278,57.862247,35.910000,0.844289,0
3.237397,0,0,250,59.661401,-2.044637,0.000000,129.285804,7704.581098,138.911654,0.000000,0.980000,357.900001,500.000000,1713113746936476,1,0,0,-421647,-63.537804,35.910000,-0.844394,0
3.237397,0,0,250,59.661401,-2.044637,0.000000,129.285804,7704.581098,138.911654,0.000000,0.980000,357.900001,500.000000,1713113746936476,2,0,0,-1199784,-63.537804,35.910000,-0.844299,0
3.237397,0,0,250,59.661401,-2.044637,0.000000,129.285804,7704.581098,138.911654,0.000000,0.980000,357.900001,500.000000,1713113746936476,3,0,0,1210695,63.537804,35.910000,0.844263,0
3.237397,0,0,250,59.661401,-2.044637,0.000000,129.285804,7704.581098,138.911654,0.000000,0.980000,357.900001,500.000000,1713113746936476,4,0,0,531947,63.537804,35.910000,0.844299,0
3.237397,0,0,250,59.661401,-2.044637,0.000000,129.285804,7704.581098,138.911654,0.000000,0.980000,357.900001,500.000000,1713113747078922,1,0,0,-422316,-63.222031,35.910000,-0.844428,0
3.237397,0,0,250,59.661401,-2.044637,0.000000,129.285804,7704.581098,138.911654,0.000000,0.980000,357.900001,500.000000,1713113747078922,2,0,0,-1200453,-63.222031,35.910000,-0.851892,0
3.237397,0,0,250,59.661401,-2.044637,0.000000,129.285804,7704.581098,138.911654,0.000000,0.980000,357.900001,500.000000,1713113747078922,3,0,0,1211364,63.222031,35.910000,0.844488,0
3.237397,0,0,250,59.661401,-2.044637,0.000000,129.285804,7704.581098,138.911654,0.000000,0.980000,357.900001,500.000000,1713113747078922,4,0,0,532616,63.222031,35.910000,0.851892,0
3.237397,0,0,250,59.661401,-2.044637,0.000000,129.285804,7704.581098,138.911654,0.000000,0.980000,357.900001,500.000000,1713113747203089,1,0,0,-422984,-63.339874,35.910000,-0.844526,0
3.237397,0,0,250,59.661401,-2.044637,0.000000,129.285804,7704.581098,138.911654,0.000000,0.980000,357.900001,500.000000,1713113747203089,2,0,0,-1201121,-63.339874,35.910000,-0.844864,0
3.237397,0,0,250,59.661401,-2.044637,0.000000,129.285804,7704.581098,138.911654,0.000000,0.980000,357.900001,500.000000,1713113747203089,3,0,0,1212032,63.339874,35.910000,0.844306,0
3.237397,0,0,250,59.661401,-2.044637,0.000000,129.285804,7704.581098,138.911654,0.000000,0.980000,357.900001,500.000000,1713113747203089,4,0,0,533284,63.339874,35.910000,0.844526,0
3.237397,0,0,250,59.661401,-2.044637,0.000000,129.285804,7704.581098,138.911654,0.000000,0.980000,357.900001,500.000000,1713113747338923,1,0,0,-423580,-77.633499,35.910000,-0.844261,0
3.237397,0,0,250,59.661401,-2.044637,0.000000,129.285804,7704.581098,138.911654,0.000000,0.980000,357.900001,500.000000,1713113747338923,2,0,0,-1201717,-58.093094,35.910000,-0.844331,0
3.237397,0,0,250,59.661401,-2.044637,0.000000,129.285804,7704.581098,138.911654,0.000000,0.980000,357.900001,500.000000,1713113747338923,3,0,0,1212628,58.093094,35.910000,0.844386,0
3.237397,0,0,250,59.661401,-2.044637,0.000000,129.285804,7704.581098,138.911654,0.000000,0.980000,357.900001,500.000000,1713113747338923,4,0,0,533880,77.633499,35.910000,0.844297,0
3.237397,0,0,250,59.661401,-2.044637,0.000000,129.285804,7704.581098,138.911654,0.000000,0.980000,357.900001,500.000000,1713113747463331,1,0,0,-424244,-79.558952,35.910000,-0.844140,0
3.237397,0,0,250,59.661401,-2.044637,0.000000,129.285804,7704.581098,138.911654,0.000000,0.980000,357.900001,500.000000,1713113747463331,2,0,0,-1202382,-63.647163,35.910000,-0.844595,0
3.237397,0,0,250,59.661401,-2.044637,0.000000,129.285804,7704.581098,138.911654,0.000000,0.980000,357.900001,500.000000,1713113747463331,3,0,0,1213293,63.647163,35.910000,0.844275,0
3.237397,0,0,250,59.661401,-2.044637,0.000000,129.285804,7704.581098,138.911654,0.000000,0.980000,357.900001,500.000000,1713113747463331,4,0,0,534545,79.558952,35.910000,0.844140,0
3.237397,0,0,250,59.661401,-2.044637,0.000000,129.285804,7704.581098,138.911654,0.000000,0.980000,357.900001,500.000000,1713113747624389,1,0,0,-424991,-66.944580,35.910000,-0.844203,0
3.237397,0,0,250,59.661401,-2.044637,0.000000,129.285804,7704.581098,138.911654,0.000000,0.980000,357.900001,500.000000,1713113747624389,2,0,0,-1203129,-66.944580,35.910000,-0.844047,0
3.237397,0,0,250,59.661401,-2.044637,0.000000,129.285804,7704.581098,138.911654,0.000000,0.980000,357.900001,500.000000,1713113747624389,3,0,0,1214040,66.944580,35.910000,0.844294,0
3.237397,0,0,250,59.661401,-2.044637,0.000000,129.285804,7704.581098,138.911654,0.000000,0.980000,357.900001,500.000000,1713113747624389,4,0,0,535292,66.944580,35.910000,0.844047,0
3.237397,0,0,250,59.661401,-2.044637,0.000000,129.285804,7704.581098,138.911654,0.000000,0.980000,357.900001,500.000000,1713113747747931,1,0,0,-425581,-63.278893,35.910000,-0.844251,0
3.237397,0,0,250,59.661401,-2.044637,0.000000,129.285804,7704.581098,138.911654,0.000000,0.980000,357.900001,500.000000,1713113747747931,2,0,0,-1203719,-63.278893,35.910000,-0.844293,0
3.237397,0,0,250,59.661401,-2.044637,0.000000,129.285804,7704.581098,138.911654,0.000000,0.980000,357.900001,500.000000,1713113747747931,3,0,0,1214630,63.494862,35.910000,0.844860,0
3.237397,0,0,250,59.661401,-2.044637,0.000000,129.285804,7704.581098,138.911654,0.000000,0.980000,357.900001,500.000000,1713113747747931,4,0,0,535882,63.278893,35.910000,0.844293,0
3.237397,0,0,250,59.661401,-2.044637,0.000000,129.285804,7704.581098,138.911654,0.000000,0.980000,357.900001,500.000000,1713113747884126,1,0,0,-426172,-63.177273,35.910000,-0.844445,0
3.237397,0,0,250,59.661401,-2.044637,0.000000,129.285804,7704.581098,138.911654,0.000000,0.980000,357.900001,500.000000,1713113747884126,2,0,0,-1204310,-63.177273,35.910000,-0.844042,0
3.237397,0,0,250,59.661401,-2.044637,0.000000,129.285804,7704.581098,138.911654,0.000000,0.980000,357.900001,500.000000,1713113747884126,3,0,0,1215221,63.177273,35.910000,0.844553,0
3.237397,0,0,250,59.661401,-2.044637,0.000000,129.285804,7704.581098,138.911654,0.000000,0.980000,357.900001,500.000000,1713113747884126,4,0,0,536473,63.177273,35.910000,0.844042,0
3.237397,0,0,250,59.661401,-2.044637,0.000000,129.285804,7704.581098,138.911654,0.000000,0.980000,357.900001,500.000000,1713113748008953,1,0,0,-426766,-77.649933,35.910000,-0.844473,0
3.237397,0,0,250,59.661401,-2.044637,0.000000,129.285804,7704.581098,138.911654,0.000000,0.980000,357.900001,500.000000,1713113748008953,2,0,0,-1204904,-58.041363,35.910000,-0.844336,0
3.237397,0,0,250,59.661401,-2.044637,0.000000,129.285804,7704.581098,138.911654,0.000000,0.980000,357.900001,500.000000,1713113748008953,3,0,0,1215815,58.041363,35.910000,0.844028,0
3.237397,0,0,250,59.661401,-2.044637,0.000000,129.285804,7704.581098,138.911654,0.000000,0.980000,357.900001,500.000000,1713113748008953,4,0,0,537067,58.041363,35.910000,0.844473,0
3.237397,0,0,250,59.661401,-2.044637,0.000000,129.285804,7704.581098,138.911654,0.000000,0.980000,357.900001,500.000000,1713113748153220,1,0,0,-427434,-72.418182,35.910000,-0.844500,0
3.237397,0,0,250,59.661401,-2.044637,0.000000,129.285804,7704.581098,138.911654,0.000000,0.980000,357.900001,500.000000,1713113748153220,2,0,0,-1205572,-57.934547,35.910000,-0.844278,0
3.237397,0,0,250,59.661401,-2.044637,0.000000,129.285804,7704.581098,138.911654,0.000000,0.980000,357.900001,500.000000,1713113748153220,3,0,0,1216483,57.934547,35.910000,0.844327,0
3.237397,0,0,250,59.661401,-2.044637,0.000000,129.285804,7704.581098,138.911654,0.000000,0.980000,357.900001,500.000000,1713113748153220,4,0,0,537735,72.418182,35.910000,0.844278,0
4.570731,0,0,250,59.201050,2.417878,0.000000,211.663380,7697.610216,138.911654,0.000000,0.980000,357.900001,500.000000,1713113748285096,1,0,0,-428104,-57.525887,35.910000,-0.844793,0
4.570731,0,0,250,59.201050,2.417878,0.000000,211.663380,7697.610216,138.911654,0.000000,0.980000,357.900001,500.000000,1713113748285096,2,0,0,-1206320,-72.532639,35.910000,-0.844099,0
4.570731,0,0,250,59.201050,2.417878,0.000000,211.663380,7697.610216,138.911654,0.000000,0.980000,357.900001,500.000000,1713113748285096,3,0,0,1217231,72.532639,35.910000,0.844099,0
4.570731,0,0,250,59.201050,2.417878,0.000000,211.663380,7697.610216,138.911654,0.000000,0.980000,357.900001,500.000000,1713113748285096,4,0,0,538483,72.532639,35.910000,0.844234,0
4.570731,0,0,250,59.201050,2.417878,0.000000,211.663380,7697.610216,138.911654,0.000000,0.980000,357.900001,500.000000,1713113748422405,1,0,0,-428699,-57.893730,35.910000,-0.844500,0
4.570731,0,0,250,59.201050,2.417878,0.000000,211.663380,7697.610216,138.911654,0.000000,0.980000,357.900001,500.000000,1713113748422405,2,0,0,-1206913,-77.624329,35.910000,-0.844336,0
4.570731,0,0,250,59.201050,2.417878,0.000000,211.663380,7697.610216,138.911654,0.000000,0.980000,357.900001,500.000000,1713113748422405,3,0,0,1217900,97.354927,35.910000,0.844164,0
4.570731,0,0,250,59.201050,2.417878,0.000000,211.663380,7697.610216,138.911654,0.000000,0.980000,357.900001,500.000000,1713113748422405,4,0,0,539076,77.624329,35.910000,0.844336,0
4.570731,0,0,250,59.201050,2.417878,0.000000,211.663380,7697.610216,138.911654,0.000000,0.980000,357.900001,500.000000,1713113748558539,1,0,0,-429364,-57.599461,35.910000,-0.844493,0
4.570731,0,0,250,59.201050,2.417878,0.000000,211.663380,7697.610216,138.911654,0.000000,0.980000,357.900001,500.000000,1713113748558539,2,0,0,-1207503,-57.862473,35.910000,-0.844274,0
4.570731,0,0,250,59.201050,2.417878,0.000000,211.663380,7697.610216,138.911654,0.000000,0.980000,357.900001,500.000000,1713113748558539,3,0,0,1218489,77.588318,35.910000,0.844301,0
4.570731,0,0,250,59.201050,2.417878,0.000000,211.663380,7697.610216,138.911654,0.000000,0.980000,357.900001,500.000000,1713113748558539,4,0,0,539665,57.599461,35.910000,0.844274,0
4.570731,0,0,250,59.201050,2.417878,0.000000,211.663380,7697.610216,138.911654,0.000000,0.980000,357.900001,500.000000,1713113748684501,1,0,0,-429952,-56.757011,35.910000,-0.844354,0
4.570731,0,0,250,59.201050,2.417878,0.000000,211.663380,7697.610216,138.911654,0.000000,0.980000,357.900001,500.000000,1713113748684501,2,0,0,-1208165,-76.023148,35.910000,-0.844399,0
4.570731,0,0,250,59.201050,2.417878,0.000000,211.663380,7697.610216,138.911654,0.000000,0.980000,357.900001,500.000000,1713113748684501,3,0,0,1219076,76.023148,35.910000,0.844399,0
4.570731,0,0,250,59.201050,2.417878,0.000000,211.663380,7697.610216,138.911654,0.000000,0.980000,357.900001,500.000000,1713113748684501,4,0,0,540252,56.496658,35.910000,0.844436,0
4.570731,0,0,250,59.201050,2.417878,0.000000,211.663380,7697.610216,138.911654,0.000000,0.980000,357.900001,500.000000,1713113748826075,1,0,0,-430624,-63.728935,35.910000,-0.844271,0
4.570731,0,0,250,59.201050,2.417878,0.000000,211.663380,7697.610216,138.911654,0.000000,0.980000,357.900001,500.000000,1713113748826075,2,0,0,-1208763,-63.728935,35.910000,-0.844324,0
4.570731,0,0,250,59.201050,2.417878,0.000000,211.663380,7697.610216,138.911654,0.000000,0.980000,357.900001,500.000000,1713113748826075,3,0,0,1219674,63.728935,35.910000,0.851705,0
4.570731,0,0,250,59.201050,2.417878,0.000000,211.663380,7697.610216,138.911654,0.000000,0.980000,357.900001,500.000000,1713113748826075,4,0,0,540925,63.728935,35.910000,0.844324,0
4.570731,0,0,250,59.201050,2.417878,0.000000,211.663380,7697.610216,138.911654,0.000000,0.980000,357.900001,500.000000,1713113748968442,1,0,0,-431287,-63.478168,35.910000,-0.844327,0
4.570731,0,0,250,59.201050,2.417878,0.000000,211.663380,7697.610216,138.911654,0.000000,0.980000,357.900001,500.000000,1713113748968442,2,0,0,-1209426,-63.478168,35.910000,-0.852353,0
4.570731,0,0,250,59.201050,2.417878,0.000000,211.663380,7697.610216,138.911654,0.000000,0.980000,357.900001,500.000000,1713113748968442,3,0,0,1220411,79.401505,35.910000,0.852353,0
4.570731,0,0,250,59.201050,2.417878,0.000000,211.663380,7697.610216,138.911654,0.000000,0.980000,357.900001,500.000000,1713113748968442,4,0,0,541588,63.478168,35.910000,0.844315,0
4.570731,0,0,250,59.201050,2.417878,0.000000,211.663380,7697.610216,138.911654,0.000000,0.980000,357.900001,500.000000,1713113749104656,1,0,0,-431960,-58.820591,35.910000,-0.844342,0
4.570731,0,0,250,59.201050,2.417878,0.000000,211.663380,7697.610216,138.911654,0.000000,0.980000,357.900001,500.000000,1713113749104656,2,0,0,-1210173,-78.339531,35.910000,-0.844252,0
4.570731,0,0,250,59.201050,2.417878,0.000000,211.663380,7697.610216,138.911654,0.000000,0.980000,357.900001,500.000000,1713113749104656,3,0,0,1221084,78.339531,35.910000,0.844252,0
4.570731,0,0,250,59.201050,2.417878,0.000000,211.663380,7697.610216,138.911654,0.000000,0.980000,357.900001,500.000000,1713113749104656,4,0,0,542261,58.820591,35.910000,0.844269,0
4.570731,0,0,250,59.201050,2.417878,0.000000,211.663380,7697.610216,138.911654,0.000000,0.980000,357.900001,500.000000,1713113749237683,1,0,0,-432698,-69.845345,35.910000,-0.844590,0
4.570731,0,0,250,59.201050,2.417878,0.000000,211.663380,7697.610216,138.911654,0.000000,0.980000,357.900001,500.000000,1713113749237683,2,0,0,-1210837,-69.845345,35.910000,-0.844354,0
4.570731,0,0,250,59.201050,2.417878,0.000000,211.663380,7697.610216,138.911654,0.000000,0.980000,357.900001,500.000000,1713113749237683,3,0,0,1221747,69.656570,35.910000,0.844276,0
4.570731,0,0,250,59.201050,2.417878,0.000000,211.663380,7697.610216,138.911654,0.000000,0.980000,357.900001,500.000000,1713113749237683,4,0,0,542998,69.656570,35.910000,0.844844,0
4.570731,0,0,250,59.201050,2.417878,0.000000,211.663380,7697.610216,138.911654,0.000000,0.980000,357.900001,500.000000,1713113749360693,1,0,0,-433289,-79.251160,35.910000,-0.844367,0
4.570731,0,0,250,59.201050,2.417878,0.000000,211.663380,7697.610216,138.911654,0.000000,0.980000,357.900001,500.000000,1713113749360693,2,0,0,-1211428,-79.251160,35.910000,-0.844253,0
4.570731,0,0,250,59.201050,2.417878,0.000000,211.663380,7697.610216,138.911654,0.000000,0.980000,357.900001,500.000000,1713113749360693,3,0,0,1222338,63.183804,35.910000,0.844253,0
4.570731,0,0,250,59.201050,2.417878,0.000000,211.663380,7697.610216,138.911654,0.000000,0.980000,357.900001,500.000000,1713113749360693,4,0,0,543589,79.251160,35.910000,0.844297,0
4.570731,0,0,250,59.201050,2.417878,0.000000,211.663380,7697.610216,138.911654,0.000000,0.980000,357.900001,500.000000,1713113749497464,1,0,0,-433880,-95.190025,35.910000,-0.844406,0
4.570731,0,0,250,59.201050,2.417878,0.000000,211.663380,7697.610216,138.911654,0.000000,0.980000,357.900001,500.000000,1713113749497464,2,0,0,-1212094,-111.269424,35.910000,-0.844265,0
4.570731,0,0,250,59.201050,2.417878,0.000000,211.663380,7697.610216,138.911654,0.000000,0.980000,357.900001,500.000000,1713113749497464,3,0,0,1223004,79.539413,35.910000,0.844265,0
4.570731,0,0,250,59.201050,2.417878,0.000000,211.663380,7697.610216,138.911654,0.000000,0.980000,357.900001,500.000000,1713113749497464,4,0,0,544255,111.269424,35.910000,0.844296,0
5.905459,0,0,250,73.396518,-2.736601,0.000000,308.604252,7696.198699,138.911654,0.000000,0.980000,357.900001,500.000000,1713113749622267,1,0,0,-434472,-63.544670,35.910000,-0.844531,0
5.905459,0,0,250,73.396518,-2.736601,0.000000,308.604252,7696.198699,138.911654,0.000000,0.980000,357.900001,500.000000,1713113749622267,2,0,0,-1212687,-79.805260,35.910000,-0.844271,0
5.905459,0,0,250,73.396518,-2.736601,0.000000,308.604252,7696.198699,138.911654,0.000000,0.980000,357.900001,500.000000,1713113749622267,3,0,0,1223597,79.805260,35.910000,0.844271,0
5.905459,0,0,250,73.396518,-2.736601,0.000000,308.604252,7696.198699,138.911654,0.000000,0.980000,357.900001,500.000000,1713113749622267,4,0,0,544848,79.805260,35.910000,0.844343,0
5.905459,0,0,250,73.396518,-2.736601,0.000000,308.604252,7696.198699,138.911654,0.000000,0.980000,357.900001,500.000000,1713113749760421,1,0,0,-435138,-77.492851,35.910000,-0.844114,0
5.905459,0,0,250,73.396518,-2.736601,0.000000,308.604252,7696.198699,138.911654,0.000000,0.980000,357.900001,500.000000,1713113749760421,2,0,0,-1213277,-77.492851,35.910000,-0.844287,0
5.905459,0,0,250,73.396518,-2.736601,0.000000,308.604252,7696.198699,138.911654,0.000000,0.980000,357.900001,500.000000,1713113749760421,3,0,0,1224187,77.492851,35.910000,0.844036,0
5.905459,0,0,250,73.396518,-2.736601,0.000000,308.604252,7696.198699,138.911654,0.000000,0.980000,357.900001,500.000000,1713113749760421,4,0,0,545438,77.492851,35.910000,0.844563,0
5.905459,0,0,250,73.396518,-2.736601,0.000000,308.604252,7696.198699,138.911654,0.000000,0.980000,357.900001,500.000000,1713113749890995,1,0,0,-435727,-77.930237,35.910000,-0.844389,0
5.905459,0,0,250,73.396518,-2.736601,0.000000,308.604252,7696.198699,138.911654,0.000000,0.980000,357.900001,500.000000,1713113749890995,2,0,0,-1213866,-77.930237,35.910000,-0.844029,0
5.905459,0,0,250,73.396518,-2.736601,0.000000,308.604252,7696.198699,138.911654,0.000000,0.980000,357.900001,500.000000,1713113749890995,3,0,0,1224776,77.930237,35.910000,0.844029,0
5.905459,0,0,250,73.396518,-2.736601,0.000000,308.604252,7696.198699,138.911654,0.000000,0.980000,357.900001,500.000000,1713113749890995,4,0,0,546027,77.930237,35.910000,0.844272,0
5.905459,0,0,250,73.396518,-2.736601,0.000000,308.604252,7696.198699,138.911654,0.000000,0.980000,357.900001,500.000000,1713113750014551,1,0,0,-436359,-68.508881,35.910000,-4.835648,0
5.905459,0,0,250,73.396518,-2.736601,0.000000,308.604252,7696.198699,138.911654,0.000000,0.980000,357.900001,500.000000,1713113750014551,2,0,0,-1214498,-68.508881,35.910000,-4.633650,0
5.905459,0,0,250,73.396518,-2.736601,0.000000,308.604252,7696.198699,138.911654,0.000000,0.980000,357.900001,500.000000,1713113750014551,3,0,0,1225408,68.508881,35.910000,4.635386,0
5.905459,0,0,250,73.396518,-2.736601,0.000000,308.604252,7696.198699,138.911654,0.000000,0.980000,357.900001,500.000000,1713113750014551,4,0,0,546659,68.508881,35.910000,4.633650,0
5.905459,0,0,250,73.396518,-2.736601,0.000000,308.604252,7696.198699,138.911654,0.000000,0.980000,357.900001,500.000000,1713113750138119,1,0,0,-437350,-103.344215,35.910000,-4.424676,0
5.905459,0,0,250,73.396518,-2.736601,0.000000,308.604252,7696.198699,138.911654,0.000000,0.980000,357.900001,500.000000,1713113750138119,2,0,0,-1215489,-103.344215,35.910000,-4.213842,0
5.905459,0,0,250,73.396518,-2.736601,0.000000,308.604252,7696.198699,138.911654,0.000000,0.980000,357.900001,500.000000,1713113750138119,3,0,0,1226399,103.344215,35.910000,4.152948,0
5.905459,0,0,250,73.396518,-2.736601,0.000000,308.604252,7696.198699,138.911654,0.000000,0.980000,357.900001,500.000000,1713113750138119,4,0,0,547650,103.344215,35.910000,4.424676,0
5.905459,0,0,250,73.396518,-2.736601,0.000000,308.604252,7696.198699,138.911654,0.000000,0.980000,357.900001,500.000000,1713113750287550,1,0,0,-438615,-155.184418,35.910000,-3.901797,0
5.905459,0,0,250,73.396518,-2.736601,0.000000,308.604252,7696.198699,138.911654,0.000000,0.980000,357.900001,500.000000,1713113750287550,2,0,0,-1216754,-130.700577,35.910000,-3.719703,0
5.905459,0,0,250,73.396518,-2.736601,0.000000,308.604252,7696.198699,138.911654,0.000000,0.980000,357.900001,500.000000,1713113750287550,3,0,0,1227664,130.700577,35.910000,3.719703,0
5.905459,0,0,250,73.396518,-2.736601,0.000000,308.604252,7696.198699,138.911654,0.000000,0.980000,357.900001,500.000000,1713113750287550,4,0,0,548915,155.184418,35.910000,3.782722,0
5.905459,0,0,250,73.396518,-2.736601,0.000000,308.604252,7696.198699,138.911654,0.000000,0.980000,357.900001,500.000000,1713113750424229,1,0,0,-439887,-129.147675,35.910000,-3.532097,0
5.905459,0,0,250,73.396518,-2.736601,0.000000,308.604252,7696.198699,138.911654,0.000000,0.980000,357.900001,500.000000,1713113750424229,2,0,0,-1218194,-172.895462,35.910000,-3.477739,0
5.905459,0,0,250,73.396518,-2.736601,0.000000,308.604252,7696.198699,138.911654,0.000000,0.980000,357.900001,500.000000,1713113750424229,3,0,0,1229104,172.895462,35.910000,3.477739,0
5.905459,0,0,250,73.396518,-2.736601,0.000000,308.604252,7696.198699,138.911654,0.000000,0.980000,357.900001,500.000000,1713113750424229,4,0,0,550188,129.147675,35.910000,3.484055,0
5.905459,0,0,250,73.396518,-2.736601,0.000000,308.604252,7696.198699,138.911654,0.000000,0.980000,357.900001,500.000000,1713113750549443,1,0,0,-441459,-152.852295,35.910000,-3.295949,0
5.905459,0,0,250,73.396518,-2.736601,0.000000,308.604252,7696.198699,138.911654,0.000000,0.980000,357.900001,500.000000,1713113750549443,2,0,0,-1219599,-152.852295,35.910000,-3.280385,0
5.905459,0,0,250,73.396518,-2.736601,0.000000,308.604252,7696.198699,138.911654,0.000000,0.980000,357.900001,500.000000,1713113750549443,3,0,0,1230509,152.852295,35.910000,3.267071,0
5.905459,0,0,250,73.396518,-2.736601,0.000000,308.604252,7696.198699,138.911654,0.000000,0.980000,357.900001,500.000000,1713113750549443,4,0,0,551760,152.852295,35.910000,3.280385,0
5.905459,0,0,250,73.396518,-2.736601,0.000000,308.604252,7696.198699,138.911654,0.000000,0.980000,357.900001,500.000000,1713113750675582,1,0,0,-442953,-159.425278,35.910000,-3.191954,0
5.905459,0,0,250,73.396518,-2.736601,0.000000,308.604252,7696.198699,138.911654,0.000000,0.980000,357.900001,500.000000,1713113750675582,2,0,0,-1221093,-159.847595,35.910000,-3.097868,0
5.905459,0,0,250,73.396518,-2.736601,0.000000,308.604252,7696.198699,138.911654,0.000000,0.980000,357.900001,500.000000,1713113750675582,3,0,0,1232003,159.847595,35.910000,3.127676,0
5.905459,0,0,250,73.396518,-2.736601,0.000000,308.604252,7696.198699,138.911654,0.000000,0.980000,357.900001,500.000000,1713113750675582,4,0,0,553254,159.847595,35.910000,3.097868,0
5.905459,0,0,250,73.396518,-2.736601,0.000000,308.604252,7696.198699,138.911654,0.000000,0.980000,357.900001,500.000000,1713113750808015,1,0,0,-444521,-166.867966,35.910000,-3.308212,0
5.905459,0,0,250,73.396518,-2.736601,0.000000,308.604252,7696.198699,138.911654,0.000000,0.980000,357.900001,500.000000,1713113750808015,2,0,0,-1222661,-166.867966,35.910000,-2.966380,0
5.905459,0,0,250,73.396518,-2.736601,0.000000,308.604252,7696.198699,138.911654,0.000000,0.980000,357.900001,500.000000,1713113750808015,3,0,0,1233846,224.808243,35.910000,2.970492,0
5.905459,0,0,250,73.396518,-2.736601,0.000000,308.604252,7696.198699,138.911654,0.000000,0.980000,357.900001,500.000000,1713113750808015,4,0,0,554822,166.867966,35.910000,2.742251,0
7.614273,200,0,0,189.882714,-13.417190,0.000000,636.586070,7683.970230,165.031392,0.000000,0.980000,357.900001,500.000000,1713113750932927,1,0,0,-446356,-218.959244,35.910000,-2.913203,0
7.614273,200,0,0,189.882714,-13.417190,0.000000,636.586070,7683.970230,165.031392,0.000000,0.980000,357.900001,500.000000,1713113750932927,2,0,0,-1224496,-218.959244,35.910000,-2.873371,0
7.614273,200,0,0,189.882714,-13.417190,0.000000,636.586070,7683.970230,165.031392,0.000000,0.980000,357.900001,500.000000,1713113750932927,3,0,0,1235406,174.017227,35.910000,2.883061,0
7.614273,200,0,0,189.882714,-13.417190,0.000000,636.586070,7683.970230,165.031392,0.000000,0.980000,357.900001,500.000000,1713113750932927,4,0,0,556657,218.959244,35.910000,2.896307,0
7.614273,200,0,0,189.882714,-13.417190,0.000000,636.586070,7683.970230,165.031392,0.000000,0.980000,357.900001,500.000000,1713113751092386,1,0,0,-447998,-217.589859,35.910000,-2.838038,0
7.614273,200,0,0,189.882714,-13.417190,0.000000,636.586070,7683.970230,165.031392,0.000000,0.980000,357.900001,500.000000,1713113751092386,2,0,0,-1226138,-217.589859,35.910000,-3.279523,0
7.614273,200,0,0,189.882714,-13.417190,0.000000,636.586070,7683.970230,165.031392,0.000000,0.980000,357.900001,500.000000,1713113751092386,3,0,0,1237048,217.589859,35.910000,2.802090,0
7.614273,200,0,0,189.882714,-13.417190,0.000000,636.586070,7683.970230,165.031392,0.000000,0.980000,357.900001,500.000000,1713113751092386,4,0,0,558299,217.589859,35.910000,3.279523,0
7.614273,200,0,0,189.882714,-13.417190,0.000000,636.586070,7683.970230,165.031392,0.000000,0.980000,357.900001,500.000000,1713113751216963,1,0,0,-450098,-180.552872,35.910000,-2.767389,0
7.614273,200,0,0,189.882714,-13.417190,0.000000,636.586070,7683.970230,165.031392,0.000000,0.980000,357.900001,500.000000,1713113751216963,2,0,0,-1228239,-180.765793,35.910000,-2.756105,0
7.614273,200,0,0,189.882714,-13.417190,0.000000,636.586070,7683.970230,165.031392,0.000000,0.980000,357.900001,500.000000,1713113751216963,3,0,0,1239149,180.765793,35.910000,2.744690,0
7.614273,200,0,0,189.882714,-13.417190,0.000000,636.586070,7683.970230,165.031392,0.000000,0.980000,357.900001,500.000000,1713113751216963,4,0,0,560400,180.765793,35.910000,2.767389,0
7.614273,200,0,0,189.882714,-13.417190,0.000000,636.586070,7683.970230,165.031392,0.000000,0.980000,357.900001,500.000000,1713113751351209,1,0,0,-452028,-201.865921,35.910000,-2.727936,0
7.614273,200,0,0,189.882714,-13.417190,0.000000,636.586070,7683.970230,165.031392,0.000000,0.980000,357.900001,500.000000,1713113751351209,2,0,0,-1230169,-201.865921,35.910000,-2.704155,0
7.614273,200,0,0,189.882714,-13.417190,0.000000,636.586070,7683.970230,165.031392,0.000000,0.980000,357.900001,500.000000,1713113751351209,3,0,0,1241079,201.865921,35.910000,2.704155,0
7.614273,200,0,0,189.882714,-13.417190,0.000000,636.586070,7683.970230,165.031392,0.000000,0.980000,357.900001,500.000000,1713113751351209,4,0,0,562330,201.865921,35.910000,2.718510,0
7.614273,200,0,0,189.882714,-13.417190,0.000000,636.586070,7683.970230,165.031392,0.000000,0.980000,357.900001,500.000000,1713113751475873,1,0,0,-453761,-226.407944,35.910000,-2.691199,0
7.614273,200,0,0,189.882714,-13.417190,0.000000,636.586070,7683.970230,165.031392,0.000000,0.980000,357.900001,500.000000,1713113751475873,2,0,0,-1231902,-226.407944,35.910000,-2.682203,0
7.614273,200,0,0,189.882714,-13.417190,0.000000,636.586070,7683.970230,165.031392,0.000000,0.980000,357.900001,500.000000,1713113751475873,3,0,0,1242812,226.407944,35.910000,2.682203,0
7.614273,200,0,0,189.882714,-13.417190,0.000000,636.586070,7683.970230,165.031392,0.000000,0.980000,357.900001,500.000000,1713113751475873,4,0,0,564063,226.407944,35.910000,2.685738,0
7.614273,200,0,0,189.882714,-13.417190,0.000000,636.586070,7683.970230,165.031392,0.000000,0.980000,357.900001,500.000000,1713113751614049,1,0,0,-455503,-228.773651,35.910000,-2.666467,0
7.614273,200,0,0,189.882714,-13.417190,0.000000,636.586070,7683.970230,165.031392,0.000000,0.980000,357.900001,500.000000,1713113751614049,2,0,0,-1233644,-228.773651,35.910000,-2.664289,0
7.614273,200,0,0,189.882714,-13.417190,0.000000,636.586070,7683.970230,165.031392,0.000000,0.980000,357.900001,500.000000,1713113751614049,3,0,0,1244554,228.773651,35.910000,2.664289,0
7.614273,200,0,0,189.882714,-13.417190,0.000000,636.586070,7683.970230,165.031392,0.000000,0.980000,357.900001,500.000000,1713113751614049,4,0,0,565805,228.773651,35.910000,2.661894,0
7.614273,200,0,0,189.882714,-13.417190,0.000000,636.586070,7683.970230,165.031392,0.000000,0.980000,357.900001,500.000000,1713113751739307,1,0,0,-457271,-231.462021,35.910000,-2.648816,0
7.614273,200,0,0,189.882714,-13.417190,0.000000,636.586070,7683.970230,165.031392,0.000000,0.980000,357.900001,500.000000,1713113751739307,2,0,0,-1235412,-231.462021,35.910000,-2.643185,0
7.614273,200,0,0,189.882714,-13.417190,0.000000,636.586070,7683.970230,165.031392,0.000000,0.980000,357.900001,500.000000,1713113751739307,3,0,0,1246322,231.462021,35.910000,2.643185,0
7.614273,200,0,0,189.882714,-13.417190,0.000000,636.586070,7683.970230,165.031392,0.000000,0.980000,357.900001,500.000000,1713113751739307,4,0,0,567573,231.462021,35.910000,2.646227,0
7.614273,200,0,0,189.882714,-13.417190,0.000000,636.586070,7683.970230,165.031392,0.000000,0.980000,357.900001,500.000000,1713113751887838,1,0,0,-459469,-208.857147,35.910000,-2.624491,0
7.614273,200,0,0,189.882714,-13.417190,0.000000,636.586070,7683.970230,165.031392,0.000000,0.980000,357.900001,500.000000,1713113751887838,2,0,0,-1237610,-208.857147,35.910000,-2.626709,0
7.614273,200,0,0,189.882714,-13.417190,0.000000,636.586070,7683.970230,165.031392,0.000000,0.980000,357.900001,500.000000,1713113751887838,3,0,0,1248520,208.857147,35.910000,2.626315,0
7.614273,200,0,0,189.882714,-13.417190,0.000000,636.586070,7683.970230,165.031392,0.000000,0.980000,357.900001,500.000000,1713113751887838,4,0,0,569771,208.857147,35.910000,2.624491,0
7.614273,200,0,0,189.882714,-13.417190,0.000000,636.586070,7683.970230,165.031392,0.000000,0.980000,357.900001,500.000000,1713113752014999,1,0,0,-461221,-170.166077,35.910000,-2.613977,0
7.614273,200,0,0,189.882714,-13.417190,0.000000,636.586070,7683.970230,165.031392,0.000000,0.980000,357.900001,500.000000,1713113752014999,2,0,0,-1239362,-170.166077,35.910000,-2.617588,0
7.614273,200,0,0,189.882714,-13.417190,0.000000,636.586070,7683.970230,165.031392,0.000000,0.980000,357.900001,500.000000,1713113752014999,3,0,0,1250272,170.166077,35.910000,2.620889,0
7.614273,200,0,0,189.882714,-13.417190,0.000000,636.586070,7683.970230,165.031392,0.000000,0.980000,357.900001,500.000000,1713113752014999,4,0,0,571523,170.166077,35.910000,2.617588,0
7.614273,200,0,0,189.882714,-13.417190,0.000000,636.586070,7683.970230,165.031392,0.000000,0.980000,357.900001,500.000000,1713113752152846,1,0,0,-462997,-173.525467,35.910000,-2.609005,0
7.614273,200,0,0,189.882714,-13.417190,0.000000,636.586070,7683.970230,165.031392,0.000000,0.980000,357.900001,500.000000,1713113752152846,2,0,0,-1241138,-173.525467,35.910000,-2.609814,0
7.614273,200,0,0,189.882714,-13.417190,0.000000,636.586070,7683.970230,165.031392,0.000000,0.980000,357.900001,500.000000,1713113752152846,3,0,0,1252048,173.525467,35.910000,2.609740,0
7.614273,200,0,0,189.882714,-13.417190,0.000000,636.586070,7683.970230,165.031392,0.000000,0.980000,357.900001,500.000000,1713113752152846,4,0,0,573299,173.525467,35.910000,2.609814,0
7.614273,200,0,0,189.882714,-13.417190,0.000000,636.586070,7683.970230,165.031392,0.000000,0.980000,357.900001,500.000000,1713113752291414,1,0,0,-465227,-197.148544,35.910000,-2.606191,0
7.614273,200,0,0,189.882714,-13.417190,0.000000,636.586070,7683.970230,165.031392,0.000000,0.980000,357.900001,500.000000,1713113752291414,2,0,0,-1243368,-197.148544,35.910000,-2.600280,0
7.614273,200,0,0,189.882714,-13.417190,0.000000,636.586070,7683.970230,165.031392,0.000000,0.980000,357.900001,500.000000,1713113752291414,3,0,0,1254278,197.148544,35.910000,2.600364,0
7.614273,200,0,0,189.882714,-13.417190,0.000000,636.586070,7683.970230,165.031392,0.000000,0.980000,357.900001,500.000000,1713113752291414,4,0,0,575529,197.148544,35.910000,2.606191,0
7.614273,200,0,0,189.882714,-13.417190,0.000000,636.586070,7683.970230,165.031392,0.000000,0.980000,357.900001,500.000000,1713113752432364,1,0,0,-467238,-230.445984,35.910000,-2.596109,0
7.614273,200,0,0,189.882714,-13.417190,0.000000,636.586070,7683.970230,165.031392,0.000000,0.980000,357.900001,500.000000,1713113752432364,2,0,0,-1245379,-192.181320,35.910000,-2.599694,0
7.614273,200,0,0,189.882714,-13.417190,0.000000,636.586070,7683.970230,165.031392,0.000000,0.980000,357.900001,500.000000,1713113752432364,3,0,0,1256289,192.181320,35.910000,2.595970,0
7.614273,200,0,0,189.882714,-13.417190,0.000000,636.586070,7683.970230,165.031392,0.000000,0.980000,357.900001,500.000000,1713113752432364,4,0,0,577540,192.181320,35.910000,2.596109,0
7.614273,200,0,0,189.882714,-13.417190,0.000000,636.586070,7683.970230,165.031392,0.000000,0.980000,357.900001,500.000000,1713113752556014,1,0,0,-469015,-236.760757,35.910000,-2.591736,0
7.614273,200,0,0,189.882714,-13.417190,0.000000,636.586070,7683.970230,165.031392,0.000000,0.980000,357.900001,500.000000,1713113752556014,2,0,0,-1247156,-189.877441,35.910000,-2.594641,0
7.614273,200,0,0,189.882714,-13.417190,0.000000,636.586070,7683.970230,165.031392,0.000000,0.980000,357.900001,500.000000,1713113752556014,3,0,0,1258066,189.877441,35.910000,2.592235,0
7.614273,200,0,0,189.882714,-13.417190,0.000000,636.586070,7683.970230,165.031392,0.000000,0.980000,357.900001,500.000000,1713113752556014,4,0,0,579317,189.877441,35.910000,2.591736,0
9.006350,200,0,0,250.886812,82.354116,0.000000,939.165161,7757.624695,166.185586,0.000000,0.980000,357.924464,500.000000,1713113752724553,1,0,0,-471150,-203.391190,35.910000,0.719473,1
9.006350,200,0,0,250.886812,82.354116,0.000000,939.165161,7757.624695,166.185586,0.000000,0.980000,357.924464,500.000000,1713113752724553,2,0,0,-1249538,-241.901215,35.910000,-6.447411,1
9.006350,200,0,0,250.886812,82.354116,0.000000,939.165161,7757.624695,166.185586,0.000000,0.980000,357.924464,500.000000,1713113752724553,3,0,0,1260448,241.901215,35.910000,6.398362,1
9.006350,200,0,0,250.886812,82.354116,0.000000,939.165161,7757.624695,166.185586,0.000000,0.980000,357.924464,500.000000,1713113752724553,4,0,0,581452,203.391190,35.910000,-0.563191,1
9.006350,200,0,0,250.886812,82.354116,0.000000,939.165161,7757.624695,166.185586,0.000000,0.980000,357.924464,500.000000,1713113752868757,1,0,0,-472981,-176.041428,35.910000,-0.002837,1
9.006350,200,0,0,250.886812,82.354116,0.000000,939.165161,7757.624695,166.185586,0.000000,0.980000,357.924464,500.000000,1713113752868757,2,0,0,-1252301,-281.298126,35.910000,-5.848420,1
9.006350,200,0,0,250.886812,82.354116,0.000000,939.165161,7757.624695,166.185586,0.000000,0.980000,357.924464,500.000000,1713113752868757,3,0,0,1263211,187.420532,35.910000,5.828807,1
9.006350,200,0,0,250.886812,82.354116,0.000000,939.165161,7757.624695,166.185586,0.000000,0.980000,357.924464,500.000000,1713113752868757,4,0,0,583283,176.041428,35.910000,0.002837,1
9.006350,200,0,0,250.886812,82.354116,0.000000,939.165161,7757.624695,166.185586,0.000000,0.980000,357.924464,500.000000,1713113752993510,1,0,0,-474274,-169.913406,35.910000,-0.243460,1
9.006350,200,0,0,250.886812,82.354116,0.000000,939.165161,7757.624695,166.185586,0.000000,0.980000,357.924464,500.000000,1713113752993510,2,0,0,-1254700,-260.747620,35.910000,-5.536061,1
9.006350,200,0,0,250.886812,82.354116,0.000000,939.165161,7757.624695,166.185586,0.000000,0.980000,357.924464,500.000000,1713113752993510,3,0,0,1265610,260.747620,35.910000,5.505255,1
9.006350,200,0,0,250.886812,82.354116,0.000000,939.165161,7757.624695,166.185586,0.000000,0.980000,357.924464,500.000000,1713113752993510,4,0,0,584576,169.913406,35.910000,0.243460,1
9.006350,200,0,0,250.886812,82.354116,0.000000,939.165161,7757.624695,166.185586,0.000000,0.980000,357.924464,500.000000,1713113753127505,1,0,0,-475457,-137.776199,35.910000,-0.614767,1
9.006350,200,0,0,250.886812,82.354116,0.000000,939.165161,7757.624695,166.185586,0.000000,0.980000,357.924464,500.000000,1713113753127505,2,0,0,-1257567,-304.018555,35.910000,-5.956971,1
9.006350,200,0,0,250.886812,82.354116,0.000000,939.165161,7757.624695,166.185586,0.000000,0.980000,357.924464,500.000000,1713113753127505,3,0,0,1268477,304.018555,35.910000,5.956827,1
9.006350,200,0,0,250.886812,82.354116,0.000000,939.165161,7757.624695,166.185586,0.000000,0.980000,357.924464,500.000000,1713113753127505,4,0,0,585759,137.776199,35.910000,0.657574,1
9.006350,200,0,0,250.886812,82.354116,0.000000,939.165161,7757.624695,166.185586,0.000000,0.980000,357.924464,500.000000,1713113753266168,1,0,0,-476582,-107.598030,35.910000,-0.763023,1
9.006350,200,0,0,250.886812,82.354116,0.000000,939.165161,7757.624695,166.185586,0.000000,0.980000,357.924464,500.000000,1713113753266168,2,0,0,-1260296,-359.004974,35.910000,-5.606495,1
9.006350,200,0,0,250.886812,82.354116,0.000000,939.165161,7757.624695,166.185586,0.000000,0.980000,357.924464,500.000000,1713113753266168,3,0,0,1271206,359.004974,35.910000,5.606391,1
9.006350,200,0,0,250.886812,82.354116,0.000000,939.165161,7757.624695,166.185586,0.000000,0.980000,357.924464,500.000000,1713113753266168,4,0,0,586883,107.598030,35.910000,0.783329,1
9.006350,200,0,0,250.886812,82.354116,0.000000,939.165161,7757.624695,166.185586,0.000000,0.980000,357.924464,500.000000,1713113753391676,1,0,0,-477630,-98.316727,35.910000,-0.870945,1
9.006350,200,0,0,250.886812,82.354116,0.000000,939.165161,7757.624695,166.185586,0.000000,0.980000,357.924464,500.000000,1713113753391676,2,0,0,-1263091,-361.535034,35.910000,-5.401208,1
9.006350,200,0,0,250.886812,82.354116,0.000000,939.165161,7757.624695,166.185586,0.000000,0.980000,357.924464,500.000000,1713113753391676,3,0,0,1274001,361.535034,35.910000,5.401128,1
9.006350,200,0,0,250.886812,82.354116,0.000000,939.165161,7757.624695,166.185586,0.000000,0.980000,357.924464,500.000000,1713113753391676,4,0,0,588060,131.869263,35.910000,0.885012,1
9.006350,200,0,0,250.886812,82.354116,0.000000,939.165161,7757.624695,166.185586,0.000000,0.980000,357.924464,500.000000,1713113753525763,1,0,0,-478644,-98.072090,35.910000,-0.959044,1
9.006350,200,0,0,250.886812,82.354116,0.000000,939.165161,7757.624695,166.185586,0.000000,0.980000,357.924464,500.000000,1713113753525763,2,0,0,-1265992,-381.215698,35.910000,-5.281931,1
9.006350,200,0,0,250.886812,82.354116,0.000000,939.165161,7757.624695,166.185586,0.000000,0.980000,357.924464,500.000000,1713113753525763,3,0,0,1276902,381.215698,35.910000,5.281866,1
9.006350,200,0,0,250.886812,82.354116,0.000000,939.165161,7757.624695,166.185586,0.000000,0.980000,357.924464,500.000000,1713113753525763,4,0,0,589066,129.971878,35.910000,0.967474,1
9.006350,200,0,0,250.886812,82.354116,0.000000,939.165161,7757.624695,166.185586,0.000000,0.980000,357.924464,500.000000,1713113753662082,1,0,0,-479866,-113.042793,35.910000,-6.007620,1
9.006350,200,0,0,250.886812,82.354116,0.000000,939.165161,7757.624695,166.185586,0.000000,0.980000,357.924464,500.000000,1713113753662082,2,0,0,-1269734,-351.480743,35.910000,1.620368,1
9.006350,200,0,0,250.886812,82.354116,0.000000,939.165161,7757.624695,166.185586,0.000000,0.980000,357.924464,500.000000,1713113753662082,3,0,0,1280646,351.855072,35.910000,-0.158374,1
9.006350,200,0,0,250.886812,82.354116,0.000000,939.165161,7757.624695,166.185586,0.000000,0.980000,357.924464,500.000000,1713113753662082,4,0,0,590295,114.540054,35.910000,7.413955,1
9.006350,200,0,0,250.886812,82.354116,0.000000,939.165161,7757.624695,166.185586,0.000000,0.980000,357.924464,500.000000,1713113753802772,1,0,0,-481191,-169.081543,35.910000,-6.601942,1
9.006350,200,0,0,250.886812,82.354116,0.000000,939.165161,7757.624695,166.185586,0.000000,0.980000,357.924464,500.000000,1713113753802772,2,0,0,-1272468,-348.339294,35.910000,2.034884,1
9.006350,200,0,0,250.886812,82.354116,0.000000,939.165161,7757.624695,166.185586,0.000000,0.980000,357.924464,500.000000,1713113753802772,3,0,0,1283454,361.646637,35.910000,-0.961186,1
9.006350,200,0,0,250.886812,82.354116,0.000000,939.165161,7757.624695,166.185586,0.000000,0.980000,357.924464,500.000000,1713113753802772,4,0,0,591567,182.910751,35.910000,8.053461,1
9.006350,200,0,0,250.886812,82.354116,0.000000,939.165161,7757.624695,166.185586,0.000000,0.980000,357.924464,500.000000,1713113753928850,1,0,0,-482726,-208.535339,35.910000,-6.896042,1
9.006350,200,0,0,250.886812,82.354116,0.000000,939.165161,7757.624695,166.185586,0.000000,0.980000,357.924464,500.000000,1713113753928850,2,0,0,-1274818,-291.221436,35.910000,0.998062,1
9.006350,200,0,0,250.886812,82.354116,0.000000,939.165161,7757.624695,166.185586,0.000000,0.980000,357.924464,500.000000,1713113753928850,3,0,0,1285944,309.942810,35.910000,-1.243886,1
9.006350,200,0,0,250.886812,82.354116,0.000000,939.165161,7757.624695,166.185586,0.000000,0.980000,357.924464,500.000000,1713113753928850,4,0,0,593287,235.837341,35.910000,8.719751,1
10.343366,200,0,0,258.242836,35.531236,0.000000,1261.733684,7729.768428,118.973366,0.000000,0.980000,357.948644,500.000000,1713113754055308,1,0,0,-484560,-204.230133,35.910000,-7.462825,0
10.343366,200,0,0,258.242836,35.531236,0.000000,1261.733684,7729.768428,118.973366,0.000000,0.980000,357.948644,500.000000,1713113754055308,2,0,0,-1277066,-257.708954,35.910000,0.536344,0
10.343366,200,0,0,258.242836,35.531236,0.000000,1261.733684,7729.768428,118.973366,0.000000,0.980000,357.948644,500.000000,1713113754055308,3,0,0,1288330,273.289398,35.910000,-0.765364,0
10.343366,200,0,0,258.242836,35.531236,0.000000,1261.733684,7729.768428,118.973366,0.000000,0.980000,357.948644,500.000000,1713113754055308,4,0,0,595398,235.391006,35.910000,7.824243,0
10.343366,200,0,0,258.242836,35.531236,0.000000,1261.733684,7729.768428,118.973366,0.000000,0.980000,357.948644,500.000000,1713113754208340,1,0,0,-487274,-237.758484,35.910000,-7.046281,0
10.343366,200,0,0,258.242836,35.531236,0.000000,1261.733684,7729.768428,118.973366,0.000000,0.980000,357.948644,500.000000,1713113754208340,2,0,0,-1278980,-173.707886,35.910000,0.151332,0
10.343366,200,0,0,258.242836,35.531236,0.000000,1261.733684,7729.768428,118.973366,0.000000,0.980000,357.948644,500.000000,1713113754208340,3,0,0,1290555,217.470200,35.910000,-0.309256,0
10.343366,200,0,0,258.242836,35.531236,0.000000,1261.733684,7729.768428,118.973366,0.000000,0.980000,357.948644,500.000000,1713113754208340,4,0,0,598463,265.424316,35.910000,6.489100,0
10.343366,200,0,0,258.242836,35.531236,0.000000,1261.733684,7729.768428,118.973366,0.000000,0.980000,357.948644,500.000000,1713113754347158,1,0,0,-489778,-248.674591,35.910000,-6.620854,0
10.343366,200,0,0,258.242836,35.531236,0.000000,1261.733684,7729.768428,118.973366,0.000000,0.980000,357.948644,500.000000,1713113754347158,2,0,0,-1280703,-191.108627,35.910000,-0.178019,0
10.343366,200,0,0,258.242836,35.531236,0.000000,1261.733684,7729.768428,118.973366,0.000000,0.980000,357.948644,500.000000,1713113754347158,3,0,0,1292147,199.147125,35.910000,0.085414,0
10.343366,200,0,0,258.242836,35.531236,0.000000,1261.733684,7729.768428,118.973366,0.000000,0.980000,357.948644,500.000000,1713113754347158,4,0,0,601183,267.603943,35.910000,6.129616,0
10.343366,200,0,0,258.242836,35.531236,0.000000,1261.733684,7729.768428,118.973366,0.000000,0.980000,357.948644,500.000000,1713113754502619,1,0,0,-493170,-289.087585,35.910000,-6.100048,0
10.343366,200,0,0,258.242836,35.531236,0.000000,1261.733684,7729.768428,118.973366,0.000000,0.980000,357.948644,500.000000,1713113754502619,2,0,0,-1282236,-139.103516,35.910000,-0.517243,0
10.343366,200,0,0,258.242836,35.531236,0.000000,1261.733684,7729.768428,118.973366,0.000000,0.980000,357.948644,500.000000,1713113754502619,3,0,0,1293904,172.079926,35.910000,0.463780,0
10.343366,200,0,0,258.242836,35.531236,0.000000,1261.733684,7729.768428,118.973366,0.000000,0.980000,357.948644,500.000000,1713113754502619,4,0,0,604775,304.487732,35.910000,5.759588,0
10.343366,200,0,0,258.242836,35.531236,0.000000,1261.733684,7729.768428,118.973366,0.000000,0.980000,357.948644,500.000000,1713113754636377,1,0,0,-496719,-333.799744,35.910000,1.779932,0
10.343366,200,0,0,258.242836,35.531236,0.000000,1261.733684,7729.768428,118.973366,0.000000,0.980000,357.948644,500.000000,1713113754636377,2,0,0,-1283776,-140.895645,35.910000,-6.248997,0
10.343366,200,0,0,258.242836,35.531236,0.000000,1261.733684,7729.768428,118.973366,0.000000,0.980000,357.948644,500.000000,1713113754636377,3,0,0,1295326,145.056320,35.910000,8.240353,0
10.343366,200,0,0,258.242836,35.531236,0.000000,1261.733684,7729.768428,118.973366,0.000000,0.980000,357.948644,500.000000,1713113754636377,4,0,0,608467,346.281769,35.910000,-0.285245,0
10.343366,200,0,0,258.242836,35.531236,0.000000,1261.733684,7729.768428,118.973366,0.000000,0.980000,357.948644,500.000000,1713113754786752,1,0,0,-499370,-291.620819,35.910000,1.421512,0
10.343366,200,0,0,258.242836,35.531236,0.000000,1261.733684,7729.768428,118.973366,0.000000,0.980000,357.948644,500.000000,1713113754786752,2,0,0,-1285395,-203.261902,35.910000,-6.783714,0
10.343366,200,0,0,258.242836,35.531236,0.000000,1261.733684,7729.768428,118.973366,0.000000,0.980000,357.948644,500.000000,1713113754786752,3,0,0,1297072,187.262741,35.910000,8.527934,0
10.343366,200,0,0,258.242836,35.531236,0.000000,1261.733684,7729.768428,118.973366,0.000000,0.980000,357.948644,500.000000,1713113754786752,4,0,0,611595,368.525818,35.910000,-0.773760,0
10.343366,200,0,0,258.242836,35.531236,0.000000,1261.733684,7729.768428,118.973366,0.000000,0.980000,357.948644,500.000000,1713113754923726,1,0,0,-501859,-227.769470,35.910000,0.951035,0
10.343366,200,0,0,258.242836,35.531236,0.000000,1261.733684,7729.768428,118.973366,0.000000,0.980000,357.948644,500.000000,1713113754923726,2,0,0,-1287408,-248.957336,35.910000,-7.118407,0
10.343366,200,0,0,258.242836,35.531236,0.000000,1261.733684,7729.768428,118.973366,0.000000,0.980000,357.948644,500.000000,1713113754923726,3,0,0,1299336,281.374756,35.910000,8.019355,0
10.343366,200,0,0,258.242836,35.531236,0.000000,1261.733684,7729.768428,118.973366,0.000000,0.980000,357.948644,500.000000,1713113754923726,4,0,0,614304,310.402130,35.910000,-1.101803,0
10.343366,200,0,0,258.242836,35.531236,0.000000,1261.733684,7729.768428,118.973366,0.000000,0.980000,357.948644,500.000000,1713113755048654,1,0,0,-503996,-196.104355,35.910000,0.390243,0
10.343366,200,0,0,258.242836,35.531236,0.000000,1261.733684,7729.768428,118.973366,0.000000,0.980000,357.948644,500.000000,1713113755048654,2,0,0,-1289519,-235.153580,35.910000,-7.796664,0
10.343366,200,0,0,258.242836,35.531236,0.000000,1261.733684,7729.768428,118.973366,0.000000,0.980000,357.948644,500.000000,1713113755048654,3,0,0,1301707,262.831329,35.910000,7.275899,0
10.343366,200,0,0,258.242836,35.531236,0.000000,1261.733684,7729.768428,118.973366,0.000000,0.980000,357.948644,500.000000,1713113755048654,4,0,0,616371,214.770737,35.910000,-0.724352,0
10.343366,200,0,0,258.242836,35.531236,0.000000,1261.733684,7729.768428,118.973366,0.000000,0.980000,357.948644,500.000000,1713113755180798,1,0,0,-505879,-219.187683,35.910000,0.154318,0
10.343366,200,0,0,258.242836,35.531236,0.000000,1261.733684,7729.768428,118.973366,0.000000,0.980000,357.948644,500.000000,1713113755180798,2,0,0,-1292271,-338.841919,35.910000,-6.979055,0
10.343366,200,0,0,258.242836,35.531236,0.000000,1261.733684,7729.768428,118.973366,0.000000,0.980000,357.948644,500.000000,1713113755180798,3,0,0,1304706,291.108643,35.910000,6.534251,0
10.343366,200,0,0,258.242836,35.531236,0.000000,1261.733684,7729.768428,118.973366,0.000000,0.980000,357.948644,500.000000,1713113755180798,4,0,0,618410,236.739822,35.910000,-0.249104,0
10.343366,200,0,0,258.242836,35.531236,0.000000,1261.733684,7729.768428,118.973366,0.000000,0.980000,357.948644,500.000000,1713113755305283,1,0,0,-507367,-195.354248,35.910000,-0.315156,0
10.343366,200,0,0,258.242836,35.531236,0.000000,1261.733684,7729.768428,118.973366,0.000000,0.980000,357.948644,500.000000,1713113755305283,2,0,0,-1294947,-363.045807,35.910000,-6.546426,0
10.343366,200,0,0,258.242836,35.531236,0.000000,1261.733684,7729.768428,118.973366,0.000000,0.980000,357.948644,500.000000,1713113755305283,3,0,0,1307548,306.862701,35.910000,6.224443,0
10.343366,200,0,0,258.242836,35.531236,0.000000,1261.733684,7729.768428,118.973366,0.000000,0.980000,357.948644,500.000000,1713113755305283,4,0,0,620002,208.649490,35.910000,0.030797,0
11.732500,200,0,0,242.214234,-108.577792,0.000000,1585.794317,7751.240061,91.786460,0.000000,0.980000,357.996162,500.000000,1713113755441422,1,0,0,-508732,-175.306702,35.910000,-0.525843,1
11.732500,200,0,0,242.214234,-108.577792,0.000000,1585.794317,7751.240061,91.786460,0.000000,0.980000,357.996162,500.000000,1713113755441422,2,0,0,-1297809,-380.007721,35.910000,-6.212003,1
11.732500,200,0,0,242.214234,-108.577792,0.000000,1585.794317,7751.240061,91.786460,0.000000,0.980000,357.996162,500.000000,1713113755441422,3,0,0,1310538,395.631744,35.910000,5.969014,1
11.732500,200,0,0,242.214234,-108.577792,0.000000,1585.794317,7751.240061,91.786460,0.000000,0.980000,357.996162,500.000000,1713113755441422,4,0,0,621450,185.369629,35.910000,0.387991,1
11.732500,200,0,0,242.214234,-108.577792,0.000000,1585.794317,7751.240061,91.786460,0.000000,0.980000,357.996162,500.000000,1713113755567881,1,0,0,-510016,-165.174500,35.910000,-0.679513,1
11.732500,200,0,0,242.214234,-108.577792,0.000000,1585.794317,7751.240061,91.786460,0.000000,0.980000,357.996162,500.000000,1713113755567881,2,0,0,-1300845,-401.397400,35.910000,-5.932779,1
11.732500,200,0,0,242.214234,-108.577792,0.000000,1585.794317,7751.240061,91.786460,0.000000,0.980000,357.996162,500.000000,1713113755567881,3,0,0,1313675,413.843811,35.910000,5.870604,1
11.732500,200,0,0,242.214234,-108.577792,0.000000,1585.794317,7751.240061,91.786460,0.000000,0.980000,357.996162,500.000000,1713113755567881,4,0,0,622798,172.953522,35.910000,0.598914,1
11.732500,200,0,0,242.214234,-108.577792,0.000000,1585.794317,7751.240061,91.786460,0.000000,0.980000,357.996162,500.000000,1713113755704687,1,0,0,-511287,-128.555069,35.910000,-6.497108,1
11.732500,200,0,0,242.214234,-108.577792,0.000000,1585.794317,7751.240061,91.786460,0.000000,0.980000,357.996162,500.000000,1713113755704687,2,0,0,-1303914,-286.796570,35.910000,2.110728,1
11.732500,200,0,0,242.214234,-108.577792,0.000000,1585.794317,7751.240061,91.786460,0.000000,0.980000,357.996162,500.000000,1713113755704687,3,0,0,1317217,395.732788,35.910000,-0.427495,1
11.732500,200,0,0,242.214234,-108.577792,0.000000,1585.794317,7751.240061,91.786460,0.000000,0.980000,357.996162,500.000000,1713113755704687,4,0,0,624138,137.331924,35.910000,8.246564,1
11.732500,200,0,0,242.214234,-108.577792,0.000000,1585.794317,7751.240061,91.786460,0.000000,0.980000,357.996162,500.000000,1713113755832583,1,0,0,-513062,-175.926773,35.910000,-6.687858,1
11.732500,200,0,0,242.214234,-108.577792,0.000000,1585.794317,7751.240061,91.786460,0.000000,0.980000,357.996162,500.000000,1713113755832583,2,0,0,-1306900,-264.309021,35.910000,1.681437,1
11.732500,200,0,0,242.214234,-108.577792,0.000000,1585.794317,7751.240061,91.786460,0.000000,0.980000,357.996162,500.000000,1713113755832583,3,0,0,1320350,352.062958,35.910000,-0.921004,1
11.732500,200,0,0,242.214234,-108.577792,0.000000,1585.794317,7751.240061,91.786460,0.000000,0.980000,357.996162,500.000000,1713113755832583,4,0,0,626106,197.289307,35.910000,9.086637,1
11.732500,200,0,0,242.214234,-108.577792,0.000000,1585.794317,7751.240061,91.786460,0.000000,0.980000,357.996162,500.000000,1713113755958433,1,0,0,-514958,-192.628738,35.910000,-7.398685,1
11.732500,200,0,0,242.214234,-108.577792,0.000000,1585.794317,7751.240061,91.786460,0.000000,0.980000,357.996162,500.000000,1713113755958433,2,0,0,-1309395,-272.976562,35.910000,0.674836,1
11.732500,200,0,0,242.214234,-108.577792,0.000000,1585.794317,7751.240061,91.786460,0.000000,0.980000,357.996162,500.000000,1713113755958433,3,0,0,1322791,301.561859,35.910000,-1.101283,1
11.732500,200,0,0,242.214234,-108.577792,0.000000,1585.794317,7751.240061,91.786460,0.000000,0.980000,357.996162,500.000000,1713113755958433,4,0,0,628281,221.729080,35.910000,8.343693,1
11.732500,200,0,0,242.214234,-108.577792,0.000000,1585.794317,7751.240061,91.786460,0.000000,0.980000,357.996162,500.000000,1713113756096884,1,0,0,-517173,-225.448685,35.910000,-7.531384,1
11.732500,200,0,0,242.214234,-108.577792,0.000000,1585.794317,7751.240061,91.786460,0.000000,0.980000,357.996162,500.000000,1713113756096884,2,0,0,-1311310,-239.182907,35.910000,0.273207,1
11.732500,200,0,0,242.214234,-108.577792,0.000000,1585.794317,7751.240061,91.786460,0.000000,0.980000,357.996162,500.000000,1713113756096884,3,0,0,1324890,261.468658,35.910000,-0.618259,1
11.732500,200,0,0,242.214234,-108.577792,0.000000,1585.794317,7751.240061,91.786460,0.000000,0.980000,357.996162,500.000000,1713113756096884,4,0,0,631136,338.950439,35.910000,7.671006,1
11.732500,200,0,0,242.214234,-108.577792,0.000000,1585.794317,7751.240061,91.786460,0.000000,0.980000,357.996162,500.000000,1713113756231000,1,0,0,-520341,-346.931641,35.910000,-7.100230,1
11.732500,200,0,0,242.214234,-108.577792,0.000000,1585.794317,7751.240061,91.786460,0.000000,0.980000,357.996162,500.000000,1713113756231000,2,0,0,-1313228,-173.998245,35.910000,-0.065727,1
11.732500,200,0,0,242.214234,-108.577792,0.000000,1585.794317,7751.240061,91.786460,0.000000,0.980000,357.996162,500.000000,1713113756231000,3,0,0,1326969,188.054413,35.910000,-0.185311,1
11.732500,200,0,0,242.214234,-108.577792,0.000000,1585.794317,7751.240061,91.786460,0.000000,0.980000,357.996162,500.000000,1713113756231000,4,0,0,634335,307.318817,35.910000,6.582864,1
11.732500,200,0,0,242.214234,-108.577792,0.000000,1585.794317,7751.240061,91.786460,0.000000,0.980000,357.996162,500.000000,1713113756355132,1,0,0,-523148,-381.706329,35.910000,-6.694650,1
11.732500,200,0,0,242.214234,-108.577792,0.000000,1585.794317,7751.240061,91.786460,0.000000,0.980000,357.996162,500.000000,1713113756355132,2,0,0,-1314756,-159.098129,35.910000,-0.358392,1
11.732500,200,0,0,242.214234,-108.577792,0.000000,1585.794317,7751.240061,91.786460,0.000000,0.980000,357.996162,500.000000,1713113756355132,3,0,0,1328604,169.862549,35.910000,0.203818,1
