CurrentTime,PlatformType,PlatformDirection,PlatformMovementType,PlayerVelocity.x,PlayerVelocity.y,PlayerVelocity.z,PlayerPosition.x,PlayerPosition.y,PlayerPosition.z,PlayerRotation.Pitch,PlayerRotation.Roll,PlayerRotation.Yaw,PlayerCurrentSpeed,UnixTimeStamp [us],ControllerId,MotorFlags,HallPosition,EncoderPosition,MotorVelocity,MotorVoltage,MotorCurrent 
1.465634,0,0,250,179.632500,0.050695,0.000000,145.222573,116593.108589,138.911689,0.000000,0.000000,0.000000,500.000000,1711568711613839,1,0,0,-85575947,-232.430511,35.910000,-2.582743
1.465634,0,0,250,179.632500,0.050695,0.000000,145.222573,116593.108589,138.911689,0.000000,0.000000,0.000000,500.000000,1711568711613839,2,0,0,-101995297,-174.844025,35.910000,-2.583238
1.465634,0,0,250,179.632500,0.050695,0.000000,145.222573,116593.108589,138.911689,0.000000,0.000000,0.000000,500.000000,1711568711613839,3,0,0,101996635,174.844025,35.910000,2.580856
1.465634,0,0,250,179.632500,0.050695,0.000000,145.222573,116593.108589,138.911689,0.000000,0.000000,0.000000,500.000000,1711568711613839,4,0,0,85577453,174.844025,35.910000,2.583238
1.465634,0,0,250,179.632500,0.050695,0.000000,145.222573,116593.108589,138.911689,0.000000,0.000000,0.000000,500.000000,1711568711739748,1,0,0,-85577728,-174.632767,35.910000,-2.583749
1.465634,0,0,250,179.632500,0.050695,0.000000,145.222573,116593.108589,138.911689,0.000000,0.000000,0.000000,500.000000,1711568711739748,2,0,0,-101997078,-174.632767,35.910000,-2.583243
1.465634,0,0,250,179.632500,0.050695,0.000000,145.222573,116593.108589,138.911689,0.000000,0.000000,0.000000,500.000000,1711568711739748,3,0,0,101998416,174.632767,35.910000,2.583068
1.465634,0,0,250,179.632500,0.050695,0.000000,145.222573,116593.108589,138.911689,0.000000,0.000000,0.000000,500.000000,1711568711739748,4,0,0,85579234,174.632767,35.910000,2.583243
1.465634,0,0,250,179.632500,0.050695,0.000000,145.222573,116593.108589,138.911689,0.000000,0.000000,0.000000,500.000000,1711568711864641,1,0,0,-85579741,-190.075989,35.910000,-2.584890
1.465634,0,0,250,179.632500,0.050695,0.000000,145.222573,116593.108589,138.911689,0.000000,0.000000,0.000000,500.000000,1711568711864641,2,0,0,-101999091,-190.075989,35.910000,-2.583330
1.465634,0,0,250,179.632500,0.050695,0.000000,145.222573,116593.108589,138.911689,0.000000,0.000000,0.000000,500.000000,1711568711864641,3,0,0,102000429,190.075989,35.910000,2.584012
1.465634,0,0,250,179.632500,0.050695,0.000000,145.222573,116593.108589,138.911689,0.000000,0.000000,0.000000,500.000000,1711568711864641,4,0,0,85581247,190.075989,35.910000,2.584890
1.465634,0,0,250,179.632500,0.050695,0.000000,145.222573,116593.108589,138.911689,0.000000,0.000000,0.000000,500.000000,1711568711990086,1,0,0,-85581540,-234.284821,35.910000,-2.583338
1.465634,0,0,250,179.632500,0.050695,0.000000,145.222573,116593.108589,138.911689,0.000000,0.000000,0.000000,500.000000,1711568711990086,2,0,0,-102000890,-173.505829,35.910000,-2.586096
1.465634,0,0,250,179.632500,0.050695,0.000000,145.222573,116593.108589,138.911689,0.000000,0.000000,0.000000,500.000000,1711568711990086,3,0,0,102002228,173.505829,35.910000,2.583655
1.465634,0,0,250,179.632500,0.050695,0.000000,145.222573,116593.108589,138.911689,0.000000,0.000000,0.000000,500.000000,1711568711990086,4,0,0,85583046,234.284821,35.910000,2.583338
1.465634,0,0,250,179.632500,0.050695,0.000000,145.222573,116593.108589,138.911689,0.000000,0.000000,0.000000,500.000000,1711568712141595,1,0,0,-85583560,-233.649643,35.910000,-2.582432
1.465634,0,0,250,179.632500,0.050695,0.000000,145.222573,116593.108589,138.911689,0.000000,0.000000,0.000000,500.000000,1711568712141595,2,0,0,-102002910,-186.586533,35.910000,-2.584004
1.465634,0,0,250,179.632500,0.050695,0.000000,145.222573,116593.108589,138.911689,0.000000,0.000000,0.000000,500.000000,1711568712141595,3,0,0,102004248,141.189362,35.910000,2.582130
1.465634,0,0,250,179.632500,0.050695,0.000000,145.222573,116593.108589,138.911689,0.000000,0.000000,0.000000,500.000000,1711568712141595,4,0,0,85585066,233.649643,35.910000,2.582432
1.465634,0,0,250,179.632500,0.050695,0.000000,145.222573,116593.108589,138.911689,0.000000,0.000000,0.000000,500.000000,1711568712278013,1,0,0,-85585570,-204.958298,35.910000,-2.587109
1.465634,0,0,250,179.632500,0.050695,0.000000,145.222573,116593.108589,138.911689,0.000000,0.000000,0.000000,500.000000,1711568712278013,2,0,0,-102005155,-248.001373,35.910000,-2.583896
1.465634,0,0,250,179.632500,0.050695,0.000000,145.222573,116593.108589,138.911689,0.000000,0.000000,0.000000,500.000000,1711568712278013,3,0,0,102006493,206.057266,35.910000,2.583896
1.465634,0,0,250,179.632500,0.050695,0.000000,145.222573,116593.108589,138.911689,0.000000,0.000000,0.000000,500.000000,1711568712278013,4,0,0,85587076,204.958298,35.910000,2.583896
1.465634,0,0,250,179.632500,0.050695,0.000000,145.222573,116593.108589,138.911689,0.000000,0.000000,0.000000,500.000000,1711568712413824,1,0,0,-85587591,-205.384094,35.910000,-2.583734
1.465634,0,0,250,179.632500,0.050695,0.000000,145.222573,116593.108589,138.911689,0.000000,0.000000,0.000000,500.000000,1711568712413824,2,0,0,-102006941,-205.384094,35.910000,-2.583129
1.465634,0,0,250,179.632500,0.050695,0.000000,145.222573,116593.108589,138.911689,0.000000,0.000000,0.000000,500.000000,1711568712413824,3,0,0,102008279,205.384094,35.910000,2.584725
1.465634,0,0,250,179.632500,0.050695,0.000000,145.222573,116593.108589,138.911689,0.000000,0.000000,0.000000,500.000000,1711568712413824,4,0,0,85589097,205.384094,35.910000,2.583129
1.465634,0,0,250,179.632500,0.050695,0.000000,145.222573,116593.108589,138.911689,0.000000,0.000000,0.000000,500.000000,1711568712585375,1,0,0,-85589597,-194.386581,35.910000,-2.582945
1.465634,0,0,250,179.632500,0.050695,0.000000,145.222573,116593.108589,138.911689,0.000000,0.000000,0.000000,500.000000,1711568712585375,2,0,0,-102008947,-194.386581,35.910000,-2.581326
1.465634,0,0,250,179.632500,0.050695,0.000000,145.222573,116593.108589,138.911689,0.000000,0.000000,0.000000,500.000000,1711568712585375,3,0,0,102010285,194.386581,35.910000,2.581326
1.465634,0,0,250,179.632500,0.050695,0.000000,145.222573,116593.108589,138.911689,0.000000,0.000000,0.000000,500.000000,1711568712585375,4,0,0,85591103,194.386581,35.910000,2.655529
1.465634,0,0,250,179.632500,0.050695,0.000000,145.222573,116593.108589,138.911689,0.000000,0.000000,0.000000,500.000000,1711568712709795,1,0,0,-85591834,-190.595993,35.910000,-2.583317
1.465634,0,0,250,179.632500,0.050695,0.000000,145.222573,116593.108589,138.911689,0.000000,0.000000,0.000000,500.000000,1711568712709795,2,0,0,-102011184,-190.595993,35.910000,-2.583871
1.465634,0,0,250,179.632500,0.050695,0.000000,145.222573,116593.108589,138.911689,0.000000,0.000000,0.000000,500.000000,1711568712709795,3,0,0,102012522,190.595993,35.910000,2.583224
1.465634,0,0,250,179.632500,0.050695,0.000000,145.222573,116593.108589,138.911689,0.000000,0.000000,0.000000,500.000000,1711568712709795,4,0,0,85593340,190.595993,35.910000,2.583871
1.465634,0,0,250,179.632500,0.050695,0.000000,145.222573,116593.108589,138.911689,0.000000,0.000000,0.000000,500.000000,1711568712833457,1,0,0,-85593606,-189.291321,35.910000,-2.585257
1.465634,0,0,250,179.632500,0.050695,0.000000,145.222573,116593.108589,138.911689,0.000000,0.000000,0.000000,500.000000,1711568712833457,2,0,0,-102012956,-189.291321,35.910000,-2.582630
1.465634,0,0,250,179.632500,0.050695,0.000000,145.222573,116593.108589,138.911689,0.000000,0.000000,0.000000,500.000000,1711568712833457,3,0,0,102014294,189.291321,35.910000,2.583159
1.465634,0,0,250,179.632500,0.050695,0.000000,145.222573,116593.108589,138.911689,0.000000,0.000000,0.000000,500.000000,1711568712833457,4,0,0,85595112,189.291321,35.910000,2.582630
2.862589,0,0,250,407.143113,0.673229,0.000000,434.526619,116599.666666,137.768413,0.000000,0.000000,0.000000,500.000000,1711568713006800,1,0,0,-85595168,-141.943466,35.910000,-2.654405
2.862589,0,0,250,407.143113,0.673229,0.000000,434.526619,116599.666666,137.768413,0.000000,0.000000,0.000000,500.000000,1711568713006800,2,0,0,-102014518,-141.943466,35.910000,-2.650801
2.862589,0,0,250,407.143113,0.673229,0.000000,434.526619,116599.666666,137.768413,0.000000,0.000000,0.000000,500.000000,1711568713006800,3,0,0,102015856,141.943466,35.910000,2.651429
2.862589,0,0,250,407.143113,0.673229,0.000000,434.526619,116599.666666,137.768413,0.000000,0.000000,0.000000,500.000000,1711568713006800,4,0,0,85596674,141.943466,35.910000,2.650801
2.862589,0,0,250,407.143113,0.673229,0.000000,434.526619,116599.666666,137.768413,0.000000,0.000000,0.000000,500.000000,1711568713165947,1,0,0,-85598302,-220.674683,35.910000,-2.652994
2.862589,0,0,250,407.143113,0.673229,0.000000,434.526619,116599.666666,137.768413,0.000000,0.000000,0.000000,500.000000,1711568713165947,2,0,0,-102017652,-220.674683,35.910000,-2.652407
2.862589,0,0,250,407.143113,0.673229,0.000000,434.526619,116599.666666,137.768413,0.000000,0.000000,0.000000,500.000000,1711568713165947,3,0,0,102018990,220.674683,35.910000,2.652407
2.862589,0,0,250,407.143113,0.673229,0.000000,434.526619,116599.666666,137.768413,0.000000,0.000000,0.000000,500.000000,1711568713165947,4,0,0,85599808,220.674683,35.910000,2.652994
2.862589,0,0,250,407.143113,0.673229,0.000000,434.526619,116599.666666,137.768413,0.000000,0.000000,0.000000,500.000000,1711568713291727,1,0,0,-85600081,-237.567780,35.910000,-2.586194
2.862589,0,0,250,407.143113,0.673229,0.000000,434.526619,116599.666666,137.768413,0.000000,0.000000,0.000000,500.000000,1711568713291727,2,0,0,-102019665,-287.830750,35.910000,-2.579232
2.862589,0,0,250,407.143113,0.673229,0.000000,434.526619,116599.666666,137.768413,0.000000,0.000000,0.000000,500.000000,1711568713291727,3,0,0,102021003,287.830750,35.910000,2.579232
2.862589,0,0,250,407.143113,0.673229,0.000000,434.526619,116599.666666,137.768413,0.000000,0.000000,0.000000,500.000000,1711568713291727,4,0,0,85601587,237.567780,35.910000,2.581824
2.862589,0,0,250,407.143113,0.673229,0.000000,434.526619,116599.666666,137.768413,0.000000,0.000000,0.000000,500.000000,1711568713415725,1,0,0,-85601864,-190.497406,35.910000,-2.584089
2.862589,0,0,250,407.143113,0.673229,0.000000,434.526619,116599.666666,137.768413,0.000000,0.000000,0.000000,500.000000,1711568713415725,2,0,0,-102021440,-238.870911,35.910000,-2.582517
2.862589,0,0,250,407.143113,0.673229,0.000000,434.526619,116599.666666,137.768413,0.000000,0.000000,0.000000,500.000000,1711568713415725,3,0,0,102022778,238.870911,35.910000,2.582517
2.862589,0,0,250,407.143113,0.673229,0.000000,434.526619,116599.666666,137.768413,0.000000,0.000000,0.000000,500.000000,1711568713415725,4,0,0,85603596,238.870911,35.910000,2.582430
2.862589,0,0,250,407.143113,0.673229,0.000000,434.526619,116599.666666,137.768413,0.000000,0.000000,0.000000,500.000000,1711568713576925,1,0,0,-85603641,-189.123123,35.910000,-2.585865
2.862589,0,0,250,407.143113,0.673229,0.000000,434.526619,116599.666666,137.768413,0.000000,0.000000,0.000000,500.000000,1711568713576925,2,0,0,-102023223,-238.533661,35.910000,-2.721695
2.862589,0,0,250,407.143113,0.673229,0.000000,434.526619,116599.666666,137.768413,0.000000,0.000000,0.000000,500.000000,1711568713576925,3,0,0,102024561,238.533661,35.910000,2.582726
2.862589,0,0,250,407.143113,0.673229,0.000000,434.526619,116599.666666,137.768413,0.000000,0.000000,0.000000,500.000000,1711568713576925,4,0,0,85605379,238.533661,35.910000,2.583616
2.862589,0,0,250,407.143113,0.673229,0.000000,434.526619,116599.666666,137.768413,0.000000,0.000000,0.000000,500.000000,1711568713711322,1,0,0,-85606095,-238.194290,35.910000,-2.582444
2.862589,0,0,250,407.143113,0.673229,0.000000,434.526619,116599.666666,137.768413,0.000000,0.000000,0.000000,500.000000,1711568713711322,2,0,0,-102025445,-191.493713,35.910000,-2.584980
2.862589,0,0,250,407.143113,0.673229,0.000000,434.526619,116599.666666,137.768413,0.000000,0.000000,0.000000,500.000000,1711568713711322,3,0,0,102026783,191.493713,35.910000,2.584980
2.862589,0,0,250,407.143113,0.673229,0.000000,434.526619,116599.666666,137.768413,0.000000,0.000000,0.000000,500.000000,1711568713711322,4,0,0,85607601,191.493713,35.910000,2.582703
2.862589,0,0,250,407.143113,0.673229,0.000000,434.526619,116599.666666,137.768413,0.000000,0.000000,0.000000,500.000000,1711568713835342,1,0,0,-85607878,-191.641602,35.910000,-2.582566
2.862589,0,0,250,407.143113,0.673229,0.000000,434.526619,116599.666666,137.768413,0.000000,0.000000,0.000000,500.000000,1711568713835342,2,0,0,-102027449,-239.229004,35.910000,-2.581643
2.862589,0,0,250,407.143113,0.673229,0.000000,434.526619,116599.666666,137.768413,0.000000,0.000000,0.000000,500.000000,1711568713835342,3,0,0,102028787,239.229004,35.910000,2.581643
2.862589,0,0,250,407.143113,0.673229,0.000000,434.526619,116599.666666,137.768413,0.000000,0.000000,0.000000,500.000000,1711568713835342,4,0,0,85609605,239.229004,35.910000,2.582545
2.862589,0,0,250,407.143113,0.673229,0.000000,434.526619,116599.666666,137.768413,0.000000,0.000000,0.000000,500.000000,1711568713976878,1,0,0,-85610107,-228.615463,35.910000,-2.584200
2.862589,0,0,250,407.143113,0.673229,0.000000,434.526619,116599.666666,137.768413,0.000000,0.000000,0.000000,500.000000,1711568713976878,2,0,0,-102029457,-228.615463,35.910000,-2.582834
2.862589,0,0,250,407.143113,0.673229,0.000000,434.526619,116599.666666,137.768413,0.000000,0.000000,0.000000,500.000000,1711568713976878,3,0,0,102030795,228.615463,35.910000,2.582834
2.862589,0,0,250,407.143113,0.673229,0.000000,434.526619,116599.666666,137.768413,0.000000,0.000000,0.000000,500.000000,1711568713976878,4,0,0,85611613,228.615463,35.910000,2.582417
2.862589,0,0,250,407.143113,0.673229,0.000000,434.526619,116599.666666,137.768413,0.000000,0.000000,0.000000,500.000000,1711568714101045,1,0,0,-85611879,-238.487671,35.910000,-2.583356
2.862589,0,0,250,407.143113,0.673229,0.000000,434.526619,116599.666666,137.768413,0.000000,0.000000,0.000000,500.000000,1711568714101045,2,0,0,-102031229,-238.487671,35.910000,-2.583073
2.862589,0,0,250,407.143113,0.673229,0.000000,434.526619,116599.666666,137.768413,0.000000,0.000000,0.000000,500.000000,1711568714101045,3,0,0,102032567,238.487671,35.910000,2.583073
2.862589,0,0,250,407.143113,0.673229,0.000000,434.526619,116599.666666,137.768413,0.000000,0.000000,0.000000,500.000000,1711568714101045,4,0,0,85613385,238.487671,35.910000,2.584198
2.862589,0,0,250,407.143113,0.673229,0.000000,434.526619,116599.666666,137.768413,0.000000,0.000000,0.000000,500.000000,1711568714237498,1,0,0,-85613446,-178.458878,35.910000,-2.587634
2.862589,0,0,250,407.143113,0.673229,0.000000,434.526619,116599.666666,137.768413,0.000000,0.000000,0.000000,500.000000,1711568714237498,2,0,0,-102033033,-241.025070,35.910000,-2.582954
2.862589,0,0,250,407.143113,0.673229,0.000000,434.526619,116599.666666,137.768413,0.000000,0.000000,0.000000,500.000000,1711568714237498,3,0,0,102034371,241.025070,35.910000,2.582954
2.862589,0,0,250,407.143113,0.673229,0.000000,434.526619,116599.666666,137.768413,0.000000,0.000000,0.000000,500.000000,1711568714237498,4,0,0,85615189,241.025070,35.910000,2.583656
4.237617,0,0,0,499.665481,18.286788,0.000000,1072.359095,116598.232592,139.112764,0.000000,0.000000,0.000000,500.000000,1711568714385974,1,0,0,-85615694,-205.339966,35.910000,-2.584205
4.237617,0,0,0,499.665481,18.286788,0.000000,1072.359095,116598.232592,139.112764,0.000000,0.000000,0.000000,500.000000,1711568714385974,2,0,0,-102035044,-205.339966,35.910000,-2.581186
4.237617,0,0,0,499.665481,18.286788,0.000000,1072.359095,116598.232592,139.112764,0.000000,0.000000,0.000000,500.000000,1711568714385974,3,0,0,102036382,205.339966,35.910000,2.584348
4.237617,0,0,0,499.665481,18.286788,0.000000,1072.359095,116598.232592,139.112764,0.000000,0.000000,0.000000,500.000000,1711568714385974,4,0,0,85617200,205.339966,35.910000,2.581186
4.237617,0,0,0,499.665481,18.286788,0.000000,1072.359095,116598.232592,139.112764,0.000000,0.000000,0.000000,500.000000,1711568714510329,1,0,0,-85617705,-239.222565,35.910000,-2.583069
4.237617,0,0,0,499.665481,18.286788,0.000000,1072.359095,116598.232592,139.112764,0.000000,0.000000,0.000000,500.000000,1711568714510329,2,0,0,-102037055,-190.480164,35.910000,-2.582557
4.237617,0,0,0,499.665481,18.286788,0.000000,1072.359095,116598.232592,139.112764,0.000000,0.000000,0.000000,500.000000,1711568714510329,3,0,0,102038393,190.480164,35.910000,2.583207
4.237617,0,0,0,499.665481,18.286788,0.000000,1072.359095,116598.232592,139.112764,0.000000,0.000000,0.000000,500.000000,1711568714510329,4,0,0,85619211,239.222565,35.910000,2.583069
4.237617,0,0,0,499.665481,18.286788,0.000000,1072.359095,116598.232592,139.112764,0.000000,0.000000,0.000000,500.000000,1711568714634794,1,0,0,-85619480,-234.226425,35.910000,-2.586102
4.237617,0,0,0,499.665481,18.286788,0.000000,1072.359095,116598.232592,139.112764,0.000000,0.000000,0.000000,500.000000,1711568714634794,2,0,0,-102038830,-234.226425,35.910000,-2.583253
4.237617,0,0,0,499.665481,18.286788,0.000000,1072.359095,116598.232592,139.112764,0.000000,0.000000,0.000000,500.000000,1711568714634794,3,0,0,102040168,234.226425,35.910000,2.582452
4.237617,0,0,0,499.665481,18.286788,0.000000,1072.359095,116598.232592,139.112764,0.000000,0.000000,0.000000,500.000000,1711568714634794,4,0,0,85620986,234.226425,35.910000,2.586102
4.237617,0,0,0,499.665481,18.286788,0.000000,1072.359095,116598.232592,139.112764,0.000000,0.000000,0.000000,500.000000,1711568714791330,1,0,0,-85621266,-232.969757,35.910000,-2.583423
4.237617,0,0,0,499.665481,18.286788,0.000000,1072.359095,116598.232592,139.112764,0.000000,0.000000,0.000000,500.000000,1711568714791330,2,0,0,-102040616,-232.969757,35.910000,-2.581924
4.237617,0,0,0,499.665481,18.286788,0.000000,1072.359095,116598.232592,139.112764,0.000000,0.000000,0.000000,500.000000,1711568714791330,3,0,0,102041954,175.707825,35.910000,2.725043
4.237617,0,0,0,499.665481,18.286788,0.000000,1072.359095,116598.232592,139.112764,0.000000,0.000000,0.000000,500.000000,1711568714791330,4,0,0,85622772,232.969757,35.910000,2.583423
4.237617,0,0,0,499.665481,18.286788,0.000000,1072.359095,116598.232592,139.112764,0.000000,0.000000,0.000000,500.000000,1711568714928103,1,0,0,-85623490,-236.659180,35.910000,-2.583055
4.237617,0,0,0,499.665481,18.286788,0.000000,1072.359095,116598.232592,139.112764,0.000000,0.000000,0.000000,500.000000,1711568714928103,2,0,0,-102042840,-236.659180,35.910000,-2.582964
4.237617,0,0,0,499.665481,18.286788,0.000000,1072.359095,116598.232592,139.112764,0.000000,0.000000,0.000000,500.000000,1711568714928103,3,0,0,102044178,174.853104,35.910000,2.580508
4.237617,0,0,0,499.665481,18.286788,0.000000,1072.359095,116598.232592,139.112764,0.000000,0.000000,0.000000,500.000000,1711568714928103,4,0,0,85624996,236.659180,35.910000,2.583055
4.237617,0,0,0,499.665481,18.286788,0.000000,1072.359095,116598.232592,139.112764,0.000000,0.000000,0.000000,500.000000,1711568715053083,1,0,0,-85625497,-238.025696,35.910000,-2.584285
4.237617,0,0,0,499.665481,18.286788,0.000000,1072.359095,116598.232592,139.112764,0.000000,0.000000,0.000000,500.000000,1711568715053083,2,0,0,-102044847,-238.025696,35.910000,-2.585286
4.237617,0,0,0,499.665481,18.286788,0.000000,1072.359095,116598.232592,139.112764,0.000000,0.000000,0.000000,500.000000,1711568715053083,3,0,0,102046185,190.974106,35.910000,2.582970
4.237617,0,0,0,499.665481,18.286788,0.000000,1072.359095,116598.232592,139.112764,0.000000,0.000000,0.000000,500.000000,1711568715053083,4,0,0,85627003,238.025696,35.910000,2.583023
4.237617,0,0,0,499.665481,18.286788,0.000000,1072.359095,116598.232592,139.112764,0.000000,0.000000,0.000000,500.000000,1711568715232475,1,0,0,-85627505,-212.795090,35.910000,-2.655060
4.237617,0,0,0,499.665481,18.286788,0.000000,1072.359095,116598.232592,139.112764,0.000000,0.000000,0.000000,500.000000,1711568715232475,2,0,0,-102047310,-285.375122,35.910000,-2.583022
4.237617,0,0,0,499.665481,18.286788,0.000000,1072.359095,116598.232592,139.112764,0.000000,0.000000,0.000000,500.000000,1711568715232475,3,0,0,102048648,249.802933,35.910000,2.583022
4.237617,0,0,0,499.665481,18.286788,0.000000,1072.359095,116598.232592,139.112764,0.000000,0.000000,0.000000,500.000000,1711568715232475,4,0,0,85629011,212.795090,35.910000,2.582283
4.237617,0,0,0,499.665481,18.286788,0.000000,1072.359095,116598.232592,139.112764,0.000000,0.000000,0.000000,500.000000,1711568715356486,1,0,0,-85629518,-173.117752,35.910000,-2.585176
4.237617,0,0,0,499.665481,18.286788,0.000000,1072.359095,116598.232592,139.112764,0.000000,0.000000,0.000000,500.000000,1711568715356486,2,0,0,-102049097,-233.184372,35.910000,-2.581503
4.237617,0,0,0,499.665481,18.286788,0.000000,1072.359095,116598.232592,139.112764,0.000000,0.000000,0.000000,500.000000,1711568715356486,3,0,0,102050435,233.184372,35.910000,2.581503
4.237617,0,0,0,499.665481,18.286788,0.000000,1072.359095,116598.232592,139.112764,0.000000,0.000000,0.000000,500.000000,1711568715356486,4,0,0,85631024,173.117752,35.910000,2.582646
4.237617,0,0,0,499.665481,18.286788,0.000000,1072.359095,116598.232592,139.112764,0.000000,0.000000,0.000000,500.000000,1711568715480476,1,0,0,-85631516,-191.956879,35.910000,-2.583971
4.237617,0,0,0,499.665481,18.286788,0.000000,1072.359095,116598.232592,139.112764,0.000000,0.000000,0.000000,500.000000,1711568715480476,2,0,0,-102050866,-191.956879,35.910000,-2.582114
4.237617,0,0,0,499.665481,18.286788,0.000000,1072.359095,116598.232592,139.112764,0.000000,0.000000,0.000000,500.000000,1711568715480476,3,0,0,102052204,191.956879,35.910000,2.583625
4.237617,0,0,0,499.665481,18.286788,0.000000,1072.359095,116598.232592,139.112764,0.000000,0.000000,0.000000,500.000000,1711568715480476,4,0,0,85633022,191.956879,35.910000,2.582114
4.237617,0,0,0,499.665481,18.286788,0.000000,1072.359095,116598.232592,139.112764,0.000000,0.000000,0.000000,500.000000,1711568715604512,1,0,0,-85633297,-192.616730,35.910000,-2.583997
4.237617,0,0,0,499.665481,18.286788,0.000000,1072.359095,116598.232592,139.112764,0.000000,0.000000,0.000000,500.000000,1711568715604512,2,0,0,-102052647,-192.616730,35.910000,-2.582715
4.237617,0,0,0,499.665481,18.286788,0.000000,1072.359095,116598.232592,139.112764,0.000000,0.000000,0.000000,500.000000,1711568715604512,3,0,0,102053985,192.616730,35.910000,2.582860
4.237617,0,0,0,499.665481,18.286788,0.000000,1072.359095,116598.232592,139.112764,0.000000,0.000000,0.000000,500.000000,1711568715604512,4,0,0,85634803,192.616730,35.910000,2.582715
7.662230,0,0,0,499.985856,3.760831,0.000000,2831.932130,116653.267086,138.911678,0.000000,0.000000,0.000000,500.000000,1711568715729833,1,0,0,-85635084,-192.071838,35.910000,-2.584277
7.662230,0,0,0,499.985856,3.760831,0.000000,2831.932130,116653.267086,138.911678,0.000000,0.000000,0.000000,500.000000,1711568715729833,2,0,0,-102054434,-192.071838,35.910000,-2.583584
7.662230,0,0,0,499.985856,3.760831,0.000000,2831.932130,116653.267086,138.911678,0.000000,0.000000,0.000000,500.000000,1711568715729833,3,0,0,102055772,192.071838,35.910000,2.583009
7.662230,0,0,0,499.985856,3.760831,0.000000,2831.932130,116653.267086,138.911678,0.000000,0.000000,0.000000,500.000000,1711568715729833,4,0,0,85636590,192.071838,35.910000,2.583584
7.662230,0,0,0,499.985856,3.760831,0.000000,2831.932130,116653.267086,138.911678,0.000000,0.000000,0.000000,500.000000,1711568715867016,1,0,0,-85636867,-190.619003,35.910000,-2.585647
7.662230,0,0,0,499.985856,3.760831,0.000000,2831.932130,116653.267086,138.911678,0.000000,0.000000,0.000000,500.000000,1711568715867016,2,0,0,-102056217,-190.619003,35.910000,-2.584240
7.662230,0,0,0,499.985856,3.760831,0.000000,2831.932130,116653.267086,138.911678,0.000000,0.000000,0.000000,500.000000,1711568715867016,3,0,0,102057555,190.619003,35.910000,2.582725
7.662230,0,0,0,499.985856,3.760831,0.000000,2831.932130,116653.267086,138.911678,0.000000,0.000000,0.000000,500.000000,1711568715867016,4,0,0,85638373,190.619003,35.910000,2.584240
7.662230,0,0,0,499.985856,3.760831,0.000000,2831.932130,116653.267086,138.911678,0.000000,0.000000,0.000000,500.000000,1711568715991480,1,0,0,-85638669,-176.960358,35.910000,-2.581060
7.662230,0,0,0,499.985856,3.760831,0.000000,2831.932130,116653.267086,138.911678,0.000000,0.000000,0.000000,500.000000,1711568715991480,2,0,0,-102058012,-175.125214,35.910000,-2.581982
7.662230,0,0,0,499.985856,3.760831,0.000000,2831.932130,116653.267086,138.911678,0.000000,0.000000,0.000000,500.000000,1711568715991480,3,0,0,102059350,175.125214,35.910000,2.581924
7.662230,0,0,0,499.985856,3.760831,0.000000,2831.932130,116653.267086,138.911678,0.000000,0.000000,0.000000,500.000000,1711568715991480,4,0,0,85640168,175.125214,35.910000,2.581982
7.662230,0,0,0,499.985856,3.760831,0.000000,2831.932130,116653.267086,138.911678,0.000000,0.000000,0.000000,500.000000,1711568716115787,1,0,0,-85640437,-176.163437,35.910000,-2.582683
7.662230,0,0,0,499.985856,3.760831,0.000000,2831.932130,116653.267086,138.911678,0.000000,0.000000,0.000000,500.000000,1711568716115787,2,0,0,-102059787,-176.163437,35.910000,-2.583497
7.662230,0,0,0,499.985856,3.760831,0.000000,2831.932130,116653.267086,138.911678,0.000000,0.000000,0.000000,500.000000,1711568716115787,3,0,0,102061125,176.163437,35.910000,2.583518
7.662230,0,0,0,499.985856,3.760831,0.000000,2831.932130,116653.267086,138.911678,0.000000,0.000000,0.000000,500.000000,1711568716115787,4,0,0,85641943,176.163437,35.910000,2.583497
7.662230,0,0,0,499.985856,3.760831,0.000000,2831.932130,116653.267086,138.911678,0.000000,0.000000,0.000000,500.000000,1711568716259777,1,0,0,-85642432,-172.285431,35.910000,-2.583639
7.662230,0,0,0,499.985856,3.760831,0.000000,2831.932130,116653.267086,138.911678,0.000000,0.000000,0.000000,500.000000,1711568716259777,2,0,0,-102062006,-215.793808,35.910000,-2.582804
7.662230,0,0,0,499.985856,3.760831,0.000000,2831.932130,116653.267086,138.911678,0.000000,0.000000,0.000000,500.000000,1711568716259777,3,0,0,102063344,215.793808,35.910000,2.582804
7.662230,0,0,0,499.985856,3.760831,0.000000,2831.932130,116653.267086,138.911678,0.000000,0.000000,0.000000,500.000000,1711568716259777,4,0,0,85644162,215.793808,35.910000,2.582867
7.662230,0,0,0,499.985856,3.760831,0.000000,2831.932130,116653.267086,138.911678,0.000000,0.000000,0.000000,500.000000,1711568716388358,1,0,0,-85644648,-223.288818,35.910000,-2.650566
7.662230,0,0,0,499.985856,3.760831,0.000000,2831.932130,116653.267086,138.911678,0.000000,0.000000,0.000000,500.000000,1711568716388358,2,0,0,-102063998,-223.288818,35.910000,-2.583230
7.662230,0,0,0,499.985856,3.760831,0.000000,2831.932130,116653.267086,138.911678,0.000000,0.000000,0.000000,500.000000,1711568716388358,3,0,0,102065336,223.288818,35.910000,2.583230
7.662230,0,0,0,499.985856,3.760831,0.000000,2831.932130,116653.267086,138.911678,0.000000,0.000000,0.000000,500.000000,1711568716388358,4,0,0,85646154,223.288818,35.910000,2.585093
7.662230,0,0,0,499.985856,3.760831,0.000000,2831.932130,116653.267086,138.911678,0.000000,0.000000,0.000000,500.000000,1711568716534197,1,0,0,-85646211,-153.338943,35.910000,1.085523
7.662230,0,0,0,499.985856,3.760831,0.000000,2831.932130,116653.267086,138.911678,0.000000,0.000000,0.000000,500.000000,1711568716534197,2,0,0,-102065561,-153.338943,35.910000,-3.960847
7.662230,0,0,0,499.985856,3.760831,0.000000,2831.932130,116653.267086,138.911678,0.000000,0.000000,0.000000,500.000000,1711568716534197,3,0,0,102066899,153.338943,35.910000,3.909577
7.662230,0,0,0,499.985856,3.760831,0.000000,2831.932130,116653.267086,138.911678,0.000000,0.000000,0.000000,500.000000,1711568716534197,4,0,0,85647717,153.338943,35.910000,0.768746
7.662230,0,0,0,499.985856,3.760831,0.000000,2831.932130,116653.267086,138.911678,0.000000,0.000000,0.000000,500.000000,1711568716657883,1,0,0,-85648147,-218.732544,35.910000,-0.991026
7.662230,0,0,0,499.985856,3.760831,0.000000,2831.932130,116653.267086,138.911678,0.000000,0.000000,0.000000,500.000000,1711568716657883,2,0,0,-102067651,-183.021118,35.910000,-3.791678
7.662230,0,0,0,499.985856,3.760831,0.000000,2831.932130,116653.267086,138.911678,0.000000,0.000000,0.000000,500.000000,1711568716657883,3,0,0,102068989,183.021118,35.910000,4.770749
7.662230,0,0,0,499.985856,3.760831,0.000000,2831.932130,116653.267086,138.911678,0.000000,0.000000,0.000000,500.000000,1711568716657883,4,0,0,85649653,162.539551,35.910000,0.991026
7.662230,0,0,0,499.985856,3.760831,0.000000,2831.932130,116653.267086,138.911678,0.000000,0.000000,0.000000,500.000000,1711568716781462,1,0,0,-85649731,-154.678391,35.910000,-1.180974
7.662230,0,0,0,499.985856,3.760831,0.000000,2831.932130,116653.267086,138.911678,0.000000,0.000000,0.000000,500.000000,1711568716781462,2,0,0,-102069557,-190.980453,35.910000,-3.609643
7.662230,0,0,0,499.985856,3.760831,0.000000,2831.932130,116653.267086,138.911678,0.000000,0.000000,0.000000,500.000000,1711568716781462,3,0,0,102070895,190.980453,35.910000,3.608227
7.662230,0,0,0,499.985856,3.760831,0.000000,2831.932130,116653.267086,138.911678,0.000000,0.000000,0.000000,500.000000,1711568716781462,4,0,0,85651237,154.678391,35.910000,1.226834
7.662230,0,0,0,499.985856,3.760831,0.000000,2831.932130,116653.267086,138.911678,0.000000,0.000000,0.000000,500.000000,1711568716906023,1,0,0,-85651442,-201.322601,35.910000,-1.352206
7.662230,0,0,0,499.985856,3.760831,0.000000,2831.932130,116653.267086,138.911678,0.000000,0.000000,0.000000,500.000000,1711568716906023,2,0,0,-102071786,-213.692001,35.910000,-3.504079
7.662230,0,0,0,499.985856,3.760831,0.000000,2831.932130,116653.267086,138.911678,0.000000,0.000000,0.000000,500.000000,1711568716906023,3,0,0,102073124,213.692001,35.910000,3.499337
7.662230,0,0,0,499.985856,3.760831,0.000000,2831.932130,116653.267086,138.911678,0.000000,0.000000,0.000000,500.000000,1711568716906023,4,0,0,85652948,160.588898,35.910000,1.352206
7.662230,0,0,0,499.985856,3.760831,0.000000,2831.932130,116653.267086,138.911678,0.000000,0.000000,0.000000,500.000000,1711568717029792,1,0,0,-85652895,-193.983719,35.910000,-1.462072
7.662230,0,0,0,499.985856,3.760831,0.000000,2831.932130,116653.267086,138.911678,0.000000,0.000000,0.000000,500.000000,1711568717029792,2,0,0,-102073805,-217.855331,35.910000,-3.431484
7.662230,0,0,0,499.985856,3.760831,0.000000,2831.932130,116653.267086,138.911678,0.000000,0.000000,0.000000,500.000000,1711568717029792,3,0,0,102075143,217.855331,35.910000,3.419034
7.662230,0,0,0,499.985856,3.760831,0.000000,2831.932130,116653.267086,138.911678,0.000000,0.000000,0.000000,500.000000,1711568717029792,4,0,0,85654401,154.842880,35.910000,1.462072
7.662230,0,0,0,499.985856,3.760831,0.000000,2831.932130,116653.267086,138.911678,0.000000,0.000000,0.000000,500.000000,1711568717153822,1,0,0,-85654295,-185.004745,35.910000,-1.505822
7.662230,0,0,0,499.985856,3.760831,0.000000,2831.932130,116653.267086,138.911678,0.000000,0.000000,0.000000,500.000000,1711568717153822,2,0,0,-102075843,-217.364609,35.910000,-3.362331
7.662230,0,0,0,499.985856,3.760831,0.000000,2831.932130,116653.267086,138.911678,0.000000,0.000000,0.000000,500.000000,1711568717153822,3,0,0,102077181,217.364609,35.910000,3.360646
7.662230,0,0,0,499.985856,3.760831,0.000000,2831.932130,116653.267086,138.911678,0.000000,0.000000,0.000000,500.000000,1711568717153822,4,0,0,85655801,147.748322,35.910000,1.505822
7.662230,0,0,0,499.985856,3.760831,0.000000,2831.932130,116653.267086,138.911678,0.000000,0.000000,0.000000,500.000000,1711568717319582,1,0,0,-85656021,-179.883377,35.910000,-1.627412
7.662230,0,0,0,499.985856,3.760831,0.000000,2831.932130,116653.267086,138.911678,0.000000,0.000000,0.000000,500.000000,1711568717319582,2,0,0,-102078458,-234.689240,35.910000,-3.319007
7.662230,0,0,0,499.985856,3.760831,0.000000,2831.932130,116653.267086,138.911678,0.000000,0.000000,0.000000,500.000000,1711568717319582,3,0,0,102079796,234.689240,35.910000,3.317064
7.662230,0,0,0,499.985856,3.760831,0.000000,2831.932130,116653.267086,138.911678,0.000000,0.000000,0.000000,500.000000,1711568717319582,4,0,0,85657527,153.756744,35.910000,1.627412
7.662230,0,0,0,499.985856,3.760831,0.000000,2831.932130,116653.267086,138.911678,0.000000,0.000000,0.000000,500.000000,1711568717444438,1,0,0,-85657541,-180.169708,35.910000,-1.661633
7.662230,0,0,0,499.985856,3.760831,0.000000,2831.932130,116653.267086,138.911678,0.000000,0.000000,0.000000,500.000000,1711568717444438,2,0,0,-102080839,-284.007172,35.910000,-3.275753
7.662230,0,0,0,499.985856,3.760831,0.000000,2831.932130,116653.267086,138.911678,0.000000,0.000000,0.000000,500.000000,1711568717444438,3,0,0,102082177,284.007172,35.910000,3.275753
7.662230,0,0,0,499.985856,3.760831,0.000000,2831.932130,116653.267086,138.911678,0.000000,0.000000,0.000000,500.000000,1711568717444438,4,0,0,85659047,180.169708,35.910000,1.661916
7.662230,0,0,0,499.985856,3.760831,0.000000,2831.932130,116653.267086,138.911678,0.000000,0.000000,0.000000,500.000000,1711568717586229,1,0,0,-85659028,-170.421326,35.910000,-1.706939
7.662230,0,0,0,499.985856,3.760831,0.000000,2831.932130,116653.267086,138.911678,0.000000,0.000000,0.000000,500.000000,1711568717586229,2,0,0,-102083220,-273.916046,35.910000,-3.264977
7.662230,0,0,0,499.985856,3.760831,0.000000,2831.932130,116653.267086,138.911678,0.000000,0.000000,0.000000,500.000000,1711568717586229,3,0,0,102084558,183.358170,35.910000,3.247374
7.662230,0,0,0,499.985856,3.760831,0.000000,2831.932130,116653.267086,138.911678,0.000000,0.000000,0.000000,500.000000,1711568717586229,4,0,0,85660534,170.421326,35.910000,1.706939
7.662230,0,0,0,499.985856,3.760831,0.000000,2831.932130,116653.267086,138.911678,0.000000,0.000000,0.000000,500.000000,1711568717711455,1,0,0,-85660348,-173.205444,35.910000,-1.729099
7.662230,0,0,0,499.985856,3.760831,0.000000,2831.932130,116653.267086,138.911678,0.000000,0.000000,0.000000,500.000000,1711568717711455,2,0,0,-102085369,-225.505859,35.910000,-3.227870
7.662230,0,0,0,499.985856,3.760831,0.000000,2831.932130,116653.267086,138.911678,0.000000,0.000000,0.000000,500.000000,1711568717711455,3,0,0,102086707,225.505859,35.910000,3.227885
7.662230,0,0,0,499.985856,3.760831,0.000000,2831.932130,116653.267086,138.911678,0.000000,0.000000,0.000000,500.000000,1711568717711455,4,0,0,85661854,173.205444,35.910000,1.721793
7.662230,0,0,0,499.985856,3.760831,0.000000,2831.932130,116653.267086,138.911678,0.000000,0.000000,0.000000,500.000000,1711568717836745,1,0,0,-85661666,-170.431580,35.910000,-1.748773
7.662230,0,0,0,499.985856,3.760831,0.000000,2831.932130,116653.267086,138.911678,0.000000,0.000000,0.000000,500.000000,1711568717836745,2,0,0,-102087543,-281.867615,35.910000,-3.216218
7.662230,0,0,0,499.985856,3.760831,0.000000,2831.932130,116653.267086,138.911678,0.000000,0.000000,0.000000,500.000000,1711568717836745,3,0,0,102088881,281.867615,35.910000,3.214127
7.662230,0,0,0,499.985856,3.760831,0.000000,2831.932130,116653.267086,138.911678,0.000000,0.000000,0.000000,500.000000,1711568717836745,4,0,0,85663172,170.431580,35.910000,1.750497
7.662230,0,0,0,499.985856,3.760831,0.000000,2831.932130,116653.267086,138.911678,0.000000,0.000000,0.000000,500.000000,1711568717973287,1,0,0,-85662962,-169.270065,35.910000,-1.765297
7.662230,0,0,0,499.985856,3.760831,0.000000,2831.932130,116653.267086,138.911678,0.000000,0.000000,0.000000,500.000000,1711568717973287,2,0,0,-102089699,-282.204132,35.910000,-3.202894
7.662230,0,0,0,499.985856,3.760831,0.000000,2831.932130,116653.267086,138.911678,0.000000,0.000000,0.000000,500.000000,1711568717973287,3,0,0,102091037,282.204132,35.910000,3.203807
7.662230,0,0,0,499.985856,3.760831,0.000000,2831.932130,116653.267086,138.911678,0.000000,0.000000,0.000000,500.000000,1711568717973287,4,0,0,85664468,169.270065,35.910000,1.767607
7.662230,0,0,0,499.985856,3.760831,0.000000,2831.932130,116653.267086,138.911678,0.000000,0.000000,0.000000,500.000000,1711568718098069,1,0,0,-85664240,-164.818634,35.910000,-1.779455
7.662230,0,0,0,499.985856,3.760831,0.000000,2831.932130,116653.267086,138.911678,0.000000,0.000000,0.000000,500.000000,1711568718098069,2,0,0,-102091840,-276.511780,35.910000,-3.194589
7.662230,0,0,0,499.985856,3.760831,0.000000,2831.932130,116653.267086,138.911678,0.000000,0.000000,0.000000,500.000000,1711568718098069,3,0,0,102093178,276.511780,35.910000,3.195350
7.662230,0,0,0,499.985856,3.760831,0.000000,2831.932130,116653.267086,138.911678,0.000000,0.000000,0.000000,500.000000,1711568718098069,4,0,0,85665746,164.818634,35.910000,1.779455
7.662230,0,0,0,499.985856,3.760831,0.000000,2831.932130,116653.267086,138.911678,0.000000,0.000000,0.000000,500.000000,1711568718222813,1,0,0,-85665686,-172.015625,35.910000,-1.787709
7.662230,0,0,0,499.985856,3.760831,0.000000,2831.932130,116653.267086,138.911678,0.000000,0.000000,0.000000,500.000000,1711568718222813,2,0,0,-102094277,-290.449127,35.910000,-3.182596
7.662230,0,0,0,499.985856,3.760831,0.000000,2831.932130,116653.267086,138.911678,0.000000,0.000000,0.000000,500.000000,1711568718222813,3,0,0,102095615,290.449127,35.910000,3.186647
7.662230,0,0,0,499.985856,3.760831,0.000000,2831.932130,116653.267086,138.911678,0.000000,0.000000,0.000000,500.000000,1711568718222813,4,0,0,85667192,172.015625,35.910000,1.789315
7.662230,0,0,0,499.985856,3.760831,0.000000,2831.932130,116653.267086,138.911678,0.000000,0.000000,0.000000,500.000000,1711568718368202,1,0,0,-85667131,-158.666809,35.910000,-1.796950
7.662230,0,0,0,499.985856,3.760831,0.000000,2831.932130,116653.267086,138.911678,0.000000,0.000000,0.000000,500.000000,1711568718368202,2,0,0,-102096725,-268.937805,35.910000,-3.183708
7.662230,0,0,0,499.985856,3.760831,0.000000,2831.932130,116653.267086,138.911678,0.000000,0.000000,0.000000,500.000000,1711568718368202,3,0,0,102098063,268.937805,35.910000,3.181503
7.662230,0,0,0,499.985856,3.760831,0.000000,2831.932130,116653.267086,138.911678,0.000000,0.000000,0.000000,500.000000,1711568718368202,4,0,0,85668637,158.666809,35.910000,1.796950
7.662230,0,0,0,499.985856,3.760831,0.000000,2831.932130,116653.267086,138.911678,0.000000,0.000000,0.000000,500.000000,1711568718492832,1,0,0,-85668404,-170.054672,35.910000,-1.801875
7.662230,0,0,0,499.985856,3.760831,0.000000,2831.932130,116653.267086,138.911678,0.000000,0.000000,0.000000,500.000000,1711568718492832,2,0,0,-102098887,-231.197922,35.910000,-3.181557
7.662230,0,0,0,499.985856,3.760831,0.000000,2831.932130,116653.267086,138.911678,0.000000,0.000000,0.000000,500.000000,1711568718492832,3,0,0,102100225,231.197922,35.910000,3.178649
7.662230,0,0,0,499.985856,3.760831,0.000000,2831.932130,116653.267086,138.911678,0.000000,0.000000,0.000000,500.000000,1711568718492832,4,0,0,85669910,136.086197,35.910000,1.801875
7.662230,0,0,0,499.985856,3.760831,0.000000,2831.932130,116653.267086,138.911678,0.000000,0.000000,0.000000,500.000000,1711568718637493,1,0,0,-85669726,-146.630371,35.910000,-4.836924
7.662230,0,0,0,499.985856,3.760831,0.000000,2831.932130,116653.267086,138.911678,0.000000,0.000000,0.000000,500.000000,1711568718637493,2,0,0,-102101257,-277.015961,35.910000,-0.338736
7.662230,0,0,0,499.985856,3.760831,0.000000,2831.932130,116653.267086,138.911678,0.000000,0.000000,0.000000,500.000000,1711568718637493,3,0,0,102102595,277.015961,35.910000,0.338736
7.662230,0,0,0,499.985856,3.760831,0.000000,2831.932130,116653.267086,138.911678,0.000000,0.000000,0.000000,500.000000,1711568718637493,4,0,0,85671232,146.630371,35.910000,4.669395
7.662230,0,0,0,499.985856,3.760831,0.000000,2831.932130,116653.267086,138.911678,0.000000,0.000000,0.000000,500.000000,1711568718762104,1,0,0,-85671429,-167.685257,35.910000,-4.464341
7.662230,0,0,0,499.985856,3.760831,0.000000,2831.932130,116653.267086,138.911678,0.000000,0.000000,0.000000,500.000000,1711568718762104,2,0,0,-102103157,-199.472916,35.910000,-0.636756
7.662230,0,0,0,499.985856,3.760831,0.000000,2831.932130,116653.267086,138.911678,0.000000,0.000000,0.000000,500.000000,1711568718762104,3,0,0,102104495,199.472916,35.910000,0.698643
7.662230,0,0,0,499.985856,3.760831,0.000000,2831.932130,116653.267086,138.911678,0.000000,0.000000,0.000000,500.000000,1711568718762104,4,0,0,85672935,167.685257,35.910000,4.346230
7.662230,0,0,0,499.985856,3.760831,0.000000,2831.932130,116653.267086,138.911678,0.000000,0.000000,0.000000,500.000000,1711568718886094,1,0,0,-85673104,-181.781372,35.910000,-4.132874
7.662230,0,0,0,499.985856,3.760831,0.000000,2831.932130,116653.267086,138.911678,0.000000,0.000000,0.000000,500.000000,1711568718886094,2,0,0,-102104919,-184.147751,35.910000,-0.911309
7.662230,0,0,0,499.985856,3.760831,0.000000,2831.932130,116653.267086,138.911678,0.000000,0.000000,0.000000,500.000000,1711568718886094,3,0,0,102106257,184.147751,35.910000,0.963955
7.662230,0,0,0,499.985856,3.760831,0.000000,2831.932130,116653.267086,138.911678,0.000000,0.000000,0.000000,500.000000,1711568718886094,4,0,0,85674610,181.781372,35.910000,4.070880
7.662230,0,0,0,499.985856,3.760831,0.000000,2831.932130,116653.267086,138.911678,0.000000,0.000000,0.000000,500.000000,1711568719010727,1,0,0,-85674894,-193.984116,35.910000,-3.908071
7.662230,0,0,0,499.985856,3.760831,0.000000,2831.932130,116653.267086,138.911678,0.000000,0.000000,0.000000,500.000000,1711568719010727,2,0,0,-102106571,-174.049835,35.910000,-1.131619
7.662230,0,0,0,499.985856,3.760831,0.000000,2831.932130,116653.267086,138.911678,0.000000,0.000000,0.000000,500.000000,1711568719010727,3,0,0,102107909,174.049835,35.910000,1.115825
7.662230,0,0,0,499.985856,3.760831,0.000000,2831.932130,116653.267086,138.911678,0.000000,0.000000,0.000000,500.000000,1711568719010727,4,0,0,85676400,193.984116,35.910000,3.848876
9.040898,0,0,0,499.713215,-16.932297,0.000000,3532.628300,116644.960796,138.911678,0.000000,0.000000,0.000000,500.000000,1711568719175681,1,0,0,-85677218,-221.688965,35.910000,-2.261742
9.040898,0,0,0,499.713215,-16.932297,0.000000,3532.628300,116644.960796,138.911678,0.000000,0.000000,0.000000,500.000000,1711568719175681,2,0,0,-102108563,-191.084793,35.910000,-2.758354
9.040898,0,0,0,499.713215,-16.932297,0.000000,3532.628300,116644.960796,138.911678,0.000000,0.000000,0.000000,500.000000,1711568719175681,3,0,0,102109901,191.084793,35.910000,2.746789
9.040898,0,0,0,499.713215,-16.932297,0.000000,3532.628300,116644.960796,138.911678,0.000000,0.000000,0.000000,500.000000,1711568719175681,4,0,0,85678735,223.027893,35.910000,2.237098
9.040898,0,0,0,499.713215,-16.932297,0.000000,3532.628300,116644.960796,138.911678,0.000000,0.000000,0.000000,500.000000,1711568719298968,1,0,0,-85679025,-236.594513,35.910000,-2.317793
9.040898,0,0,0,499.713215,-16.932297,0.000000,3532.628300,116644.960796,138.911678,0.000000,0.000000,0.000000,500.000000,1711568719298968,2,0,0,-102110163,-158.431473,35.910000,-2.696636
9.040898,0,0,0,499.713215,-16.932297,0.000000,3532.628300,116644.960796,138.911678,0.000000,0.000000,0.000000,500.000000,1711568719298968,3,0,0,102111501,158.431473,35.910000,2.696889
9.040898,0,0,0,499.713215,-16.932297,0.000000,3532.628300,116644.960796,138.911678,0.000000,0.000000,0.000000,500.000000,1711568719298968,4,0,0,85680550,237.647217,35.910000,2.299091
9.040898,0,0,0,499.713215,-16.932297,0.000000,3532.628300,116644.960796,138.911678,0.000000,0.000000,0.000000,500.000000,1711568719446454,1,0,0,-85681034,-205.189911,35.910000,-2.362530
9.040898,0,0,0,499.713215,-16.932297,0.000000,3532.628300,116644.960796,138.911678,0.000000,0.000000,0.000000,500.000000,1711568719446454,2,0,0,-102112202,-189.689957,35.910000,-2.653339
9.040898,0,0,0,499.713215,-16.932297,0.000000,3532.628300,116644.960796,138.911678,0.000000,0.000000,0.000000,500.000000,1711568719446454,3,0,0,102113540,189.689957,35.910000,2.653339
9.040898,0,0,0,499.713215,-16.932297,0.000000,3532.628300,116644.960796,138.911678,0.000000,0.000000,0.000000,500.000000,1711568719446454,4,0,0,85682791,247.261215,35.910000,2.355041
9.040898,0,0,0,499.713215,-16.932297,0.000000,3532.628300,116644.960796,138.911678,0.000000,0.000000,0.000000,500.000000,1711568719579179,1,0,0,-85682812,-173.471069,35.910000,-2.385766
9.040898,0,0,0,499.713215,-16.932297,0.000000,3532.628300,116644.960796,138.911678,0.000000,0.000000,0.000000,500.000000,1711568719579179,2,0,0,-102113653,-162.448700,35.910000,-2.876268
9.040898,0,0,0,499.713215,-16.932297,0.000000,3532.628300,116644.960796,138.911678,0.000000,0.000000,0.000000,500.000000,1711568719579179,3,0,0,102114991,162.448700,35.910000,2.605044
9.040898,0,0,0,499.713215,-16.932297,0.000000,3532.628300,116644.960796,138.911678,0.000000,0.000000,0.000000,500.000000,1711568719579179,4,0,0,85684352,173.995941,35.910000,2.255229
9.040898,0,0,0,499.713215,-16.932297,0.000000,3532.628300,116644.960796,138.911678,0.000000,0.000000,0.000000,500.000000,1711568719739750,1,0,0,-85685259,-205.318970,35.910000,-2.424884
9.040898,0,0,0,499.713215,-16.932297,0.000000,3532.628300,116644.960796,138.911678,0.000000,0.000000,0.000000,500.000000,1711568719739750,2,0,0,-102115978,-196.087006,35.910000,-2.576167
9.040898,0,0,0,499.713215,-16.932297,0.000000,3532.628300,116644.960796,138.911678,0.000000,0.000000,0.000000,500.000000,1711568719739750,3,0,0,102117524,194.240601,35.910000,2.576317
9.040898,0,0,0,499.713215,-16.932297,0.000000,3532.628300,116644.960796,138.911678,0.000000,0.000000,0.000000,500.000000,1711568719739750,4,0,0,85686806,205.872894,35.910000,2.419973
9.040898,0,0,0,499.713215,-16.932297,0.000000,3532.628300,116644.960796,138.911678,0.000000,0.000000,0.000000,500.000000,1711568719863861,1,0,0,-85686790,-114.951187,35.910000,-2.407028
9.040898,0,0,0,499.713215,-16.932297,0.000000,3532.628300,116644.960796,138.911678,0.000000,0.000000,0.000000,500.000000,1711568719863861,2,0,0,-102117453,-111.268539,35.910000,-2.560769
9.040898,0,0,0,499.713215,-16.932297,0.000000,3532.628300,116644.960796,138.911678,0.000000,0.000000,0.000000,500.000000,1711568719863861,3,0,0,102119211,221.747940,35.910000,2.555755
9.040898,0,0,0,499.713215,-16.932297,0.000000,3532.628300,116644.960796,138.911678,0.000000,0.000000,0.000000,500.000000,1711568719863861,4,0,0,85688339,115.214233,35.910000,2.436563
9.040898,0,0,0,499.713215,-16.932297,0.000000,3532.628300,116644.960796,138.911678,0.000000,0.000000,0.000000,500.000000,1711568719988182,1,0,0,-85688981,-190.653519,35.910000,-2.454617
9.040898,0,0,0,499.713215,-16.932297,0.000000,3532.628300,116644.960796,138.911678,0.000000,0.000000,0.000000,500.000000,1711568719988182,2,0,0,-102119584,-185.914108,35.910000,-2.543288
9.040898,0,0,0,499.713215,-16.932297,0.000000,3532.628300,116644.960796,138.911678,0.000000,0.000000,0.000000,500.000000,1711568719988182,3,0,0,102120922,185.914108,35.910000,2.543930
9.040898,0,0,0,499.713215,-16.932297,0.000000,3532.628300,116644.960796,138.911678,0.000000,0.000000,0.000000,500.000000,1711568719988182,4,0,0,85690535,191.299805,35.910000,2.450019
9.040898,0,0,0,499.713215,-16.932297,0.000000,3532.628300,116644.960796,138.911678,0.000000,0.000000,0.000000,500.000000,1711568720129166,1,0,0,-85690957,-189.176682,35.910000,-2.465634
9.040898,0,0,0,499.713215,-16.932297,0.000000,3532.628300,116644.960796,138.911678,0.000000,0.000000,0.000000,500.000000,1711568720129166,2,0,0,-102121519,-185.561844,35.910000,-2.532534
9.040898,0,0,0,499.713215,-16.932297,0.000000,3532.628300,116644.960796,138.911678,0.000000,0.000000,0.000000,500.000000,1711568720129166,3,0,0,102122857,185.561844,35.910000,2.531044
9.040898,0,0,0,499.713215,-16.932297,0.000000,3532.628300,116644.960796,138.911678,0.000000,0.000000,0.000000,500.000000,1711568720129166,4,0,0,85692514,189.520950,35.910000,2.462287
9.040898,0,0,0,499.713215,-16.932297,0.000000,3532.628300,116644.960796,138.911678,0.000000,0.000000,0.000000,500.000000,1711568720266779,1,0,0,-85692694,-225.617294,35.910000,-2.472703
9.040898,0,0,0,499.713215,-16.932297,0.000000,3532.628300,116644.960796,138.911678,0.000000,0.000000,0.000000,500.000000,1711568720266779,2,0,0,-102123228,-166.601654,35.910000,-2.527807
9.040898,0,0,0,499.713215,-16.932297,0.000000,3532.628300,116644.960796,138.911678,0.000000,0.000000,0.000000,500.000000,1711568720266779,3,0,0,102124566,166.601654,35.910000,2.524642
9.040898,0,0,0,499.713215,-16.932297,0.000000,3532.628300,116644.960796,138.911678,0.000000,0.000000,0.000000,500.000000,1711568720266779,4,0,0,85694252,225.617294,35.910000,2.470165
9.040898,0,0,0,499.713215,-16.932297,0.000000,3532.628300,116644.960796,138.911678,0.000000,0.000000,0.000000,500.000000,1711568720391394,1,0,0,-85694444,-187.586044,35.910000,-2.512371
9.040898,0,0,0,499.713215,-16.932297,0.000000,3532.628300,116644.960796,138.911678,0.000000,0.000000,0.000000,500.000000,1711568720391394,2,0,0,-102124954,-136.892883,35.910000,-2.516962
9.040898,0,0,0,499.713215,-16.932297,0.000000,3532.628300,116644.960796,138.911678,0.000000,0.000000,0.000000,500.000000,1711568720391394,3,0,0,102126292,136.892883,35.910000,2.516029
9.040898,0,0,0,499.713215,-16.932297,0.000000,3532.628300,116644.960796,138.911678,0.000000,0.000000,0.000000,500.000000,1711568720391394,4,0,0,85696002,187.586044,35.910000,2.507115
12.405937,0,0,0,499.968754,-5.589750,0.000000,5177.162887,116698.730837,138.911652,0.000000,0.000000,0.000000,500.000000,1711568720518400,1,0,0,-85696393,-221.079132,35.910000,-2.482913
12.405937,0,0,0,499.968754,-5.589750,0.000000,5177.162887,116698.730837,138.911652,0.000000,0.000000,0.000000,500.000000,1711568720518400,2,0,0,-102126884,-175.225693,35.910000,-2.510931
12.405937,0,0,0,499.968754,-5.589750,0.000000,5177.162887,116698.730837,138.911652,0.000000,0.000000,0.000000,500.000000,1711568720518400,3,0,0,102128222,175.225693,35.910000,2.511544
12.405937,0,0,0,499.968754,-5.589750,0.000000,5177.162887,116698.730837,138.911652,0.000000,0.000000,0.000000,500.000000,1711568720518400,4,0,0,85697953,221.283844,35.910000,2.481455
12.405937,0,0,0,499.968754,-5.589750,0.000000,5177.162887,116698.730837,138.911652,0.000000,0.000000,0.000000,500.000000,1711568720661278,1,0,0,-85698319,-195.901047,35.910000,-2.488634
12.405937,0,0,0,499.968754,-5.589750,0.000000,5177.162887,116698.730837,138.911652,0.000000,0.000000,0.000000,500.000000,1711568720661278,2,0,0,-102128796,-194.624237,35.910000,-2.508948
12.405937,0,0,0,499.968754,-5.589750,0.000000,5177.162887,116698.730837,138.911652,0.000000,0.000000,0.000000,500.000000,1711568720661278,3,0,0,102130134,194.624237,35.910000,2.508899
12.405937,0,0,0,499.968754,-5.589750,0.000000,5177.162887,116698.730837,138.911652,0.000000,0.000000,0.000000,500.000000,1711568720661278,4,0,0,85699880,196.083450,35.910000,2.485839
12.405937,0,0,0,499.968754,-5.589750,0.000000,5177.162887,116698.730837,138.911652,0.000000,0.000000,0.000000,500.000000,1711568720816604,1,0,0,-85700288,-185.500748,35.910000,-2.488697
12.405937,0,0,0,499.968754,-5.589750,0.000000,5177.162887,116698.730837,138.911652,0.000000,0.000000,0.000000,500.000000,1711568720816604,2,0,0,-102130753,-184.310547,35.910000,-2.508301
12.405937,0,0,0,499.968754,-5.589750,0.000000,5177.162887,116698.730837,138.911652,0.000000,0.000000,0.000000,500.000000,1711568720816604,3,0,0,102132305,220.696579,35.910000,2.504853
12.405937,0,0,0,499.968754,-5.589750,0.000000,5177.162887,116698.730837,138.911652,0.000000,0.000000,0.000000,500.000000,1711568720816604,4,0,0,85701850,185.670776,35.910000,2.490639
12.405937,0,0,0,499.968754,-5.589750,0.000000,5177.162887,116698.730837,138.911652,0.000000,0.000000,0.000000,500.000000,1711568720963605,1,0,0,-85702457,-239.587509,35.910000,-0.852867
12.405937,0,0,0,499.968754,-5.589750,0.000000,5177.162887,116698.730837,138.911652,0.000000,0.000000,0.000000,500.000000,1711568720963605,2,0,0,-102132919,-191.271057,35.910000,-4.046290
12.405937,0,0,0,499.968754,-5.589750,0.000000,5177.162887,116698.730837,138.911652,0.000000,0.000000,0.000000,500.000000,1711568720963605,3,0,0,102134257,191.271057,35.910000,4.018454
12.405937,0,0,0,499.968754,-5.589750,0.000000,5177.162887,116698.730837,138.911652,0.000000,0.000000,0.000000,500.000000,1711568720963605,4,0,0,85704021,191.049423,35.910000,0.793169
12.405937,0,0,0,499.968754,-5.589750,0.000000,5177.162887,116698.730837,138.911652,0.000000,0.000000,0.000000,500.000000,1711568721087736,1,0,0,-85704308,-216.053024,35.910000,-1.109312
12.405937,0,0,0,499.968754,-5.589750,0.000000,5177.162887,116698.730837,138.911652,0.000000,0.000000,0.000000,500.000000,1711568721087736,2,0,0,-102134939,-242.469040,35.910000,-3.826046
12.405937,0,0,0,499.968754,-5.589750,0.000000,5177.162887,116698.730837,138.911652,0.000000,0.000000,0.000000,500.000000,1711568721087736,3,0,0,102136277,242.469040,35.910000,3.826046
12.405937,0,0,0,499.968754,-5.589750,0.000000,5177.162887,116698.730837,138.911652,0.000000,0.000000,0.000000,500.000000,1711568721087736,4,0,0,85705872,216.053024,35.910000,1.066451
12.405937,0,0,0,499.968754,-5.589750,0.000000,5177.162887,116698.730837,138.911652,0.000000,0.000000,0.000000,500.000000,1711568721211877,1,0,0,-85705671,-164.983200,35.910000,-1.236829
12.405937,0,0,0,499.968754,-5.589750,0.000000,5177.162887,116698.730837,138.911652,0.000000,0.000000,0.000000,500.000000,1711568721211877,2,0,0,-102136829,-255.346542,35.910000,-3.667914
12.405937,0,0,0,499.968754,-5.589750,0.000000,5177.162887,116698.730837,138.911652,0.000000,0.000000,0.000000,500.000000,1711568721211877,3,0,0,102138167,255.346542,35.910000,3.667914
12.405937,0,0,0,499.968754,-5.589750,0.000000,5177.162887,116698.730837,138.911652,0.000000,0.000000,0.000000,500.000000,1711568721211877,4,0,0,85707429,206.822067,35.910000,1.279039
12.405937,0,0,0,499.968754,-5.589750,0.000000,5177.162887,116698.730837,138.911652,0.000000,0.000000,0.000000,500.000000,1711568721336727,1,0,0,-85707180,-145.587967,35.910000,-1.388184
12.405937,0,0,0,499.968754,-5.589750,0.000000,5177.162887,116698.730837,138.911652,0.000000,0.000000,0.000000,500.000000,1711568721336727,2,0,0,-102138793,-257.638702,35.910000,-3.555045
12.405937,0,0,0,499.968754,-5.589750,0.000000,5177.162887,116698.730837,138.911652,0.000000,0.000000,0.000000,500.000000,1711568721336727,3,0,0,102140131,257.638702,35.910000,3.555045
12.405937,0,0,0,499.968754,-5.589750,0.000000,5177.162887,116698.730837,138.911652,0.000000,0.000000,0.000000,500.000000,1711568721336727,4,0,0,85708926,192.904053,35.910000,1.396675
12.405937,0,0,0,499.968754,-5.589750,0.000000,5177.162887,116698.730837,138.911652,0.000000,0.000000,0.000000,500.000000,1711568721460672,1,0,0,-85708621,-140.952332,35.910000,-1.485118
12.405937,0,0,0,499.968754,-5.589750,0.000000,5177.162887,116698.730837,138.911652,0.000000,0.000000,0.000000,500.000000,1711568721460672,2,0,0,-102140790,-263.793457,35.910000,-3.467395
12.405937,0,0,0,499.968754,-5.589750,0.000000,5177.162887,116698.730837,138.911652,0.000000,0.000000,0.000000,500.000000,1711568721460672,3,0,0,102142128,263.793457,35.910000,3.467395
12.405937,0,0,0,499.968754,-5.589750,0.000000,5177.162887,116698.730837,138.911652,0.000000,0.000000,0.000000,500.000000,1711568721460672,4,0,0,85710362,187.411469,35.910000,1.496062
12.405937,0,0,0,499.968754,-5.589750,0.000000,5177.162887,116698.730837,138.911652,0.000000,0.000000,0.000000,500.000000,1711568721596571,1,0,0,-85710028,-141.089569,35.910000,-1.559937
12.405937,0,0,0,499.968754,-5.589750,0.000000,5177.162887,116698.730837,138.911652,0.000000,0.000000,0.000000,500.000000,1711568721596571,2,0,0,-102142838,-276.033203,35.910000,-3.406864
12.405937,0,0,0,499.968754,-5.589750,0.000000,5177.162887,116698.730837,138.911652,0.000000,0.000000,0.000000,500.000000,1711568721596571,3,0,0,102144176,276.033203,35.910000,3.406864
12.405937,0,0,0,499.968754,-5.589750,0.000000,5177.162887,116698.730837,138.911652,0.000000,0.000000,0.000000,500.000000,1711568721596571,4,0,0,85711593,141.089569,35.910000,1.567586
12.405937,0,0,0,499.968754,-5.589750,0.000000,5177.162887,116698.730837,138.911652,0.000000,0.000000,0.000000,500.000000,1711568721722050,1,0,0,-85711576,-147.274384,35.910000,-1.625744
12.405937,0,0,0,499.968754,-5.589750,0.000000,5177.162887,116698.730837,138.911652,0.000000,0.000000,0.000000,500.000000,1711568721722050,2,0,0,-102144922,-224.742401,35.910000,-3.350578
12.405937,0,0,0,499.968754,-5.589750,0.000000,5177.162887,116698.730837,138.911652,0.000000,0.000000,0.000000,500.000000,1711568721722050,3,0,0,102146260,224.742401,35.910000,3.346830
12.405937,0,0,0,499.968754,-5.589750,0.000000,5177.162887,116698.730837,138.911652,0.000000,0.000000,0.000000,500.000000,1711568721722050,4,0,0,85713141,147.274384,35.910000,1.629629
12.405937,0,0,0,499.968754,-5.589750,0.000000,5177.162887,116698.730837,138.911652,0.000000,0.000000,0.000000,500.000000,1711568721847146,1,0,0,-85712934,-143.412827,35.910000,-1.667336
12.405937,0,0,0,499.968754,-5.589750,0.000000,5177.162887,116698.730837,138.911652,0.000000,0.000000,0.000000,500.000000,1711568721847146,2,0,0,-102147036,-224.601959,35.910000,-3.304396
12.405937,0,0,0,499.968754,-5.589750,0.000000,5177.162887,116698.730837,138.911652,0.000000,0.000000,0.000000,500.000000,1711568721847146,3,0,0,102148374,224.601959,35.910000,3.302581
12.405937,0,0,0,499.968754,-5.589750,0.000000,5177.162887,116698.730837,138.911652,0.000000,0.000000,0.000000,500.000000,1711568721847146,4,0,0,85714499,143.412827,35.910000,1.675550
12.405937,0,0,0,499.968754,-5.589750,0.000000,5177.162887,116698.730837,138.911652,0.000000,0.000000,0.000000,500.000000,1711568721971524,1,0,0,-85714258,-140.707260,35.910000,-1.696880
12.405937,0,0,0,499.968754,-5.589750,0.000000,5177.162887,116698.730837,138.911652,0.000000,0.000000,0.000000,500.000000,1711568721971524,2,0,0,-102149144,-225.259735,35.910000,-3.271566
12.405937,0,0,0,499.968754,-5.589750,0.000000,5177.162887,116698.730837,138.911652,0.000000,0.000000,0.000000,500.000000,1711568721971524,3,0,0,102150482,225.259735,35.910000,3.265700
12.405937,0,0,0,499.968754,-5.589750,0.000000,5177.162887,116698.730837,138.911652,0.000000,0.000000,0.000000,500.000000,1711568721971524,4,0,0,85715823,140.707260,35.910000,1.708831
12.405937,0,0,0,499.968754,-5.589750,0.000000,5177.162887,116698.730837,138.911652,0.000000,0.000000,0.000000,500.000000,1711568722105288,1,0,0,-85715742,-154.196259,35.910000,-1.733559
12.405937,0,0,0,499.968754,-5.589750,0.000000,5177.162887,116698.730837,138.911652,0.000000,0.000000,0.000000,500.000000,1711568722105288,2,0,0,-102151550,-250.921066,35.910000,-3.245131
12.405937,0,0,0,499.968754,-5.589750,0.000000,5177.162887,116698.730837,138.911652,0.000000,0.000000,0.000000,500.000000,1711568722105288,3,0,0,102152888,250.921066,35.910000,3.242751
12.405937,0,0,0,499.968754,-5.589750,0.000000,5177.162887,116698.730837,138.911652,0.000000,0.000000,0.000000,500.000000,1711568722105288,4,0,0,85717307,154.196259,35.910000,1.733506
12.405937,0,0,0,499.968754,-5.589750,0.000000,5177.162887,116698.730837,138.911652,0.000000,0.000000,0.000000,500.000000,1711568722230662,1,0,0,-85717048,-169.531326,35.910000,-1.751637
12.405937,0,0,0,499.968754,-5.589750,0.000000,5177.162887,116698.730837,138.911652,0.000000,0.000000,0.000000,500.000000,1711568722230662,2,0,0,-102153696,-279.623322,35.910000,-3.228606
12.405937,0,0,0,499.968754,-5.589750,0.000000,5177.162887,116698.730837,138.911652,0.000000,0.000000,0.000000,500.000000,1711568722230662,3,0,0,102155034,279.623322,35.910000,3.227057
12.405937,0,0,0,499.968754,-5.589750,0.000000,5177.162887,116698.730837,138.911652,0.000000,0.000000,0.000000,500.000000,1711568722230662,4,0,0,85718613,169.531326,35.910000,1.751594
12.405937,0,0,0,499.968754,-5.589750,0.000000,5177.162887,116698.730837,138.911652,0.000000,0.000000,0.000000,500.000000,1711568722385820,1,0,0,-85718511,-161.747971,35.910000,-1.768851
12.405937,0,0,0,499.968754,-5.589750,0.000000,5177.162887,116698.730837,138.911652,0.000000,0.000000,0.000000,500.000000,1711568722385820,2,0,0,-102156126,-269.778900,35.910000,-3.213229
12.405937,0,0,0,499.968754,-5.589750,0.000000,5177.162887,116698.730837,138.911652,0.000000,0.000000,0.000000,500.000000,1711568722385820,3,0,0,102157464,269.778900,35.910000,3.213016
12.405937,0,0,0,499.968754,-5.589750,0.000000,5177.162887,116698.730837,138.911652,0.000000,0.000000,0.000000,500.000000,1711568722385820,4,0,0,85720076,161.747971,35.910000,1.768819
