CurrentTime,PlatformType,PlatformDirection,PlatformMovementType,PlayerVelocity.x,PlayerVelocity.y,PlayerVelocity.z,PlayerPosition.x,PlayerPosition.y,PlayerPosition.z,PlayerRotation.Pitch,PlayerRotation.Roll,PlayerRotation.Yaw,PlayerCurrentSpeed,UnixTimeStamp [us],ControllerId,MotorFlags,HallPosition,EncoderPosition,MotorVelocity,MotorVoltage,MotorCurrent,CurrentLeg
1.567727,0,0,250,699.994097,-2.874660,0.000000,208.348398,9898.996859,138.911679,0.000000,0.000000,0.000000,700.000000,1713423567205591,1,0,0,-11496938,-63.371506,35.910000,-0.844301,0
1.567727,0,0,250,699.994097,-2.874660,0.000000,208.348398,9898.996859,138.911679,0.000000,0.000000,0.000000,700.000000,1713423567205591,2,0,0,-15134645,-78.539108,35.910000,-0.844456,0
1.567727,0,0,250,699.994097,-2.874660,0.000000,208.348398,9898.996859,138.911679,0.000000,0.000000,0.000000,700.000000,1713423567205591,3,0,0,15157661,78.539108,35.910000,0.844456,0
1.567727,0,0,250,699.994097,-2.874660,0.000000,208.348398,9898.996859,138.911679,0.000000,0.000000,0.000000,700.000000,1713423567205591,4,0,0,11543026,78.539108,35.910000,0.844270,0
1.567727,0,0,250,699.994097,-2.874660,0.000000,208.348398,9898.996859,138.911679,0.000000,0.000000,0.000000,700.000000,1713423567335689,1,0,0,-11497607,-78.306084,35.910000,-0.844912,0
1.567727,0,0,250,699.994097,-2.874660,0.000000,208.348398,9898.996859,138.911679,0.000000,0.000000,0.000000,700.000000,1713423567335689,2,0,0,-15135241,-78.306084,35.910000,-0.844463,0
1.567727,0,0,250,699.994097,-2.874660,0.000000,208.348398,9898.996859,138.911679,0.000000,0.000000,0.000000,700.000000,1713423567335689,3,0,0,15158257,63.062500,35.910000,0.844322,0
1.567727,0,0,250,699.994097,-2.874660,0.000000,208.348398,9898.996859,138.911679,0.000000,0.000000,0.000000,700.000000,1713423567335689,4,0,0,11543622,78.306084,35.910000,0.844467,0
1.567727,0,0,250,699.994097,-2.874660,0.000000,208.348398,9898.996859,138.911679,0.000000,0.000000,0.000000,700.000000,1713423567467143,1,0,0,-11498208,-73.904785,35.910000,-0.844301,0
1.567727,0,0,250,699.994097,-2.874660,0.000000,208.348398,9898.996859,138.911679,0.000000,0.000000,0.000000,700.000000,1713423567467143,2,0,0,-15135842,-58.810173,35.910000,-0.844248,0
1.567727,0,0,250,699.994097,-2.874660,0.000000,208.348398,9898.996859,138.911679,0.000000,0.000000,0.000000,700.000000,1713423567467143,3,0,0,15158858,58.810173,35.910000,0.844409,0
1.567727,0,0,250,699.994097,-2.874660,0.000000,208.348398,9898.996859,138.911679,0.000000,0.000000,0.000000,700.000000,1713423567467143,4,0,0,11544223,58.810173,35.910000,0.844248,0
1.567727,0,0,250,699.994097,-2.874660,0.000000,208.348398,9898.996859,138.911679,0.000000,0.000000,0.000000,700.000000,1713423567595902,1,0,0,-11498792,-54.794655,35.910000,-0.844325,0
1.567727,0,0,250,699.994097,-2.874660,0.000000,208.348398,9898.996859,138.911679,0.000000,0.000000,0.000000,700.000000,1713423567595902,2,0,0,-15136500,-73.566895,35.910000,-0.844282,0
1.567727,0,0,250,699.994097,-2.874660,0.000000,208.348398,9898.996859,138.911679,0.000000,0.000000,0.000000,700.000000,1713423567595902,3,0,0,15159516,73.566895,35.910000,0.844282,0
1.567727,0,0,250,699.994097,-2.874660,0.000000,208.348398,9898.996859,138.911679,0.000000,0.000000,0.000000,700.000000,1713423567595902,4,0,0,11544881,73.566895,35.910000,0.844410,0
1.567727,0,0,250,699.994097,-2.874660,0.000000,208.348398,9898.996859,138.911679,0.000000,0.000000,0.000000,700.000000,1713423567738487,1,0,0,-11499473,-78.083084,35.910000,-0.844860,0
1.567727,0,0,250,699.994097,-2.874660,0.000000,208.348398,9898.996859,138.911679,0.000000,0.000000,0.000000,700.000000,1713423567738487,2,0,0,-15137107,-78.083084,35.910000,-0.844400,0
1.567727,0,0,250,699.994097,-2.874660,0.000000,208.348398,9898.996859,138.911679,0.000000,0.000000,0.000000,700.000000,1713423567738487,3,0,0,15160123,78.083084,35.910000,0.844210,0
1.567727,0,0,250,699.994097,-2.874660,0.000000,208.348398,9898.996859,138.911679,0.000000,0.000000,0.000000,700.000000,1713423567738487,4,0,0,11545488,78.083084,35.910000,0.844605,0
1.567727,0,0,250,699.994097,-2.874660,0.000000,208.348398,9898.996859,138.911679,0.000000,0.000000,0.000000,700.000000,1713423567866517,1,0,0,-11500074,-75.971535,35.910000,-0.844440,0
1.567727,0,0,250,699.994097,-2.874660,0.000000,208.348398,9898.996859,138.911679,0.000000,0.000000,0.000000,700.000000,1713423567866517,2,0,0,-15137708,-75.971535,35.910000,-0.844513,0
1.567727,0,0,250,699.994097,-2.874660,0.000000,208.348398,9898.996859,138.911679,0.000000,0.000000,0.000000,700.000000,1713423567866517,3,0,0,15160724,75.971535,35.910000,0.844604,0
1.567727,0,0,250,699.994097,-2.874660,0.000000,208.348398,9898.996859,138.911679,0.000000,0.000000,0.000000,700.000000,1713423567866517,4,0,0,11546089,75.971535,35.910000,0.844440,0
1.567727,0,0,250,699.994097,-2.874660,0.000000,208.348398,9898.996859,138.911679,0.000000,0.000000,0.000000,700.000000,1713423567995946,1,0,0,-11500751,-76.748718,35.910000,-0.844488,0
1.567727,0,0,250,699.994097,-2.874660,0.000000,208.348398,9898.996859,138.911679,0.000000,0.000000,0.000000,700.000000,1713423567995946,2,0,0,-15138385,-76.748718,35.910000,-0.844495,0
1.567727,0,0,250,699.994097,-2.874660,0.000000,208.348398,9898.996859,138.911679,0.000000,0.000000,0.000000,700.000000,1713423567995946,3,0,0,15161401,61.973568,35.910000,0.844678,0
1.567727,0,0,250,699.994097,-2.874660,0.000000,208.348398,9898.996859,138.911679,0.000000,0.000000,0.000000,700.000000,1713423567995946,4,0,0,11546766,76.748718,35.910000,0.844488,0
1.567727,0,0,250,699.994097,-2.874660,0.000000,208.348398,9898.996859,138.911679,0.000000,0.000000,0.000000,700.000000,1713423568125189,1,0,0,-11501357,-77.506905,35.910000,-0.844583,0
1.567727,0,0,250,699.994097,-2.874660,0.000000,208.348398,9898.996859,138.911679,0.000000,0.000000,0.000000,700.000000,1713423568125189,2,0,0,-15138991,-61.760120,35.910000,-0.844583,0
1.567727,0,0,250,699.994097,-2.874660,0.000000,208.348398,9898.996859,138.911679,0.000000,0.000000,0.000000,700.000000,1713423568125189,3,0,0,15162007,61.760120,35.910000,0.852306,0
1.567727,0,0,250,699.994097,-2.874660,0.000000,208.348398,9898.996859,138.911679,0.000000,0.000000,0.000000,700.000000,1713423568125189,4,0,0,11547372,77.506905,35.910000,0.844583,0
1.567727,0,0,250,699.994097,-2.874660,0.000000,208.348398,9898.996859,138.911679,0.000000,0.000000,0.000000,700.000000,1713423568253891,1,0,0,-11501954,-61.214470,35.910000,-0.844636,0
1.567727,0,0,250,699.994097,-2.874660,0.000000,208.348398,9898.996859,138.911679,0.000000,0.000000,0.000000,700.000000,1713423568253891,2,0,0,-15139588,-61.214470,35.910000,-0.844503,0
1.567727,0,0,250,699.994097,-2.874660,0.000000,208.348398,9898.996859,138.911679,0.000000,0.000000,0.000000,700.000000,1713423568253891,3,0,0,15162604,61.214470,35.910000,0.844465,0
1.567727,0,0,250,699.994097,-2.874660,0.000000,208.348398,9898.996859,138.911679,0.000000,0.000000,0.000000,700.000000,1713423568253891,4,0,0,11547969,61.214470,35.910000,0.844503,0
1.567727,0,0,250,699.994097,-2.874660,0.000000,208.348398,9898.996859,138.911679,0.000000,0.000000,0.000000,700.000000,1713423568396207,1,0,0,-11502561,-76.783340,35.910000,-0.844233,0
1.567727,0,0,250,699.994097,-2.874660,0.000000,208.348398,9898.996859,138.911679,0.000000,0.000000,0.000000,700.000000,1713423568396207,2,0,0,-15140195,-57.270744,35.910000,-0.844602,0
1.567727,0,0,250,699.994097,-2.874660,0.000000,208.348398,9898.996859,138.911679,0.000000,0.000000,0.000000,700.000000,1713423568396207,3,0,0,15163211,57.270744,35.910000,0.844473,0
1.567727,0,0,250,699.994097,-2.874660,0.000000,208.348398,9898.996859,138.911679,0.000000,0.000000,0.000000,700.000000,1713423568396207,4,0,0,11548576,57.270744,35.910000,0.844602,0
2.916462,0,0,125,699.980430,-5.234330,0.000000,1129.110068,9894.846186,138.911679,0.000000,0.000000,0.000000,700.000000,1713423568524641,1,0,0,-11503241,-63.236298,35.910000,-0.844099,1
2.916462,0,0,125,699.980430,-5.234330,0.000000,1129.110068,9894.846186,138.911679,0.000000,0.000000,0.000000,700.000000,1713423568524641,2,0,0,-15140875,-63.236298,35.910000,-0.844575,1
2.916462,0,0,125,699.980430,-5.234330,0.000000,1129.110068,9894.846186,138.911679,0.000000,0.000000,0.000000,700.000000,1713423568524641,3,0,0,15163891,63.236298,35.910000,0.844303,1
2.916462,0,0,125,699.980430,-5.234330,0.000000,1129.110068,9894.846186,138.911679,0.000000,0.000000,0.000000,700.000000,1713423568524641,4,0,0,11549256,63.236298,35.910000,0.844575,1
2.916462,0,0,125,699.980430,-5.234330,0.000000,1129.110068,9894.846186,138.911679,0.000000,0.000000,0.000000,700.000000,1713423568652243,1,0,0,-11503838,-61.423725,35.910000,-0.844719,1
2.916462,0,0,125,699.980430,-5.234330,0.000000,1129.110068,9894.846186,138.911679,0.000000,0.000000,0.000000,700.000000,1713423568652243,2,0,0,-15141472,-61.423725,35.910000,-0.844207,1
2.916462,0,0,125,699.980430,-5.234330,0.000000,1129.110068,9894.846186,138.911679,0.000000,0.000000,0.000000,700.000000,1713423568652243,3,0,0,15164566,77.609703,35.910000,0.844207,1
2.916462,0,0,125,699.980430,-5.234330,0.000000,1129.110068,9894.846186,138.911679,0.000000,0.000000,0.000000,700.000000,1713423568652243,4,0,0,11549853,61.423725,35.910000,0.844400,1
2.916462,0,0,125,699.980430,-5.234330,0.000000,1129.110068,9894.846186,138.911679,0.000000,0.000000,0.000000,700.000000,1713423568783583,1,0,0,-11504511,-73.429260,35.910000,-0.844251,1
2.916462,0,0,125,699.980430,-5.234330,0.000000,1129.110068,9894.846186,138.911679,0.000000,0.000000,0.000000,700.000000,1713423568783583,2,0,0,-15142145,-73.429260,35.910000,-0.844839,1
2.916462,0,0,125,699.980430,-5.234330,0.000000,1129.110068,9894.846186,138.911679,0.000000,0.000000,0.000000,700.000000,1713423568783583,3,0,0,15165161,73.429260,35.910000,0.844424,1
2.916462,0,0,125,699.980430,-5.234330,0.000000,1129.110068,9894.846186,138.911679,0.000000,0.000000,0.000000,700.000000,1713423568783583,4,0,0,11550526,73.429260,35.910000,0.844251,1
2.916462,0,0,125,699.980430,-5.234330,0.000000,1129.110068,9894.846186,138.911679,0.000000,0.000000,0.000000,700.000000,1713423568913221,1,0,0,-11505118,-77.195618,35.910000,-0.844127,1
2.916462,0,0,125,699.980430,-5.234330,0.000000,1129.110068,9894.846186,138.911679,0.000000,0.000000,0.000000,700.000000,1713423568913221,2,0,0,-15142752,-77.195618,35.910000,-0.844391,1
2.916462,0,0,125,699.980430,-5.234330,0.000000,1129.110068,9894.846186,138.911679,0.000000,0.000000,0.000000,700.000000,1713423568913221,3,0,0,15165768,61.553349,35.910000,0.844558,1
2.916462,0,0,125,699.980430,-5.234330,0.000000,1129.110068,9894.846186,138.911679,0.000000,0.000000,0.000000,700.000000,1713423568913221,4,0,0,11551133,77.195618,35.910000,0.844127,1
2.916462,0,0,125,699.980430,-5.234330,0.000000,1129.110068,9894.846186,138.911679,0.000000,0.000000,0.000000,700.000000,1713423569054592,1,0,0,-11505724,-76.954620,35.910000,-0.844300,1
2.916462,0,0,125,699.980430,-5.234330,0.000000,1129.110068,9894.846186,138.911679,0.000000,0.000000,0.000000,700.000000,1713423569054592,2,0,0,-15143358,-76.954620,35.910000,-0.844320,1
2.916462,0,0,125,699.980430,-5.234330,0.000000,1129.110068,9894.846186,138.911679,0.000000,0.000000,0.000000,700.000000,1713423569054592,3,0,0,15166374,57.590221,35.910000,0.844583,1
2.916462,0,0,125,699.980430,-5.234330,0.000000,1129.110068,9894.846186,138.911679,0.000000,0.000000,0.000000,700.000000,1713423569054592,4,0,0,11551739,76.954620,35.910000,0.844300,1
2.916462,0,0,125,699.980430,-5.234330,0.000000,1129.110068,9894.846186,138.911679,0.000000,0.000000,0.000000,700.000000,1713423569183860,1,0,0,-11506329,-77.169144,35.910000,-0.844814,1
2.916462,0,0,125,699.980430,-5.234330,0.000000,1129.110068,9894.846186,138.911679,0.000000,0.000000,0.000000,700.000000,1713423569183860,2,0,0,-15143963,-57.562649,35.910000,-0.844509,1
2.916462,0,0,125,699.980430,-5.234330,0.000000,1129.110068,9894.846186,138.911679,0.000000,0.000000,0.000000,700.000000,1713423569183860,3,0,0,15166979,57.562649,35.910000,0.844724,1
2.916462,0,0,125,699.980430,-5.234330,0.000000,1129.110068,9894.846186,138.911679,0.000000,0.000000,0.000000,700.000000,1713423569183860,4,0,0,11552344,77.169144,35.910000,0.844814,1
2.916462,0,0,125,699.980430,-5.234330,0.000000,1129.110068,9894.846186,138.911679,0.000000,0.000000,0.000000,700.000000,1713423569311817,1,0,0,-11506942,-76.686256,35.910000,-0.844765,1
2.916462,0,0,125,699.980430,-5.234330,0.000000,1129.110068,9894.846186,138.911679,0.000000,0.000000,0.000000,700.000000,1713423569311817,2,0,0,-15144576,-57.514694,35.910000,-0.844501,1
2.916462,0,0,125,699.980430,-5.234330,0.000000,1129.110068,9894.846186,138.911679,0.000000,0.000000,0.000000,700.000000,1713423569311817,3,0,0,15167592,57.514694,35.910000,0.844573,1
2.916462,0,0,125,699.980430,-5.234330,0.000000,1129.110068,9894.846186,138.911679,0.000000,0.000000,0.000000,700.000000,1713423569311817,4,0,0,11552957,76.686256,35.910000,0.844765,1
2.916462,0,0,125,699.980430,-5.234330,0.000000,1129.110068,9894.846186,138.911679,0.000000,0.000000,0.000000,700.000000,1713423569440272,1,0,0,-11507624,-78.295921,35.910000,-0.844221,1
2.916462,0,0,125,699.980430,-5.234330,0.000000,1129.110068,9894.846186,138.911679,0.000000,0.000000,0.000000,700.000000,1713423569440272,2,0,0,-15145258,-62.053680,35.910000,-0.844844,1
2.916462,0,0,125,699.980430,-5.234330,0.000000,1129.110068,9894.846186,138.911679,0.000000,0.000000,0.000000,700.000000,1713423569440272,3,0,0,15168274,62.053680,35.910000,0.844487,1
2.916462,0,0,125,699.980430,-5.234330,0.000000,1129.110068,9894.846186,138.911679,0.000000,0.000000,0.000000,700.000000,1713423569440272,4,0,0,11553639,78.295921,35.910000,0.844221,1
2.916462,0,0,125,699.980430,-5.234330,0.000000,1129.110068,9894.846186,138.911679,0.000000,0.000000,0.000000,700.000000,1713423569567569,1,0,0,-11508230,-79.645561,35.910000,-0.844522,1
2.916462,0,0,125,699.980430,-5.234330,0.000000,1129.110068,9894.846186,138.911679,0.000000,0.000000,0.000000,700.000000,1713423569567569,2,0,0,-15145864,-63.464275,35.910000,-0.844414,1
2.916462,0,0,125,699.980430,-5.234330,0.000000,1129.110068,9894.846186,138.911679,0.000000,0.000000,0.000000,700.000000,1713423569567569,3,0,0,15168880,63.464275,35.910000,0.844821,1
2.916462,0,0,125,699.980430,-5.234330,0.000000,1129.110068,9894.846186,138.911679,0.000000,0.000000,0.000000,700.000000,1713423569567569,4,0,0,11554245,63.464275,35.910000,0.844522,1
2.916462,0,0,125,699.980430,-5.234330,0.000000,1129.110068,9894.846186,138.911679,0.000000,0.000000,0.000000,700.000000,1713423569706952,1,0,0,-11508829,-63.073341,35.910000,-0.844796,1
2.916462,0,0,125,699.980430,-5.234330,0.000000,1129.110068,9894.846186,138.911679,0.000000,0.000000,0.000000,700.000000,1713423569706952,2,0,0,-15146463,-63.073341,35.910000,-0.844626,1
2.916462,0,0,125,699.980430,-5.234330,0.000000,1129.110068,9894.846186,138.911679,0.000000,0.000000,0.000000,700.000000,1713423569706952,3,0,0,15169479,63.073341,35.910000,0.844326,1
2.916462,0,0,125,699.980430,-5.234330,0.000000,1129.110068,9894.846186,138.911679,0.000000,0.000000,0.000000,700.000000,1713423569706952,4,0,0,11554844,63.073341,35.910000,0.844720,1
4.288848,0,0,125,699.973773,6.059516,0.000000,2101.438616,9896.480270,138.911679,0.000000,0.000000,0.000000,700.000000,1713423569862027,1,0,0,-11509591,-68.679283,35.910000,-0.844592,0
4.288848,0,0,125,699.973773,6.059516,0.000000,2101.438616,9896.480270,138.911679,0.000000,0.000000,0.000000,700.000000,1713423569862027,2,0,0,-15147302,-68.080765,35.910000,-0.844421,0
4.288848,0,0,125,699.973773,6.059516,0.000000,2101.438616,9896.480270,138.911679,0.000000,0.000000,0.000000,700.000000,1713423569862027,3,0,0,15170318,68.080765,35.910000,0.844421,0
4.288848,0,0,125,699.973773,6.059516,0.000000,2101.438616,9896.480270,138.911679,0.000000,0.000000,0.000000,700.000000,1713423569862027,4,0,0,11555683,80.051010,35.910000,0.844548,0
4.288848,0,0,125,699.973773,6.059516,0.000000,2101.438616,9896.480270,138.911679,0.000000,0.000000,0.000000,700.000000,1713423569989678,1,0,0,-11510194,-63.736824,35.910000,-0.844417,0
4.288848,0,0,125,699.973773,6.059516,0.000000,2101.438616,9896.480270,138.911679,0.000000,0.000000,0.000000,700.000000,1713423569989678,2,0,0,-15147904,-79.618095,35.910000,-0.844623,0
4.288848,0,0,125,699.973773,6.059516,0.000000,2101.438616,9896.480270,138.911679,0.000000,0.000000,0.000000,700.000000,1713423569989678,3,0,0,15170920,79.618095,35.910000,0.844623,0
4.288848,0,0,125,699.973773,6.059516,0.000000,2101.438616,9896.480270,138.911679,0.000000,0.000000,0.000000,700.000000,1713423569989678,4,0,0,11556285,79.618095,35.910000,0.844619,0
4.288848,0,0,125,699.973773,6.059516,0.000000,2101.438616,9896.480270,138.911679,0.000000,0.000000,0.000000,700.000000,1713423570116963,1,0,0,-11510806,-63.773586,35.910000,-0.844407,0
4.288848,0,0,125,699.973773,6.059516,0.000000,2101.438616,9896.480270,138.911679,0.000000,0.000000,0.000000,700.000000,1713423570116963,2,0,0,-15148516,-79.455620,35.910000,-0.844011,0
4.288848,0,0,125,699.973773,6.059516,0.000000,2101.438616,9896.480270,138.911679,0.000000,0.000000,0.000000,700.000000,1713423570116963,3,0,0,15171532,79.455620,35.910000,0.844011,0
4.288848,0,0,125,699.973773,6.059516,0.000000,2101.438616,9896.480270,138.911679,0.000000,0.000000,0.000000,700.000000,1713423570116963,4,0,0,11556897,79.455620,35.910000,0.844539,0
4.288848,0,0,125,699.973773,6.059516,0.000000,2101.438616,9896.480270,138.911679,0.000000,0.000000,0.000000,700.000000,1713423570258611,1,0,0,-11511485,-77.867783,35.910000,-0.844850,0
4.288848,0,0,125,699.973773,6.059516,0.000000,2101.438616,9896.480270,138.911679,0.000000,0.000000,0.000000,700.000000,1713423570258611,2,0,0,-15149120,-77.867783,35.910000,-0.844388,0
4.288848,0,0,125,699.973773,6.059516,0.000000,2101.438616,9896.480270,138.911679,0.000000,0.000000,0.000000,700.000000,1713423570258611,3,0,0,15172136,77.867783,35.910000,0.844576,0
4.288848,0,0,125,699.973773,6.059516,0.000000,2101.438616,9896.480270,138.911679,0.000000,0.000000,0.000000,700.000000,1713423570258611,4,0,0,11557501,77.867783,35.910000,0.844140,0
4.288848,0,0,125,699.973773,6.059516,0.000000,2101.438616,9896.480270,138.911679,0.000000,0.000000,0.000000,700.000000,1713423570386326,1,0,0,-11512080,-73.929787,35.910000,-0.844501,0
4.288848,0,0,125,699.973773,6.059516,0.000000,2101.438616,9896.480270,138.911679,0.000000,0.000000,0.000000,700.000000,1713423570386326,2,0,0,-15149715,-73.421677,35.910000,-0.844454,0
4.288848,0,0,125,699.973773,6.059516,0.000000,2101.438616,9896.480270,138.911679,0.000000,0.000000,0.000000,700.000000,1713423570386326,3,0,0,15172731,73.929787,35.910000,0.844510,0
4.288848,0,0,125,699.973773,6.059516,0.000000,2101.438616,9896.480270,138.911679,0.000000,0.000000,0.000000,700.000000,1713423570386326,4,0,0,11558096,73.929787,35.910000,0.844501,0
4.288848,0,0,125,699.973773,6.059516,0.000000,2101.438616,9896.480270,138.911679,0.000000,0.000000,0.000000,700.000000,1713423570524870,1,0,0,-11512761,-68.251183,35.910000,-0.844780,0
4.288848,0,0,125,699.973773,6.059516,0.000000,2101.438616,9896.480270,138.911679,0.000000,0.000000,0.000000,700.000000,1713423570524870,2,0,0,-15150396,-68.251183,35.910000,-0.844260,0
4.288848,0,0,125,699.973773,6.059516,0.000000,2101.438616,9896.480270,138.911679,0.000000,0.000000,0.000000,700.000000,1713423570524870,3,0,0,15173490,69.153976,35.910000,0.844260,0
4.288848,0,0,125,699.973773,6.059516,0.000000,2101.438616,9896.480270,138.911679,0.000000,0.000000,0.000000,700.000000,1713423570524870,4,0,0,11558777,68.251183,35.910000,0.844148,0
4.288848,0,0,125,699.973773,6.059516,0.000000,2101.438616,9896.480270,138.911679,0.000000,0.000000,0.000000,700.000000,1713423570654234,1,0,0,-11513367,-62.897224,35.910000,-0.844746,0
4.288848,0,0,125,699.973773,6.059516,0.000000,2101.438616,9896.480270,138.911679,0.000000,0.000000,0.000000,700.000000,1713423570654234,2,0,0,-15151080,-78.774193,35.910000,-0.844594,0
4.288848,0,0,125,699.973773,6.059516,0.000000,2101.438616,9896.480270,138.911679,0.000000,0.000000,0.000000,700.000000,1713423570654234,3,0,0,15174096,78.774193,35.910000,0.844594,0
4.288848,0,0,125,699.973773,6.059516,0.000000,2101.438616,9896.480270,138.911679,0.000000,0.000000,0.000000,700.000000,1713423570654234,4,0,0,11559383,62.897224,35.910000,0.844598,0
4.288848,0,0,125,699.973773,6.059516,0.000000,2101.438616,9896.480270,138.911679,0.000000,0.000000,0.000000,700.000000,1713423570782132,1,0,0,-11513975,-56.917961,35.910000,-0.844236,0
4.288848,0,0,125,699.973773,6.059516,0.000000,2101.438616,9896.480270,138.911679,0.000000,0.000000,0.000000,700.000000,1713423570782132,2,0,0,-15151683,-75.550301,35.910000,-0.844490,0
4.288848,0,0,125,699.973773,6.059516,0.000000,2101.438616,9896.480270,138.911679,0.000000,0.000000,0.000000,700.000000,1713423570782132,3,0,0,15174699,75.550301,35.910000,0.844490,0
4.288848,0,0,125,699.973773,6.059516,0.000000,2101.438616,9896.480270,138.911679,0.000000,0.000000,0.000000,700.000000,1713423570782132,4,0,0,11560064,75.550301,35.910000,0.844573,0
4.288848,0,0,125,699.973773,6.059516,0.000000,2101.438616,9896.480270,138.911679,0.000000,0.000000,0.000000,700.000000,1713423570934575,1,0,0,-11514649,-63.387264,35.910000,-0.844581,0
4.288848,0,0,125,699.973773,6.059516,0.000000,2101.438616,9896.480270,138.911679,0.000000,0.000000,0.000000,700.000000,1713423570934575,2,0,0,-15152360,-79.445374,35.910000,-0.844326,0
4.288848,0,0,125,699.973773,6.059516,0.000000,2101.438616,9896.480270,138.911679,0.000000,0.000000,0.000000,700.000000,1713423570934575,3,0,0,15175376,79.445374,35.910000,0.844862,0
4.288848,0,0,125,699.973773,6.059516,0.000000,2101.438616,9896.480270,138.911679,0.000000,0.000000,0.000000,700.000000,1713423570934575,4,0,0,11560665,63.387264,35.910000,0.844326,0
4.288848,0,0,125,699.973773,6.059516,0.000000,2101.438616,9896.480270,138.911679,0.000000,0.000000,0.000000,700.000000,1713423571062640,1,0,0,-11515252,-58.149162,35.910000,-0.844568,0
4.288848,0,0,125,699.973773,6.059516,0.000000,2101.438616,9896.480270,138.911679,0.000000,0.000000,0.000000,700.000000,1713423571062640,2,0,0,-15152963,-77.532219,35.910000,-0.844469,0
4.288848,0,0,125,699.973773,6.059516,0.000000,2101.438616,9896.480270,138.911679,0.000000,0.000000,0.000000,700.000000,1713423571062640,3,0,0,15175979,77.532219,35.910000,0.844469,0
4.288848,0,0,125,699.973773,6.059516,0.000000,2101.438616,9896.480270,138.911679,0.000000,0.000000,0.000000,700.000000,1713423571062640,4,0,0,11561268,58.149162,35.910000,0.844457,0
5.597487,0,0,125,66.161835,0.000018,0.000000,2677.300222,9899.179317,138.911679,0.000000,0.000000,0.000000,500.000000,1713423571191506,1,0,0,-11515930,-62.993839,35.910000,-0.844766,1
5.597487,0,0,125,66.161835,0.000018,0.000000,2677.300222,9899.179317,138.911679,0.000000,0.000000,0.000000,500.000000,1713423571191506,2,0,0,-15153565,-62.993839,35.910000,-0.844440,1
5.597487,0,0,125,66.161835,0.000018,0.000000,2677.300222,9899.179317,138.911679,0.000000,0.000000,0.000000,500.000000,1713423571191506,3,0,0,15176659,79.210075,35.910000,0.844440,1
5.597487,0,0,125,66.161835,0.000018,0.000000,2677.300222,9899.179317,138.911679,0.000000,0.000000,0.000000,500.000000,1713423571191506,4,0,0,11561946,62.993839,35.910000,0.844113,1
5.597487,0,0,125,66.161835,0.000018,0.000000,2677.300222,9899.179317,138.911679,0.000000,0.000000,0.000000,500.000000,1713423571320406,1,0,0,-11516536,-62.964962,35.910000,-0.844205,1
5.597487,0,0,125,66.161835,0.000018,0.000000,2677.300222,9899.179317,138.911679,0.000000,0.000000,0.000000,500.000000,1713423571320406,2,0,0,-15154244,-78.035263,35.910000,-0.844748,1
5.597487,0,0,125,66.161835,0.000018,0.000000,2677.300222,9899.179317,138.911679,0.000000,0.000000,0.000000,500.000000,1713423571320406,3,0,0,15177260,78.035263,35.910000,0.844748,1
5.597487,0,0,125,66.161835,0.000018,0.000000,2677.300222,9899.179317,138.911679,0.000000,0.000000,0.000000,500.000000,1713423571320406,4,0,0,11562625,78.035263,35.910000,0.844294,1
5.597487,0,0,125,66.161835,0.000018,0.000000,2677.300222,9899.179317,138.911679,0.000000,0.000000,0.000000,500.000000,1713423571462110,1,0,0,-11517207,-77.227806,35.910000,-0.844007,1
5.597487,0,0,125,66.161835,0.000018,0.000000,2677.300222,9899.179317,138.911679,0.000000,0.000000,0.000000,500.000000,1713423571462110,2,0,0,-15154842,-77.227806,35.910000,-0.844646,1
5.597487,0,0,125,66.161835,0.000018,0.000000,2677.300222,9899.179317,138.911679,0.000000,0.000000,0.000000,500.000000,1713423571462110,3,0,0,15177858,77.227806,35.910000,0.844691,1
5.597487,0,0,125,66.161835,0.000018,0.000000,2677.300222,9899.179317,138.911679,0.000000,0.000000,0.000000,500.000000,1713423571462110,4,0,0,11563223,77.227806,35.910000,0.844591,1
5.597487,0,0,125,66.161835,0.000018,0.000000,2677.300222,9899.179317,138.911679,0.000000,0.000000,0.000000,500.000000,1713423571589743,1,0,0,-11517893,-78.704041,35.910000,-0.844499,1
5.597487,0,0,125,66.161835,0.000018,0.000000,2677.300222,9899.179317,138.911679,0.000000,0.000000,0.000000,500.000000,1713423571589743,2,0,0,-15155528,-78.704041,35.910000,-0.844700,1
5.597487,0,0,125,66.161835,0.000018,0.000000,2677.300222,9899.179317,138.911679,0.000000,0.000000,0.000000,500.000000,1713423571589743,3,0,0,15178544,78.704041,35.910000,0.844700,1
5.597487,0,0,125,66.161835,0.000018,0.000000,2677.300222,9899.179317,138.911679,0.000000,0.000000,0.000000,500.000000,1713423571589743,4,0,0,11563909,78.704041,35.910000,0.844426,1
5.597487,0,0,125,66.161835,0.000018,0.000000,2677.300222,9899.179317,138.911679,0.000000,0.000000,0.000000,500.000000,1713423571718787,1,0,0,-11518485,-77.472122,35.910000,-0.844151,1
5.597487,0,0,125,66.161835,0.000018,0.000000,2677.300222,9899.179317,138.911679,0.000000,0.000000,0.000000,500.000000,1713423571718787,2,0,0,-15156120,-77.472122,35.910000,-0.844874,1
5.597487,0,0,125,66.161835,0.000018,0.000000,2677.300222,9899.179317,138.911679,0.000000,0.000000,0.000000,500.000000,1713423571718787,3,0,0,15179136,77.472122,35.910000,0.844276,1
5.597487,0,0,125,66.161835,0.000018,0.000000,2677.300222,9899.179317,138.911679,0.000000,0.000000,0.000000,500.000000,1713423571718787,4,0,0,11564501,77.472122,35.910000,0.844151,1
5.597487,0,0,125,66.161835,0.000018,0.000000,2677.300222,9899.179317,138.911679,0.000000,0.000000,0.000000,500.000000,1713423571850961,1,0,0,-11519086,-61.707645,35.910000,-0.844821,1
5.597487,0,0,125,66.161835,0.000018,0.000000,2677.300222,9899.179317,138.911679,0.000000,0.000000,0.000000,500.000000,1713423571850961,2,0,0,-15156721,-61.707645,35.910000,-0.844677,1
5.597487,0,0,125,66.161835,0.000018,0.000000,2677.300222,9899.179317,138.911679,0.000000,0.000000,0.000000,500.000000,1713423571850961,3,0,0,15179737,61.707645,35.910000,0.844514,1
5.597487,0,0,125,66.161835,0.000018,0.000000,2677.300222,9899.179317,138.911679,0.000000,0.000000,0.000000,500.000000,1713423571850961,4,0,0,11565102,61.707645,35.910000,0.844677,1
5.597487,0,0,125,66.161835,0.000018,0.000000,2677.300222,9899.179317,138.911679,0.000000,0.000000,0.000000,500.000000,1713423571981452,1,0,0,-11519697,-61.853729,35.910000,-0.844782,1
5.597487,0,0,125,66.161835,0.000018,0.000000,2677.300222,9899.179317,138.911679,0.000000,0.000000,0.000000,500.000000,1713423571981452,2,0,0,-15157332,-61.853729,35.910000,-0.844504,1
5.597487,0,0,125,66.161835,0.000018,0.000000,2677.300222,9899.179317,138.911679,0.000000,0.000000,0.000000,500.000000,1713423571981452,3,0,0,15180348,61.853729,35.910000,0.844863,1
5.597487,0,0,125,66.161835,0.000018,0.000000,2677.300222,9899.179317,138.911679,0.000000,0.000000,0.000000,500.000000,1713423571981452,4,0,0,11565713,61.853729,35.910000,0.844504,1
5.597487,0,0,125,66.161835,0.000018,0.000000,2677.300222,9899.179317,138.911679,0.000000,0.000000,0.000000,500.000000,1713423572136442,1,0,0,-11520372,-69.594154,35.910000,-0.844183,1
5.597487,0,0,125,66.161835,0.000018,0.000000,2677.300222,9899.179317,138.911679,0.000000,0.000000,0.000000,500.000000,1713423572136442,2,0,0,-15158007,-69.594154,35.910000,-0.844559,1
5.597487,0,0,125,66.161835,0.000018,0.000000,2677.300222,9899.179317,138.911679,0.000000,0.000000,0.000000,500.000000,1713423572136442,3,0,0,15181023,69.594154,35.910000,0.844543,1
5.597487,0,0,125,66.161835,0.000018,0.000000,2677.300222,9899.179317,138.911679,0.000000,0.000000,0.000000,500.000000,1713423572136442,4,0,0,11566388,69.594154,35.910000,0.844559,1
5.597487,0,0,125,66.161835,0.000018,0.000000,2677.300222,9899.179317,138.911679,0.000000,0.000000,0.000000,500.000000,1713423572278413,1,0,0,-11521047,-70.199883,35.910000,-0.844805,1
5.597487,0,0,125,66.161835,0.000018,0.000000,2677.300222,9899.179317,138.911679,0.000000,0.000000,0.000000,500.000000,1713423572278413,2,0,0,-15158682,-70.199883,35.910000,-0.844543,1
5.597487,0,0,125,66.161835,0.000018,0.000000,2677.300222,9899.179317,138.911679,0.000000,0.000000,0.000000,500.000000,1713423572278413,3,0,0,15181698,70.199883,35.910000,0.844171,1
5.597487,0,0,125,66.161835,0.000018,0.000000,2677.300222,9899.179317,138.911679,0.000000,0.000000,0.000000,500.000000,1713423572278413,4,0,0,11567063,70.199883,35.910000,0.844543,1
5.597487,0,0,125,66.161835,0.000018,0.000000,2677.300222,9899.179317,138.911679,0.000000,0.000000,0.000000,500.000000,1713423572413921,1,0,0,-11521800,-74.693787,35.910000,-0.845149,1
5.597487,0,0,125,66.161835,0.000018,0.000000,2677.300222,9899.179317,138.911679,0.000000,0.000000,0.000000,500.000000,1713423572413921,2,0,0,-15159435,-74.693787,35.910000,-0.844575,1
5.597487,0,0,125,66.161835,0.000018,0.000000,2677.300222,9899.179317,138.911679,0.000000,0.000000,0.000000,500.000000,1713423572413921,3,0,0,15182451,74.693787,35.910000,0.844357,1
5.597487,0,0,125,66.161835,0.000018,0.000000,2677.300222,9899.179317,138.911679,0.000000,0.000000,0.000000,500.000000,1713423572413921,4,0,0,11567816,74.693787,35.910000,0.843886,1
7.960299,200,0,125,68.526939,0.000002,0.000000,2838.744822,9900.838676,164.918229,0.000000,0.000000,0.000000,500.000000,1713423572567372,1,0,0,-11522391,-71.551834,35.910000,-0.844189,0
7.960299,200,0,125,68.526939,0.000002,0.000000,2838.744822,9900.838676,164.918229,0.000000,0.000000,0.000000,500.000000,1713423572567372,2,0,0,-15160099,-71.314911,35.910000,-0.844500,0
7.960299,200,0,125,68.526939,0.000002,0.000000,2838.744822,9900.838676,164.918229,0.000000,0.000000,0.000000,500.000000,1713423572567372,3,0,0,15183115,71.314911,35.910000,0.843972,0
7.960299,200,0,125,68.526939,0.000002,0.000000,2838.744822,9900.838676,164.918229,0.000000,0.000000,0.000000,500.000000,1713423572567372,4,0,0,11568407,54.019264,35.910000,0.844343,0
7.960299,200,0,125,68.526939,0.000002,0.000000,2838.744822,9900.838676,164.918229,0.000000,0.000000,0.000000,500.000000,1713423572706362,1,0,0,-11523058,-68.596031,35.910000,-0.844198,0
7.960299,200,0,125,68.526939,0.000002,0.000000,2838.744822,9900.838676,164.918229,0.000000,0.000000,0.000000,500.000000,1713423572706362,2,0,0,-15160766,-69.293617,35.910000,-0.844607,0
7.960299,200,0,125,68.526939,0.000002,0.000000,2838.744822,9900.838676,164.918229,0.000000,0.000000,0.000000,500.000000,1713423572706362,3,0,0,15183782,69.293617,35.910000,0.844607,0
7.960299,200,0,125,68.526939,0.000002,0.000000,2838.744822,9900.838676,164.918229,0.000000,0.000000,0.000000,500.000000,1713423572706362,4,0,0,11569146,69.293617,35.910000,0.844436,0
7.960299,200,0,125,68.526939,0.000002,0.000000,2838.744822,9900.838676,164.918229,0.000000,0.000000,0.000000,500.000000,1713423572848003,1,0,0,-11523806,-69.614983,35.910000,-0.844249,0
7.960299,200,0,125,68.526939,0.000002,0.000000,2838.744822,9900.838676,164.918229,0.000000,0.000000,0.000000,500.000000,1713423572848003,2,0,0,-15161442,-69.614983,35.910000,-0.844627,0
7.960299,200,0,125,68.526939,0.000002,0.000000,2838.744822,9900.838676,164.918229,0.000000,0.000000,0.000000,500.000000,1713423572848003,3,0,0,15184531,83.312813,35.910000,0.844627,0
7.960299,200,0,125,68.526939,0.000002,0.000000,2838.744822,9900.838676,164.918229,0.000000,0.000000,0.000000,500.000000,1713423572848003,4,0,0,11569822,69.614983,35.910000,0.844215,0
7.960299,200,0,125,68.526939,0.000002,0.000000,2838.744822,9900.838676,164.918229,0.000000,0.000000,0.000000,500.000000,1713423573001792,1,0,0,-11524474,-69.217003,35.910000,-0.844350,0
7.960299,200,0,125,68.526939,0.000002,0.000000,2838.744822,9900.838676,164.918229,0.000000,0.000000,0.000000,500.000000,1713423573001792,2,0,0,-15162110,-52.736767,35.910000,-0.845006,0
7.960299,200,0,125,68.526939,0.000002,0.000000,2838.744822,9900.838676,164.918229,0.000000,0.000000,0.000000,500.000000,1713423573001792,3,0,0,15185200,70.158737,35.910000,0.845006,0
7.960299,200,0,125,68.526939,0.000002,0.000000,2838.744822,9900.838676,164.918229,0.000000,0.000000,0.000000,500.000000,1713423573001792,4,0,0,11570490,69.217003,35.910000,0.844646,0
7.960299,200,0,125,68.526939,0.000002,0.000000,2838.744822,9900.838676,164.918229,0.000000,0.000000,0.000000,500.000000,1713423573145557,1,0,0,-11525149,-67.928978,35.910000,-0.844839,0
7.960299,200,0,125,68.526939,0.000002,0.000000,2838.744822,9900.838676,164.918229,0.000000,0.000000,0.000000,500.000000,1713423573145557,2,0,0,-15162785,-67.928978,35.910000,-0.844057,0
7.960299,200,0,125,68.526939,0.000002,0.000000,2838.744822,9900.838676,164.918229,0.000000,0.000000,0.000000,500.000000,1713423573145557,3,0,0,15185801,67.928978,35.910000,0.844314,0
7.960299,200,0,125,68.526939,0.000002,0.000000,2838.744822,9900.838676,164.918229,0.000000,0.000000,0.000000,500.000000,1713423573145557,4,0,0,11571165,67.928978,35.910000,0.844485,0
7.960299,200,0,125,68.526939,0.000002,0.000000,2838.744822,9900.838676,164.918229,0.000000,0.000000,0.000000,500.000000,1713423573285186,1,0,0,-11525889,-67.596916,35.910000,-0.844390,0
7.960299,200,0,125,68.526939,0.000002,0.000000,2838.744822,9900.838676,164.918229,0.000000,0.000000,0.000000,500.000000,1713423573285186,2,0,0,-15163599,-81.486694,35.910000,-0.844815,0
7.960299,200,0,125,68.526939,0.000002,0.000000,2838.744822,9900.838676,164.918229,0.000000,0.000000,0.000000,500.000000,1713423573285186,3,0,0,15186615,67.596916,35.910000,0.844816,0
7.960299,200,0,125,68.526939,0.000002,0.000000,2838.744822,9900.838676,164.918229,0.000000,0.000000,0.000000,500.000000,1713423573285186,4,0,0,11571905,67.782112,35.910000,0.844636,0
7.960299,200,0,125,68.526939,0.000002,0.000000,2838.744822,9900.838676,164.918229,0.000000,0.000000,0.000000,500.000000,1713423573439089,1,0,0,-11526563,-67.764305,35.910000,-0.844283,0
7.960299,200,0,125,68.526939,0.000002,0.000000,2838.744822,9900.838676,164.918229,0.000000,0.000000,0.000000,500.000000,1713423573439089,2,0,0,-15164199,-67.764305,35.910000,-0.844945,0
7.960299,200,0,125,68.526939,0.000002,0.000000,2838.744822,9900.838676,164.918229,0.000000,0.000000,0.000000,500.000000,1713423573439089,3,0,0,15187289,84.591682,35.910000,0.844603,0
7.960299,200,0,125,68.526939,0.000002,0.000000,2838.744822,9900.838676,164.918229,0.000000,0.000000,0.000000,500.000000,1713423573439089,4,0,0,11572579,67.764305,35.910000,0.844945,0
7.960299,200,0,125,68.526939,0.000002,0.000000,2838.744822,9900.838676,164.918229,0.000000,0.000000,0.000000,500.000000,1713423573579339,1,0,0,-11527250,-72.582794,35.910000,-0.844342,0
7.960299,200,0,125,68.526939,0.000002,0.000000,2838.744822,9900.838676,164.918229,0.000000,0.000000,0.000000,500.000000,1713423573579339,2,0,0,-15164886,-72.582794,35.910000,-0.844082,0
7.960299,200,0,125,68.526939,0.000002,0.000000,2838.744822,9900.838676,164.918229,0.000000,0.000000,0.000000,500.000000,1713423573579339,3,0,0,15187902,72.346367,35.910000,0.844154,0
7.960299,200,0,125,68.526939,0.000002,0.000000,2838.744822,9900.838676,164.918229,0.000000,0.000000,0.000000,500.000000,1713423573579339,4,0,0,11573266,72.582794,35.910000,0.844342,0
7.960299,200,0,125,68.526939,0.000002,0.000000,2838.744822,9900.838676,164.918229,0.000000,0.000000,0.000000,500.000000,1713423573736614,1,0,0,-11527987,-69.230644,35.910000,-0.844010,0
7.960299,200,0,125,68.526939,0.000002,0.000000,2838.744822,9900.838676,164.918229,0.000000,0.000000,0.000000,500.000000,1713423573736614,2,0,0,-15165623,-69.230644,35.910000,-0.845012,0
7.960299,200,0,125,68.526939,0.000002,0.000000,2838.744822,9900.838676,164.918229,0.000000,0.000000,0.000000,500.000000,1713423573736614,3,0,0,15188639,69.230644,35.910000,0.844470,0
7.960299,200,0,125,68.526939,0.000002,0.000000,2838.744822,9900.838676,164.918229,0.000000,0.000000,0.000000,500.000000,1713423573736614,4,0,0,11574003,69.230644,35.910000,0.845012,0
7.960299,200,0,125,68.526939,0.000002,0.000000,2838.744822,9900.838676,164.918229,0.000000,0.000000,0.000000,500.000000,1713423573860928,1,0,0,-11528655,-69.831459,35.910000,-0.844191,0
7.960299,200,0,125,68.526939,0.000002,0.000000,2838.744822,9900.838676,164.918229,0.000000,0.000000,0.000000,500.000000,1713423573860928,2,0,0,-15166291,-69.831459,35.910000,-0.844144,0
7.960299,200,0,125,68.526939,0.000002,0.000000,2838.744822,9900.838676,164.918229,0.000000,0.000000,0.000000,500.000000,1713423573860928,3,0,0,15189307,69.831459,35.910000,0.844314,0
7.960299,200,0,125,68.526939,0.000002,0.000000,2838.744822,9900.838676,164.918229,0.000000,0.000000,0.000000,500.000000,1713423573860928,4,0,0,11574671,69.831459,35.910000,0.844144,0
7.960299,200,0,125,68.526939,0.000002,0.000000,2838.744822,9900.838676,164.918229,0.000000,0.000000,0.000000,500.000000,1713423574019662,1,0,0,-11529332,-72.746422,35.910000,-0.844445,0
7.960299,200,0,125,68.526939,0.000002,0.000000,2838.744822,9900.838676,164.918229,0.000000,0.000000,0.000000,500.000000,1713423574019662,2,0,0,-15166968,-72.746422,35.910000,-0.844011,0
7.960299,200,0,125,68.526939,0.000002,0.000000,2838.744822,9900.838676,164.918229,0.000000,0.000000,0.000000,500.000000,1713423574019662,3,0,0,15189984,72.746422,35.910000,0.844645,0
7.960299,200,0,125,68.526939,0.000002,0.000000,2838.744822,9900.838676,164.918229,0.000000,0.000000,0.000000,500.000000,1713423574019662,4,0,0,11575348,72.746422,35.910000,0.844011,0
7.960299,200,0,125,68.526939,0.000002,0.000000,2838.744822,9900.838676,164.918229,0.000000,0.000000,0.000000,500.000000,1713423574160775,1,0,0,-11530073,-71.367729,35.910000,-0.844289,0
7.960299,200,0,125,68.526939,0.000002,0.000000,2838.744822,9900.838676,164.918229,0.000000,0.000000,0.000000,500.000000,1713423574160775,2,0,0,-15167709,-71.367729,35.910000,-0.844501,0
7.960299,200,0,125,68.526939,0.000002,0.000000,2838.744822,9900.838676,164.918229,0.000000,0.000000,0.000000,500.000000,1713423574160775,3,0,0,15190725,71.367729,35.910000,0.844501,0
7.960299,200,0,125,68.526939,0.000002,0.000000,2838.744822,9900.838676,164.918229,0.000000,0.000000,0.000000,500.000000,1713423574160775,4,0,0,11576089,71.367729,35.910000,0.844168,0
7.960299,200,0,125,68.526939,0.000002,0.000000,2838.744822,9900.838676,164.918229,0.000000,0.000000,0.000000,500.000000,1713423574300550,1,0,0,-11530749,-72.752174,35.910000,-0.844582,0
7.960299,200,0,125,68.526939,0.000002,0.000000,2838.744822,9900.838676,164.918229,0.000000,0.000000,0.000000,500.000000,1713423574300550,2,0,0,-15168384,-72.752174,35.910000,-0.844040,0
7.960299,200,0,125,68.526939,0.000002,0.000000,2838.744822,9900.838676,164.918229,0.000000,0.000000,0.000000,500.000000,1713423574300550,3,0,0,15191400,72.752174,35.910000,0.844525,0
7.960299,200,0,125,68.526939,0.000002,0.000000,2838.744822,9900.838676,164.918229,0.000000,0.000000,0.000000,500.000000,1713423574300550,4,0,0,11576764,72.752174,35.910000,0.844040,0
7.960299,200,0,125,68.526939,0.000002,0.000000,2838.744822,9900.838676,164.918229,0.000000,0.000000,0.000000,500.000000,1713423574454764,1,0,0,-11531418,-70.345047,35.910000,-0.845044,0
7.960299,200,0,125,68.526939,0.000002,0.000000,2838.744822,9900.838676,164.918229,0.000000,0.000000,0.000000,500.000000,1713423574454764,2,0,0,-15169053,-70.345047,35.910000,-0.844246,0
7.960299,200,0,125,68.526939,0.000002,0.000000,2838.744822,9900.838676,164.918229,0.000000,0.000000,0.000000,500.000000,1713423574454764,3,0,0,15192069,70.345047,35.910000,0.844153,0
7.960299,200,0,125,68.526939,0.000002,0.000000,2838.744822,9900.838676,164.918229,0.000000,0.000000,0.000000,500.000000,1713423574454764,4,0,0,11577433,70.345047,35.910000,0.845044,0
7.960299,200,0,125,68.526939,0.000002,0.000000,2838.744822,9900.838676,164.918229,0.000000,0.000000,0.000000,500.000000,1713423574593293,1,0,0,-11532099,-72.709343,35.910000,-0.845288,0
7.960299,200,0,125,68.526939,0.000002,0.000000,2838.744822,9900.838676,164.918229,0.000000,0.000000,0.000000,500.000000,1713423574593293,2,0,0,-15169734,-72.709343,35.910000,-0.851376,0
7.960299,200,0,125,68.526939,0.000002,0.000000,2838.744822,9900.838676,164.918229,0.000000,0.000000,0.000000,500.000000,1713423574593293,3,0,0,15192750,72.709343,35.910000,0.844124,0
7.960299,200,0,125,68.526939,0.000002,0.000000,2838.744822,9900.838676,164.918229,0.000000,0.000000,0.000000,500.000000,1713423574593293,4,0,0,11578114,72.709343,35.910000,0.845288,0
7.960299,200,0,125,68.526939,0.000002,0.000000,2838.744822,9900.838676,164.918229,0.000000,0.000000,0.000000,500.000000,1713423574748930,1,0,0,-11532838,-68.197487,35.910000,-0.844617,0
7.960299,200,0,125,68.526939,0.000002,0.000000,2838.744822,9900.838676,164.918229,0.000000,0.000000,0.000000,500.000000,1713423574748930,2,0,0,-15170473,-68.197487,35.910000,-0.844617,0
7.960299,200,0,125,68.526939,0.000002,0.000000,2838.744822,9900.838676,164.918229,0.000000,0.000000,0.000000,500.000000,1713423574748930,3,0,0,15193489,68.197487,35.910000,0.851974,0
7.960299,200,0,125,68.526939,0.000002,0.000000,2838.744822,9900.838676,164.918229,0.000000,0.000000,0.000000,500.000000,1713423574748930,4,0,0,11578853,68.197487,35.910000,0.844617,0
9.336178,200,0,125,106.087969,14.110385,0.000000,2953.679031,9940.246154,158.345078,0.000000,0.000000,0.000000,500.000000,1713423574899804,1,0,0,-11533495,-88.205284,35.910000,-0.148243,1
9.336178,200,0,125,106.087969,14.110385,0.000000,2953.679031,9940.246154,158.345078,0.000000,0.000000,0.000000,500.000000,1713423574899804,2,0,0,-15171190,-63.607189,35.910000,-3.424201,1
9.336178,200,0,125,106.087969,14.110385,0.000000,2953.679031,9940.246154,158.345078,0.000000,0.000000,0.000000,500.000000,1713423574899804,3,0,0,15194300,86.962952,35.910000,3.424201,1
9.336178,200,0,125,106.087969,14.110385,0.000000,2953.679031,9940.246154,158.345078,0.000000,0.000000,0.000000,500.000000,1713423574899804,4,0,0,11579510,52.426239,35.910000,0.156147,1
9.336178,200,0,125,106.087969,14.110385,0.000000,2953.679031,9940.246154,158.345078,0.000000,0.000000,0.000000,500.000000,1713423575060861,1,0,0,-11534104,-50.559036,35.910000,0.224995,1
9.336178,200,0,125,106.087969,14.110385,0.000000,2953.679031,9940.246154,158.345078,0.000000,0.000000,0.000000,500.000000,1713423575060861,2,0,0,-15172126,-84.766266,35.910000,-4.905643,1
9.336178,200,0,125,106.087969,14.110385,0.000000,2953.679031,9940.246154,158.345078,0.000000,0.000000,0.000000,500.000000,1713423575060861,3,0,0,15195135,63.903614,35.910000,4.656903,1
9.336178,200,0,125,106.087969,14.110385,0.000000,2953.679031,9940.246154,158.345078,0.000000,0.000000,0.000000,500.000000,1713423575060861,4,0,0,11580119,50.559036,35.910000,-0.181742,1
9.336178,200,0,125,106.087969,14.110385,0.000000,2953.679031,9940.246154,158.345078,0.000000,0.000000,0.000000,500.000000,1713423575215508,1,0,0,-11534849,-58.530212,35.910000,-0.289618,1
9.336178,200,0,125,106.087969,14.110385,0.000000,2953.679031,9940.246154,158.345078,0.000000,0.000000,0.000000,500.000000,1713423575215508,2,0,0,-15173632,-103.583076,35.910000,-2.708821,1
9.336178,200,0,125,106.087969,14.110385,0.000000,2953.679031,9940.246154,158.345078,0.000000,0.000000,0.000000,500.000000,1713423575215508,3,0,0,15196648,103.583076,35.910000,2.699047,1
9.336178,200,0,125,106.087969,14.110385,0.000000,2953.679031,9940.246154,158.345078,0.000000,0.000000,0.000000,500.000000,1713423575215508,4,0,0,11580864,58.530212,35.910000,0.096812,1
9.336178,200,0,125,106.087969,14.110385,0.000000,2953.679031,9940.246154,158.345078,0.000000,0.000000,0.000000,500.000000,1713423575354266,1,0,0,-11535355,-53.709400,35.910000,-0.402373,1
9.336178,200,0,125,106.087969,14.110385,0.000000,2953.679031,9940.246154,158.345078,0.000000,0.000000,0.000000,500.000000,1713423575354266,2,0,0,-15174999,-127.186852,35.910000,-2.585054,1
9.336178,200,0,125,106.087969,14.110385,0.000000,2953.679031,9940.246154,158.345078,0.000000,0.000000,0.000000,500.000000,1713423575354266,3,0,0,15198015,128.678772,35.910000,2.517748,1
9.336178,200,0,125,106.087969,14.110385,0.000000,2953.679031,9940.246154,158.345078,0.000000,0.000000,0.000000,500.000000,1713423575354266,4,0,0,11581425,63.966408,35.910000,0.405629,1
9.336178,200,0,125,106.087969,14.110385,0.000000,2953.679031,9940.246154,158.345078,0.000000,0.000000,0.000000,500.000000,1713423575455648,1,0,0,-11535575,-53.017208,35.910000,-0.412419,1
9.336178,200,0,125,106.087969,14.110385,0.000000,2953.679031,9940.246154,158.345078,0.000000,0.000000,0.000000,500.000000,1713423575455648,2,0,0,-15175582,-140.495605,35.910000,-3.330956,1
9.336178,200,0,125,106.087969,14.110385,0.000000,2953.679031,9940.246154,158.345078,0.000000,0.000000,0.000000,500.000000,1713423575455648,3,0,0,15198598,140.495605,35.910000,2.471660,1
9.336178,200,0,125,106.087969,14.110385,0.000000,2953.679031,9940.246154,158.345078,0.000000,0.000000,0.000000,500.000000,1713423575455648,4,0,0,11581645,53.017208,35.910000,0.221241,1
9.336178,200,0,125,106.087969,14.110385,0.000000,2953.679031,9940.246154,158.345078,0.000000,0.000000,0.000000,500.000000,1713423575560167,1,0,0,-11535951,-54.189526,35.910000,-0.436043,1
9.336178,200,0,125,106.087969,14.110385,0.000000,2953.679031,9940.246154,158.345078,0.000000,0.000000,0.000000,500.000000,1713423575560167,2,0,0,-15176478,-129.132492,35.910000,-3.193949,1
9.336178,200,0,125,106.087969,14.110385,0.000000,2953.679031,9940.246154,158.345078,0.000000,0.000000,0.000000,500.000000,1713423575560167,3,0,0,15199494,129.132492,35.910000,2.251093,1
9.336178,200,0,125,106.087969,14.110385,0.000000,2953.679031,9940.246154,158.345078,0.000000,0.000000,0.000000,500.000000,1713423575560167,4,0,0,11581966,46.262867,35.910000,0.435706,1
9.336178,200,0,125,106.087969,14.110385,0.000000,2953.679031,9940.246154,158.345078,0.000000,0.000000,0.000000,500.000000,1713423575702467,1,0,0,-11536585,-50.192894,35.910000,-0.468778,1
9.336178,200,0,125,106.087969,14.110385,0.000000,2953.679031,9940.246154,158.345078,0.000000,0.000000,0.000000,500.000000,1713423575702467,2,0,0,-15178386,-154.352585,35.910000,-2.322172,1
9.336178,200,0,125,106.087969,14.110385,0.000000,2953.679031,9940.246154,158.345078,0.000000,0.000000,0.000000,500.000000,1713423575702467,3,0,0,15201402,154.352585,35.910000,2.295182,1
9.336178,200,0,125,106.087969,14.110385,0.000000,2953.679031,9940.246154,158.345078,0.000000,0.000000,0.000000,500.000000,1713423575702467,4,0,0,11582600,50.192894,35.910000,0.468778,1
9.336178,200,0,125,106.087969,14.110385,0.000000,2953.679031,9940.246154,158.345078,0.000000,0.000000,0.000000,500.000000,1713423575866081,1,0,0,-11537056,-43.604225,35.910000,-5.020738,1
9.336178,200,0,125,106.087969,14.110385,0.000000,2953.679031,9940.246154,158.345078,0.000000,0.000000,0.000000,500.000000,1713423575866081,2,0,0,-15180030,-164.522095,35.910000,0.808835,1
9.336178,200,0,125,106.087969,14.110385,0.000000,2953.679031,9940.246154,158.345078,0.000000,0.000000,0.000000,500.000000,1713423575866081,3,0,0,15203046,164.522095,35.910000,-0.864098,1
9.336178,200,0,125,106.087969,14.110385,0.000000,2953.679031,9940.246154,158.345078,0.000000,0.000000,0.000000,500.000000,1713423575866081,4,0,0,11583133,54.002159,35.910000,5.961849,1
9.336178,200,0,125,106.087969,14.110385,0.000000,2953.679031,9940.246154,158.345078,0.000000,0.000000,0.000000,500.000000,1713423576004559,1,0,0,-11537897,-93.404442,35.910000,-5.074734,1
9.336178,200,0,125,106.087969,14.110385,0.000000,2953.679031,9940.246154,158.345078,0.000000,0.000000,0.000000,500.000000,1713423576004559,2,0,0,-15181377,-111.852303,35.910000,0.419004,1
9.336178,200,0,125,106.087969,14.110385,0.000000,2953.679031,9940.246154,158.345078,0.000000,0.000000,0.000000,500.000000,1713423576004559,3,0,0,15204393,111.852303,35.910000,-0.790840,1
9.336178,200,0,125,106.087969,14.110385,0.000000,2953.679031,9940.246154,158.345078,0.000000,0.000000,0.000000,500.000000,1713423576004559,4,0,0,11583940,96.123070,35.910000,4.804040,1
9.336178,200,0,125,106.087969,14.110385,0.000000,2953.679031,9940.246154,158.345078,0.000000,0.000000,0.000000,500.000000,1713423576145639,1,0,0,-11539024,-126.383171,35.910000,-4.612471,1
9.336178,200,0,125,106.087969,14.110385,0.000000,2953.679031,9940.246154,158.345078,0.000000,0.000000,0.000000,500.000000,1713423576145639,2,0,0,-15182523,-117.437370,35.910000,0.121149,1
9.336178,200,0,125,106.087969,14.110385,0.000000,2953.679031,9940.246154,158.345078,0.000000,0.000000,0.000000,500.000000,1713423576145639,3,0,0,15205539,117.437370,35.910000,-0.173067,1
9.336178,200,0,125,106.087969,14.110385,0.000000,2953.679031,9940.246154,158.345078,0.000000,0.000000,0.000000,500.000000,1713423576145639,4,0,0,11585087,128.286530,35.910000,4.268547,1
10.831516,200,0,125,157.204507,33.449561,0.000000,3135.035910,9908.043153,158.174529,0.000000,0.000000,0.000000,500.000000,1713423576305867,1,0,0,-11540414,-161.403290,35.910000,-4.002381,0
10.831516,200,0,125,157.204507,33.449561,0.000000,3135.035910,9908.043153,158.174529,0.000000,0.000000,0.000000,500.000000,1713423576305867,2,0,0,-15183528,-107.932259,35.910000,0.175113,0
10.831516,200,0,125,157.204507,33.449561,0.000000,3135.035910,9908.043153,158.174529,0.000000,0.000000,0.000000,500.000000,1713423576305867,3,0,0,15206544,107.932259,35.910000,-0.175112,0
10.831516,200,0,125,157.204507,33.449561,0.000000,3135.035910,9908.043153,158.174529,0.000000,0.000000,0.000000,500.000000,1713423576305867,4,0,0,11586492,162.888596,35.910000,3.977630,0
10.831516,200,0,125,157.204507,33.449561,0.000000,3135.035910,9908.043153,158.174529,0.000000,0.000000,0.000000,500.000000,1713423576442107,1,0,0,-11542201,-175.407471,35.910000,-2.141341,0
10.831516,200,0,125,157.204507,33.449561,0.000000,3135.035910,9908.043153,158.174529,0.000000,0.000000,0.000000,500.000000,1713423576442107,2,0,0,-15184525,-92.628784,35.910000,-0.279212,0
10.831516,200,0,125,157.204507,33.449561,0.000000,3135.035910,9908.043153,158.174529,0.000000,0.000000,0.000000,500.000000,1713423576442107,3,0,0,15207540,74.065147,35.910000,0.279206,0
10.831516,200,0,125,157.204507,33.449561,0.000000,3135.035910,9908.043153,158.174529,0.000000,0.000000,0.000000,500.000000,1713423576442107,4,0,0,11588290,176.354599,35.910000,5.116345,0
10.831516,200,0,125,157.204507,33.449561,0.000000,3135.035910,9908.043153,158.174529,0.000000,0.000000,0.000000,500.000000,1713423576587982,1,0,0,-11543739,-166.282501,35.910000,-4.812335,0
10.831516,200,0,125,157.204507,33.449561,0.000000,3135.035910,9908.043153,158.174529,0.000000,0.000000,0.000000,500.000000,1713423576587982,2,0,0,-15185241,-75.047859,35.910000,-0.347413,0
10.831516,200,0,125,157.204507,33.449561,0.000000,3135.035910,9908.043153,158.174529,0.000000,0.000000,0.000000,500.000000,1713423576587982,3,0,0,15208433,112.256454,35.910000,0.347408,0
10.831516,200,0,125,157.204507,33.449561,0.000000,3135.035910,9908.043153,158.174529,0.000000,0.000000,0.000000,500.000000,1713423576587982,4,0,0,11589834,166.913162,35.910000,3.439543,0
10.831516,200,0,125,157.204507,33.449561,0.000000,3135.035910,9908.043153,158.174529,0.000000,0.000000,0.000000,500.000000,1713423576764050,1,0,0,-11545837,-205.091171,35.910000,-3.308725,0
10.831516,200,0,125,157.204507,33.449561,0.000000,3135.035910,9908.043153,158.174529,0.000000,0.000000,0.000000,500.000000,1713423576764050,2,0,0,-15186093,-80.828903,35.910000,-0.446913,0
10.831516,200,0,125,157.204507,33.449561,0.000000,3135.035910,9908.043153,158.174529,0.000000,0.000000,0.000000,500.000000,1713423576764050,3,0,0,15209108,80.828903,35.910000,0.461183,0
10.831516,200,0,125,157.204507,33.449561,0.000000,3135.035910,9908.043153,158.174529,0.000000,0.000000,0.000000,500.000000,1713423576764050,4,0,0,11591939,206.259781,35.910000,3.291247,0
10.831516,200,0,125,157.204507,33.449561,0.000000,3135.035910,9908.043153,158.174529,0.000000,0.000000,0.000000,500.000000,1713423576920186,1,0,0,-11548316,-186.698532,35.910000,1.038132,0
10.831516,200,0,125,157.204507,33.449561,0.000000,3135.035910,9908.043153,158.174529,0.000000,0.000000,0.000000,500.000000,1713423576920186,2,0,0,-15187135,-91.757553,35.910000,-5.939017,0
10.831516,200,0,125,157.204507,33.449561,0.000000,3135.035910,9908.043153,158.174529,0.000000,0.000000,0.000000,500.000000,1713423576920186,3,0,0,15210247,94.191933,35.910000,6.057665,0
10.831516,200,0,125,157.204507,33.449561,0.000000,3135.035910,9908.043153,158.174529,0.000000,0.000000,0.000000,500.000000,1713423576920186,4,0,0,11594424,187.073044,35.910000,-0.987888,0
10.831516,200,0,125,157.204507,33.449561,0.000000,3135.035910,9908.043153,158.174529,0.000000,0.000000,0.000000,500.000000,1713423577075854,1,0,0,-11549856,-149.890015,35.910000,0.549592,0
10.831516,200,0,125,157.204507,33.449561,0.000000,3135.035910,9908.043153,158.174529,0.000000,0.000000,0.000000,500.000000,1713423577075854,2,0,0,-15188449,-133.622879,35.910000,-5.545453,0
10.831516,200,0,125,157.204507,33.449561,0.000000,3135.035910,9908.043153,158.174529,0.000000,0.000000,0.000000,500.000000,1713423577075854,3,0,0,15211455,134.087662,35.910000,5.068894,0
10.831516,200,0,125,157.204507,33.449561,0.000000,3135.035910,9908.043153,158.174529,0.000000,0.000000,0.000000,500.000000,1713423577075854,4,0,0,11596121,185.910095,35.910000,-0.538701,0
10.831516,200,0,125,157.204507,33.449561,0.000000,3135.035910,9908.043153,158.174529,0.000000,0.000000,0.000000,500.000000,1713423577215701,1,0,0,-11551191,-108.576874,35.910000,1.974245,0
10.831516,200,0,125,157.204507,33.449561,0.000000,3135.035910,9908.043153,158.174529,0.000000,0.000000,0.000000,500.000000,1713423577215701,2,0,0,-15190170,-170.429306,35.910000,-4.721390,0
10.831516,200,0,125,157.204507,33.449561,0.000000,3135.035910,9908.043153,158.174529,0.000000,0.000000,0.000000,500.000000,1713423577215701,3,0,0,15213178,170.812302,35.910000,4.688802,0
10.831516,200,0,125,157.204507,33.449561,0.000000,3135.035910,9908.043153,158.174529,0.000000,0.000000,0.000000,500.000000,1713423577215701,4,0,0,11597304,108.576874,35.910000,-0.142828,0
10.831516,200,0,125,157.204507,33.449561,0.000000,3135.035910,9908.043153,158.174529,0.000000,0.000000,0.000000,500.000000,1713423577352936,1,0,0,-11552486,-123.175575,35.910000,0.019870,0
10.831516,200,0,125,157.204507,33.449561,0.000000,3135.035910,9908.043153,158.174529,0.000000,0.000000,0.000000,500.000000,1713423577352936,2,0,0,-15191782,-161.075745,35.910000,-4.513409,0
10.831516,200,0,125,157.204507,33.449561,0.000000,3135.035910,9908.043153,158.174529,0.000000,0.000000,0.000000,500.000000,1713423577352936,3,0,0,15214794,161.269119,35.910000,4.366218,0
10.831516,200,0,125,157.204507,33.449561,0.000000,3135.035910,9908.043153,158.174529,0.000000,0.000000,0.000000,500.000000,1713423577352936,4,0,0,11598600,123.368942,35.910000,-0.029096,0
10.831516,200,0,125,157.204507,33.449561,0.000000,3135.035910,9908.043153,158.174529,0.000000,0.000000,0.000000,500.000000,1713423577506191,1,0,0,-11553550,-109.657944,35.910000,-0.222735,0
10.831516,200,0,125,157.204507,33.449561,0.000000,3135.035910,9908.043153,158.174529,0.000000,0.000000,0.000000,500.000000,1713423577506191,2,0,0,-15193813,-220.271515,35.910000,-4.044072,0
10.831516,200,0,125,157.204507,33.449561,0.000000,3135.035910,9908.043153,158.174529,0.000000,0.000000,0.000000,500.000000,1713423577506191,3,0,0,15216826,220.510406,35.910000,3.991749,0
10.831516,200,0,125,157.204507,33.449561,0.000000,3135.035910,9908.043153,158.174529,0.000000,0.000000,0.000000,500.000000,1713423577506191,4,0,0,11599665,109.657944,35.910000,0.220559,0
10.831516,200,0,125,157.204507,33.449561,0.000000,3135.035910,9908.043153,158.174529,0.000000,0.000000,0.000000,500.000000,1713423577646186,1,0,0,-11554482,-95.727280,35.910000,-0.359976,0
10.831516,200,0,125,157.204507,33.449561,0.000000,3135.035910,9908.043153,158.174529,0.000000,0.000000,0.000000,500.000000,1713423577646186,2,0,0,-15195902,-222.971649,35.910000,-3.879505,0
10.831516,200,0,125,157.204507,33.449561,0.000000,3135.035910,9908.043153,158.174529,0.000000,0.000000,0.000000,500.000000,1713423577646186,3,0,0,15218917,223.206848,35.910000,3.810408,0
10.831516,200,0,125,157.204507,33.449561,0.000000,3135.035910,9908.043153,158.174529,0.000000,0.000000,0.000000,500.000000,1713423577646186,4,0,0,11600598,95.727280,35.910000,0.358280,0
12.356310,200,0,125,175.278733,-27.985492,0.000000,3401.157924,9895.027019,132.016275,0.000000,0.000000,0.000000,500.000000,1713423577801515,1,0,0,-11555572,-92.712944,35.910000,-5.687027,0
12.356310,200,0,125,175.278733,-27.985492,0.000000,3401.157924,9895.027019,132.016275,0.000000,0.000000,0.000000,500.000000,1713423577801515,2,0,0,-15198633,-235.127670,35.910000,1.699455,0
12.356310,200,0,125,175.278733,-27.985492,0.000000,3401.157924,9895.027019,132.016275,0.000000,0.000000,0.000000,500.000000,1713423577801515,3,0,0,15221651,236.879974,35.910000,-1.791949,0
12.356310,200,0,125,175.278733,-27.985492,0.000000,3401.157924,9895.027019,132.016275,0.000000,0.000000,0.000000,500.000000,1713423577801515,4,0,0,11601678,91.119934,35.910000,6.986920,0
12.356310,200,0,125,175.278733,-27.985492,0.000000,3401.157924,9895.027019,132.016275,0.000000,0.000000,0.000000,500.000000,1713423577957647,1,0,0,-11556592,-130.359360,35.910000,-6.082730,0
12.356310,200,0,125,175.278733,-27.985492,0.000000,3401.157924,9895.027019,132.016275,0.000000,0.000000,0.000000,500.000000,1713423577957647,2,0,0,-15200637,-203.926117,35.910000,1.268421,0
12.356310,200,0,125,175.278733,-27.985492,0.000000,3401.157924,9895.027019,132.016275,0.000000,0.000000,0.000000,500.000000,1713423577957647,3,0,0,15223657,203.926117,35.910000,-0.590454,0
12.356310,200,0,125,175.278733,-27.985492,0.000000,3401.157924,9895.027019,132.016275,0.000000,0.000000,0.000000,500.000000,1713423577957647,4,0,0,11602719,105.677345,35.910000,6.402575,0
12.356310,200,0,125,175.278733,-27.985492,0.000000,3401.157924,9895.027019,132.016275,0.000000,0.000000,0.000000,500.000000,1713423578099511,1,0,0,-11558494,-205.387421,35.910000,-5.727841,0
12.356310,200,0,125,175.278733,-27.985492,0.000000,3401.157924,9895.027019,132.016275,0.000000,0.000000,0.000000,500.000000,1713423578099511,2,0,0,-15202495,-163.719955,35.910000,0.424318,0
12.356310,200,0,125,175.278733,-27.985492,0.000000,3401.157924,9895.027019,132.016275,0.000000,0.000000,0.000000,500.000000,1713423578099511,3,0,0,15225518,163.904327,35.910000,-0.471648,0
12.356310,200,0,125,175.278733,-27.985492,0.000000,3401.157924,9895.027019,132.016275,0.000000,0.000000,0.000000,500.000000,1713423578099511,4,0,0,11604689,177.363281,35.910000,5.641236,0
12.356310,200,0,125,175.278733,-27.985492,0.000000,3401.157924,9895.027019,132.016275,0.000000,0.000000,0.000000,500.000000,1713423578242568,1,0,0,-11560426,-211.803726,35.910000,-5.305430,0
12.356310,200,0,125,175.278733,-27.985492,0.000000,3401.157924,9895.027019,132.016275,0.000000,0.000000,0.000000,500.000000,1713423578242568,2,0,0,-15203938,-148.664398,35.910000,0.045310,0
12.356310,200,0,125,175.278733,-27.985492,0.000000,3401.157924,9895.027019,132.016275,0.000000,0.000000,0.000000,500.000000,1713423578242568,3,0,0,15226961,148.664398,35.910000,-0.107804,0
12.356310,200,0,125,175.278733,-27.985492,0.000000,3401.157924,9895.027019,132.016275,0.000000,0.000000,0.000000,500.000000,1713423578242568,4,0,0,11606662,215.821686,35.910000,5.200971,0
12.356310,200,0,125,175.278733,-27.985492,0.000000,3401.157924,9895.027019,132.016275,0.000000,0.000000,0.000000,500.000000,1713423578395528,1,0,0,-11562588,-235.747910,35.910000,-4.977090,0
12.356310,200,0,125,175.278733,-27.985492,0.000000,3401.157924,9895.027019,132.016275,0.000000,0.000000,0.000000,500.000000,1713423578395528,2,0,0,-15205205,-130.363113,35.910000,-0.149323,0
