CurrentTime,PlatformType,PlatformDirection,PlatformMovementType,PlayerVelocity.x,PlayerVelocity.y,PlayerVelocity.z,PlayerPosition.x,PlayerPosition.y,PlayerPosition.z,PlayerRotation.Pitch,PlayerRotation.Roll,PlayerRotation.Yaw,PlayerCurrentSpeed,UnixTimeStamp [us],ControllerId,MotorFlags,HallPosition,EncoderPosition,MotorVelocity,MotorVoltage,MotorCurrent 
1.441554,0,0,250,256.618421,3.355584,0.000000,72.079842,116602.266281,138.911648,0.000000,0.000000,0.000000,500.000000,1711635049220887,1,0,0,-12531662,-78.978661,35.910000,-1.050650
1.441554,0,0,250,256.618421,3.355584,0.000000,72.079842,116602.266281,138.911648,0.000000,0.000000,0.000000,500.000000,1711635049220887,2,0,0,-12938705,-78.978661,35.910000,-1.051073
1.441554,0,0,250,256.618421,3.355584,0.000000,72.079842,116602.266281,138.911648,0.000000,0.000000,0.000000,500.000000,1711635049220887,3,0,0,12955774,98.940308,35.910000,1.051073
1.441554,0,0,250,256.618421,3.355584,0.000000,72.079842,116602.266281,138.911648,0.000000,0.000000,0.000000,500.000000,1711635049220887,4,0,0,12548556,78.978661,35.910000,1.050226
1.441554,0,0,250,256.618421,3.355584,0.000000,72.079842,116602.266281,138.911648,0.000000,0.000000,0.000000,500.000000,1711635049349449,1,0,0,-12532487,-91.136223,35.910000,-1.050591
1.441554,0,0,250,256.618421,3.355584,0.000000,72.079842,116602.266281,138.911648,0.000000,0.000000,0.000000,500.000000,1711635049349449,2,0,0,-12939530,-91.136223,35.910000,-1.050697
1.441554,0,0,250,256.618421,3.355584,0.000000,72.079842,116602.266281,138.911648,0.000000,0.000000,0.000000,500.000000,1711635049349449,3,0,0,12956507,91.136223,35.910000,1.050697
1.441554,0,0,250,256.618421,3.355584,0.000000,72.079842,116602.266281,138.911648,0.000000,0.000000,0.000000,500.000000,1711635049349449,4,0,0,12549381,91.136223,35.910000,1.050586
1.441554,0,0,250,256.618421,3.355584,0.000000,72.079842,116602.266281,138.911648,0.000000,0.000000,0.000000,500.000000,1711635049486494,1,0,0,-12533225,-96.857353,35.910000,-1.050713
1.441554,0,0,250,256.618421,3.355584,0.000000,72.079842,116602.266281,138.911648,0.000000,0.000000,0.000000,500.000000,1711635049486494,2,0,0,-12940268,-96.857353,35.910000,-1.050762
1.441554,0,0,250,256.618421,3.355584,0.000000,72.079842,116602.266281,138.911648,0.000000,0.000000,0.000000,500.000000,1711635049486494,3,0,0,12957245,96.857353,35.910000,1.050185
1.441554,0,0,250,256.618421,3.355584,0.000000,72.079842,116602.266281,138.911648,0.000000,0.000000,0.000000,500.000000,1711635049486494,4,0,0,12550119,96.857353,35.910000,1.050622
1.441554,0,0,250,256.618421,3.355584,0.000000,72.079842,116602.266281,138.911648,0.000000,0.000000,0.000000,500.000000,1711635049610795,1,0,0,-12533961,-79.197639,35.910000,-1.050353
1.441554,0,0,250,256.618421,3.355584,0.000000,72.079842,116602.266281,138.911648,0.000000,0.000000,0.000000,500.000000,1711635049610795,2,0,0,-12941093,-98.247879,35.910000,-1.050412
1.441554,0,0,250,256.618421,3.355584,0.000000,72.079842,116602.266281,138.911648,0.000000,0.000000,0.000000,500.000000,1711635049610795,3,0,0,12958070,98.247879,35.910000,1.050412
1.441554,0,0,250,256.618421,3.355584,0.000000,72.079842,116602.266281,138.911648,0.000000,0.000000,0.000000,500.000000,1711635049610795,4,0,0,12550944,98.247879,35.910000,1.051013
1.441554,0,0,250,256.618421,3.355584,0.000000,72.079842,116602.266281,138.911648,0.000000,0.000000,0.000000,500.000000,1711635049734689,1,0,0,-12534693,-78.583733,35.910000,-1.050995
1.441554,0,0,250,256.618421,3.355584,0.000000,72.079842,116602.266281,138.911648,0.000000,0.000000,0.000000,500.000000,1711635049734689,2,0,0,-12941830,-98.766441,35.910000,-1.050682
1.441554,0,0,250,256.618421,3.355584,0.000000,72.079842,116602.266281,138.911648,0.000000,0.000000,0.000000,500.000000,1711635049734689,3,0,0,12958807,98.766441,35.910000,1.050682
1.441554,0,0,250,256.618421,3.355584,0.000000,72.079842,116602.266281,138.911648,0.000000,0.000000,0.000000,500.000000,1711635049734689,4,0,0,12551587,78.583733,35.910000,1.050522
1.441554,0,0,250,256.618421,3.355584,0.000000,72.079842,116602.266281,138.911648,0.000000,0.000000,0.000000,500.000000,1711635049870545,1,0,0,-12535515,-83.692093,35.910000,-1.050835
1.441554,0,0,250,256.618421,3.355584,0.000000,72.079842,116602.266281,138.911648,0.000000,0.000000,0.000000,500.000000,1711635049870545,2,0,0,-12942558,-83.692093,35.910000,-1.050637
1.441554,0,0,250,256.618421,3.355584,0.000000,72.079842,116602.266281,138.911648,0.000000,0.000000,0.000000,500.000000,1711635049870545,3,0,0,12959535,83.692093,35.910000,1.050661
1.441554,0,0,250,256.618421,3.355584,0.000000,72.079842,116602.266281,138.911648,0.000000,0.000000,0.000000,500.000000,1711635049870545,4,0,0,12552409,83.692093,35.910000,1.050637
1.441554,0,0,250,256.618421,3.355584,0.000000,72.079842,116602.266281,138.911648,0.000000,0.000000,0.000000,500.000000,1711635049996060,1,0,0,-12536255,-78.455353,35.910000,-1.051006
1.441554,0,0,250,256.618421,3.355584,0.000000,72.079842,116602.266281,138.911648,0.000000,0.000000,0.000000,500.000000,1711635049996060,2,0,0,-12943298,-78.455353,35.910000,-1.050739
1.441554,0,0,250,256.618421,3.355584,0.000000,72.079842,116602.266281,138.911648,0.000000,0.000000,0.000000,500.000000,1711635049996060,3,0,0,12960275,78.455353,35.910000,1.050560
1.441554,0,0,250,256.618421,3.355584,0.000000,72.079842,116602.266281,138.911648,0.000000,0.000000,0.000000,500.000000,1711635049996060,4,0,0,12553149,78.455353,35.910000,1.050739
1.441554,0,0,250,256.618421,3.355584,0.000000,72.079842,116602.266281,138.911648,0.000000,0.000000,0.000000,500.000000,1711635050172824,1,0,0,-12537081,-70.938614,35.910000,-1.051258
1.441554,0,0,250,256.618421,3.355584,0.000000,72.079842,116602.266281,138.911648,0.000000,0.000000,0.000000,500.000000,1711635050172824,2,0,0,-12944221,-89.637100,35.910000,-1.050415
1.441554,0,0,250,256.618421,3.355584,0.000000,72.079842,116602.266281,138.911648,0.000000,0.000000,0.000000,500.000000,1711635050172824,3,0,0,12961198,89.637100,35.910000,1.050969
1.441554,0,0,250,256.618421,3.355584,0.000000,72.079842,116602.266281,138.911648,0.000000,0.000000,0.000000,500.000000,1711635050172824,4,0,0,12554072,89.637100,35.910000,1.062816
1.441554,0,0,250,256.618421,3.355584,0.000000,72.079842,116602.266281,138.911648,0.000000,0.000000,0.000000,500.000000,1711635050298390,1,0,0,-12538018,-79.697357,35.910000,-1.050714
1.441554,0,0,250,256.618421,3.355584,0.000000,72.079842,116602.266281,138.911648,0.000000,0.000000,0.000000,500.000000,1711635050298390,2,0,0,-12945153,-99.197769,35.910000,-1.050567
1.441554,0,0,250,256.618421,3.355584,0.000000,72.079842,116602.266281,138.911648,0.000000,0.000000,0.000000,500.000000,1711635050298390,3,0,0,12962130,99.197769,35.910000,1.050567
1.441554,0,0,250,256.618421,3.355584,0.000000,72.079842,116602.266281,138.911648,0.000000,0.000000,0.000000,500.000000,1711635050298390,4,0,0,12555004,99.197769,35.910000,1.050619
1.441554,0,0,250,256.618421,3.355584,0.000000,72.079842,116602.266281,138.911648,0.000000,0.000000,0.000000,500.000000,1711635050424512,1,0,0,-12538758,-71.925720,35.910000,-1.051028
1.441554,0,0,250,256.618421,3.355584,0.000000,72.079842,116602.266281,138.911648,0.000000,0.000000,0.000000,500.000000,1711635050424512,2,0,0,-12945896,-96.156013,35.910000,-1.050683
1.441554,0,0,250,256.618421,3.355584,0.000000,72.079842,116602.266281,138.911648,0.000000,0.000000,0.000000,500.000000,1711635050424512,3,0,0,12962873,96.156013,35.910000,1.050683
1.441554,0,0,250,256.618421,3.355584,0.000000,72.079842,116602.266281,138.911648,0.000000,0.000000,0.000000,500.000000,1711635050424512,4,0,0,12555747,96.156013,35.910000,1.050818
2.760836,0,0,0,699.996396,2.246275,0.000000,926.692747,116605.442581,139.112759,0.000000,0.000000,0.000000,700.000000,1711635050550166,1,0,0,-12539501,-71.969299,35.910000,-1.050929
2.760836,0,0,0,699.996396,2.246275,0.000000,926.692747,116605.442581,139.112759,0.000000,0.000000,0.000000,700.000000,1711635050550166,2,0,0,-12946638,-96.480576,35.910000,-1.050893
2.760836,0,0,0,699.996396,2.246275,0.000000,926.692747,116605.442581,139.112759,0.000000,0.000000,0.000000,700.000000,1711635050550166,3,0,0,12963615,96.480576,35.910000,1.050893
2.760836,0,0,0,699.996396,2.246275,0.000000,926.692747,116605.442581,139.112759,0.000000,0.000000,0.000000,700.000000,1711635050550166,4,0,0,12556489,96.480576,35.910000,1.050649
2.760836,0,0,0,699.996396,2.246275,0.000000,926.692747,116605.442581,139.112759,0.000000,0.000000,0.000000,700.000000,1711635050688363,1,0,0,-12540248,-72.310547,35.910000,-1.050887
2.760836,0,0,0,699.996396,2.246275,0.000000,926.692747,116605.442581,139.112759,0.000000,0.000000,0.000000,700.000000,1711635050688363,2,0,0,-12947384,-96.327972,35.910000,-1.050707
2.760836,0,0,0,699.996396,2.246275,0.000000,926.692747,116605.442581,139.112759,0.000000,0.000000,0.000000,700.000000,1711635050688363,3,0,0,12964361,96.327972,35.910000,1.050707
2.760836,0,0,0,699.996396,2.246275,0.000000,926.692747,116605.442581,139.112759,0.000000,0.000000,0.000000,700.000000,1711635050688363,4,0,0,12557235,96.327972,35.910000,1.050707
2.760836,0,0,0,699.996396,2.246275,0.000000,926.692747,116605.442581,139.112759,0.000000,0.000000,0.000000,700.000000,1711635050812938,1,0,0,-12541075,-78.265236,35.910000,-1.051746
2.760836,0,0,0,699.996396,2.246275,0.000000,926.692747,116605.442581,139.112759,0.000000,0.000000,0.000000,700.000000,1711635050812938,2,0,0,-12948118,-78.265236,35.910000,-1.050413
2.760836,0,0,0,699.996396,2.246275,0.000000,926.692747,116605.442581,139.112759,0.000000,0.000000,0.000000,700.000000,1711635050812938,3,0,0,12965195,99.590912,35.910000,1.050562
2.760836,0,0,0,699.996396,2.246275,0.000000,926.692747,116605.442581,139.112759,0.000000,0.000000,0.000000,700.000000,1711635050812938,4,0,0,12557969,78.265236,35.910000,1.050413
2.760836,0,0,0,699.996396,2.246275,0.000000,926.692747,116605.442581,139.112759,0.000000,0.000000,0.000000,700.000000,1711635050938406,1,0,0,-12541818,-78.883186,35.910000,-1.050844
2.760836,0,0,0,699.996396,2.246275,0.000000,926.692747,116605.442581,139.112759,0.000000,0.000000,0.000000,700.000000,1711635050938406,2,0,0,-12948861,-78.883186,35.910000,-1.050619
2.760836,0,0,0,699.996396,2.246275,0.000000,926.692747,116605.442581,139.112759,0.000000,0.000000,0.000000,700.000000,1711635050938406,3,0,0,12965931,98.603981,35.910000,1.051103
2.760836,0,0,0,699.996396,2.246275,0.000000,926.692747,116605.442581,139.112759,0.000000,0.000000,0.000000,700.000000,1711635050938406,4,0,0,12558712,78.883186,35.910000,1.050619
2.760836,0,0,0,699.996396,2.246275,0.000000,926.692747,116605.442581,139.112759,0.000000,0.000000,0.000000,700.000000,1711635051088617,1,0,0,-12542756,-89.061737,35.910000,-1.051296
2.760836,0,0,0,699.996396,2.246275,0.000000,926.692747,116605.442581,139.112759,0.000000,0.000000,0.000000,700.000000,1711635051088617,2,0,0,-12949799,-89.061737,35.910000,-1.050574
2.760836,0,0,0,699.996396,2.246275,0.000000,926.692747,116605.442581,139.112759,0.000000,0.000000,0.000000,700.000000,1711635051088617,3,0,0,12966776,89.061737,35.910000,1.051101
2.760836,0,0,0,699.996396,2.246275,0.000000,926.692747,116605.442581,139.112759,0.000000,0.000000,0.000000,700.000000,1711635051088617,4,0,0,12559650,89.061737,35.910000,1.051464
2.760836,0,0,0,699.996396,2.246275,0.000000,926.692747,116605.442581,139.112759,0.000000,0.000000,0.000000,700.000000,1711635051214487,1,0,0,-12543508,-98.610893,35.910000,-1.050822
2.760836,0,0,0,699.996396,2.246275,0.000000,926.692747,116605.442581,139.112759,0.000000,0.000000,0.000000,700.000000,1711635051214487,2,0,0,-12950551,-98.610893,35.910000,-1.050785
2.760836,0,0,0,699.996396,2.246275,0.000000,926.692747,116605.442581,139.112759,0.000000,0.000000,0.000000,700.000000,1711635051214487,3,0,0,12967528,78.804428,35.910000,1.050869
2.760836,0,0,0,699.996396,2.246275,0.000000,926.692747,116605.442581,139.112759,0.000000,0.000000,0.000000,700.000000,1711635051214487,4,0,0,12560402,98.610893,35.910000,1.050569
2.760836,0,0,0,699.996396,2.246275,0.000000,926.692747,116605.442581,139.112759,0.000000,0.000000,0.000000,700.000000,1711635051352432,1,0,0,-12544249,-96.209961,35.910000,-1.050857
2.760836,0,0,0,699.996396,2.246275,0.000000,926.692747,116605.442581,139.112759,0.000000,0.000000,0.000000,700.000000,1711635051352432,2,0,0,-12951292,-96.209961,35.910000,-1.050800
2.760836,0,0,0,699.996396,2.246275,0.000000,926.692747,116605.442581,139.112759,0.000000,0.000000,0.000000,700.000000,1711635051352432,3,0,0,12968269,96.209961,35.910000,1.050768
2.760836,0,0,0,699.996396,2.246275,0.000000,926.692747,116605.442581,139.112759,0.000000,0.000000,0.000000,700.000000,1711635051352432,4,0,0,12561143,96.209961,35.910000,1.050857
2.760836,0,0,0,699.996396,2.246275,0.000000,926.692747,116605.442581,139.112759,0.000000,0.000000,0.000000,700.000000,1711635051479070,1,0,0,-12544991,-96.814758,35.910000,-1.050801
2.760836,0,0,0,699.996396,2.246275,0.000000,926.692747,116605.442581,139.112759,0.000000,0.000000,0.000000,700.000000,1711635051479070,2,0,0,-12952034,-96.814758,35.910000,-1.051409
2.760836,0,0,0,699.996396,2.246275,0.000000,926.692747,116605.442581,139.112759,0.000000,0.000000,0.000000,700.000000,1711635051479070,3,0,0,12969011,96.814758,35.910000,1.050432
2.760836,0,0,0,699.996396,2.246275,0.000000,926.692747,116605.442581,139.112759,0.000000,0.000000,0.000000,700.000000,1711635051479070,4,0,0,12561885,96.814758,35.910000,1.050775
2.760836,0,0,0,699.996396,2.246275,0.000000,926.692747,116605.442581,139.112759,0.000000,0.000000,0.000000,700.000000,1711635051617140,1,0,0,-12545747,-79.767044,35.910000,-1.050729
2.760836,0,0,0,699.996396,2.246275,0.000000,926.692747,116605.442581,139.112759,0.000000,0.000000,0.000000,700.000000,1711635051617140,2,0,0,-12952882,-99.181252,35.910000,-1.050672
2.760836,0,0,0,699.996396,2.246275,0.000000,926.692747,116605.442581,139.112759,0.000000,0.000000,0.000000,700.000000,1711635051617140,3,0,0,12969859,99.181252,35.910000,1.050672
2.760836,0,0,0,699.996396,2.246275,0.000000,926.692747,116605.442581,139.112759,0.000000,0.000000,0.000000,700.000000,1711635051617140,4,0,0,12562733,99.181252,35.910000,1.050756
2.760836,0,0,0,699.996396,2.246275,0.000000,926.692747,116605.442581,139.112759,0.000000,0.000000,0.000000,700.000000,1711635051742307,1,0,0,-12546573,-78.720535,35.910000,-1.050933
2.760836,0,0,0,699.996396,2.246275,0.000000,926.692747,116605.442581,139.112759,0.000000,0.000000,0.000000,700.000000,1711635051742307,2,0,0,-12953616,-78.720535,35.910000,-1.050808
2.760836,0,0,0,699.996396,2.246275,0.000000,926.692747,116605.442581,139.112759,0.000000,0.000000,0.000000,700.000000,1711635051742307,3,0,0,12970686,98.614586,35.910000,1.050894
2.760836,0,0,0,699.996396,2.246275,0.000000,926.692747,116605.442581,139.112759,0.000000,0.000000,0.000000,700.000000,1711635051742307,4,0,0,12563467,78.720535,35.910000,1.050808
4.162515,0,0,0,73.419017,-6.812939,0.000000,1343.449099,116599.653576,139.112759,0.000000,0.000000,0.000000,500.000000,1711635051876460,1,0,0,-12547407,-82.590744,35.910000,-1.050740
4.162515,0,0,0,73.419017,-6.812939,0.000000,1343.449099,116599.653576,139.112759,0.000000,0.000000,0.000000,500.000000,1711635051876460,2,0,0,-12954450,-82.590744,35.910000,-1.050512
4.162515,0,0,0,73.419017,-6.812939,0.000000,1343.449099,116599.653576,139.112759,0.000000,0.000000,0.000000,500.000000,1711635051876460,3,0,0,12971427,82.590744,35.910000,1.050743
4.162515,0,0,0,73.419017,-6.812939,0.000000,1343.449099,116599.653576,139.112759,0.000000,0.000000,0.000000,500.000000,1711635051876460,4,0,0,12564301,82.590744,35.910000,1.050740
4.162515,0,0,0,73.419017,-6.812939,0.000000,1343.449099,116599.653576,139.112759,0.000000,0.000000,0.000000,500.000000,1711635052014718,1,0,0,-12548150,-96.580795,35.910000,-1.050591
4.162515,0,0,0,73.419017,-6.812939,0.000000,1343.449099,116599.653576,139.112759,0.000000,0.000000,0.000000,500.000000,1711635052014718,2,0,0,-12955193,-96.580795,35.910000,-1.051104
4.162515,0,0,0,73.419017,-6.812939,0.000000,1343.449099,116599.653576,139.112759,0.000000,0.000000,0.000000,500.000000,1711635052014718,3,0,0,12972170,71.987274,35.910000,1.050711
4.162515,0,0,0,73.419017,-6.812939,0.000000,1343.449099,116599.653576,139.112759,0.000000,0.000000,0.000000,500.000000,1711635052014718,4,0,0,12565044,96.580795,35.910000,1.050591
4.162515,0,0,0,73.419017,-6.812939,0.000000,1343.449099,116599.653576,139.112759,0.000000,0.000000,0.000000,500.000000,1711635052141713,1,0,0,-12548981,-96.900757,35.910000,-1.050464
4.162515,0,0,0,73.419017,-6.812939,0.000000,1343.449099,116599.653576,139.112759,0.000000,0.000000,0.000000,500.000000,1711635052141713,2,0,0,-12956024,-96.900757,35.910000,-1.050803
4.162515,0,0,0,73.419017,-6.812939,0.000000,1343.449099,116599.653576,139.112759,0.000000,0.000000,0.000000,500.000000,1711635052141713,3,0,0,12973001,77.185020,35.910000,1.051002
4.162515,0,0,0,73.419017,-6.812939,0.000000,1343.449099,116599.653576,139.112759,0.000000,0.000000,0.000000,500.000000,1711635052141713,4,0,0,12565875,96.900757,35.910000,1.050464
4.162515,0,0,0,73.419017,-6.812939,0.000000,1343.449099,116599.653576,139.112759,0.000000,0.000000,0.000000,500.000000,1711635052267920,1,0,0,-12549730,-98.947037,35.910000,-1.050901
4.162515,0,0,0,73.419017,-6.812939,0.000000,1343.449099,116599.653576,139.112759,0.000000,0.000000,0.000000,500.000000,1711635052267920,2,0,0,-12956773,-78.612579,35.910000,-1.050504
4.162515,0,0,0,73.419017,-6.812939,0.000000,1343.449099,116599.653576,139.112759,0.000000,0.000000,0.000000,500.000000,1711635052267920,3,0,0,12973750,78.612579,35.910000,1.050613
4.162515,0,0,0,73.419017,-6.812939,0.000000,1343.449099,116599.653576,139.112759,0.000000,0.000000,0.000000,500.000000,1711635052267920,4,0,0,12566624,98.947037,35.910000,1.050901
4.162515,0,0,0,73.419017,-6.812939,0.000000,1343.449099,116599.653576,139.112759,0.000000,0.000000,0.000000,500.000000,1711635052393787,1,0,0,-12550469,-98.844795,35.910000,-1.051041
4.162515,0,0,0,73.419017,-6.812939,0.000000,1343.449099,116599.653576,139.112759,0.000000,0.000000,0.000000,500.000000,1711635052393787,2,0,0,-12957512,-78.863266,35.910000,-1.050979
4.162515,0,0,0,73.419017,-6.812939,0.000000,1343.449099,116599.653576,139.112759,0.000000,0.000000,0.000000,500.000000,1711635052393787,3,0,0,12974489,78.863266,35.910000,1.050848
4.162515,0,0,0,73.419017,-6.812939,0.000000,1343.449099,116599.653576,139.112759,0.000000,0.000000,0.000000,500.000000,1711635052393787,4,0,0,12567363,98.844795,35.910000,1.051041
4.162515,0,0,0,73.419017,-6.812939,0.000000,1343.449099,116599.653576,139.112759,0.000000,0.000000,0.000000,500.000000,1711635052516879,1,0,0,-12551210,-99.002304,35.910000,-1.050761
4.162515,0,0,0,73.419017,-6.812939,0.000000,1343.449099,116599.653576,139.112759,0.000000,0.000000,0.000000,500.000000,1711635052516879,2,0,0,-12958253,-79.158707,35.910000,-1.050438
4.162515,0,0,0,73.419017,-6.812939,0.000000,1343.449099,116599.653576,139.112759,0.000000,0.000000,0.000000,500.000000,1711635052516879,3,0,0,12975230,79.158707,35.910000,1.051430
4.162515,0,0,0,73.419017,-6.812939,0.000000,1343.449099,116599.653576,139.112759,0.000000,0.000000,0.000000,500.000000,1711635052516879,4,0,0,12568104,99.002304,35.910000,1.050761
4.162515,0,0,0,73.419017,-6.812939,0.000000,1343.449099,116599.653576,139.112759,0.000000,0.000000,0.000000,500.000000,1711635052674554,1,0,0,-12552052,-96.442810,35.910000,-1.050791
4.162515,0,0,0,73.419017,-6.812939,0.000000,1343.449099,116599.653576,139.112759,0.000000,0.000000,0.000000,500.000000,1711635052674554,2,0,0,-12959095,-96.442810,35.910000,-1.050772
4.162515,0,0,0,73.419017,-6.812939,0.000000,1343.449099,116599.653576,139.112759,0.000000,0.000000,0.000000,500.000000,1711635052674554,3,0,0,12976072,72.201775,35.910000,1.050807
4.162515,0,0,0,73.419017,-6.812939,0.000000,1343.449099,116599.653576,139.112759,0.000000,0.000000,0.000000,500.000000,1711635052674554,4,0,0,12568946,96.442810,35.910000,1.050791
4.162515,0,0,0,73.419017,-6.812939,0.000000,1343.449099,116599.653576,139.112759,0.000000,0.000000,0.000000,500.000000,1711635052799698,1,0,0,-12552789,-95.661812,35.910000,-1.051181
4.162515,0,0,0,73.419017,-6.812939,0.000000,1343.449099,116599.653576,139.112759,0.000000,0.000000,0.000000,500.000000,1711635052799698,2,0,0,-12959832,-95.661812,35.910000,-1.050672
4.162515,0,0,0,73.419017,-6.812939,0.000000,1343.449099,116599.653576,139.112759,0.000000,0.000000,0.000000,500.000000,1711635052799698,3,0,0,12976809,70.570190,35.910000,1.050995
4.162515,0,0,0,73.419017,-6.812939,0.000000,1343.449099,116599.653576,139.112759,0.000000,0.000000,0.000000,500.000000,1711635052799698,4,0,0,12569683,95.661812,35.910000,1.051181
4.162515,0,0,0,73.419017,-6.812939,0.000000,1343.449099,116599.653576,139.112759,0.000000,0.000000,0.000000,500.000000,1711635052960587,1,0,0,-12553626,-97.959930,35.910000,-1.050592
4.162515,0,0,0,73.419017,-6.812939,0.000000,1343.449099,116599.653576,139.112759,0.000000,0.000000,0.000000,500.000000,1711635052960587,2,0,0,-12960669,-78.706467,35.910000,-1.075265
4.162515,0,0,0,73.419017,-6.812939,0.000000,1343.449099,116599.653576,139.112759,0.000000,0.000000,0.000000,500.000000,1711635052960587,3,0,0,12977646,78.706467,35.910000,1.075265
4.162515,0,0,0,73.419017,-6.812939,0.000000,1343.449099,116599.653576,139.112759,0.000000,0.000000,0.000000,500.000000,1711635052960587,4,0,0,12570520,97.959930,35.910000,1.050592
4.162515,0,0,0,73.419017,-6.812939,0.000000,1343.449099,116599.653576,139.112759,0.000000,0.000000,0.000000,500.000000,1711635053085330,1,0,0,-12554544,-78.234673,35.910000,-1.050601
4.162515,0,0,0,73.419017,-6.812939,0.000000,1343.449099,116599.653576,139.112759,0.000000,0.000000,0.000000,500.000000,1711635053085330,2,0,0,-12961587,-78.234673,35.910000,-1.051146
4.162515,0,0,0,73.419017,-6.812939,0.000000,1343.449099,116599.653576,139.112759,0.000000,0.000000,0.000000,500.000000,1711635053085330,3,0,0,12978564,78.234673,35.910000,1.050690
4.162515,0,0,0,73.419017,-6.812939,0.000000,1343.449099,116599.653576,139.112759,0.000000,0.000000,0.000000,500.000000,1711635053085330,4,0,0,12571438,78.234673,35.910000,1.050601
5.449208,0,0,0,88.821492,3.748770,0.000000,1452.733102,116598.607271,139.112759,0.000000,0.000000,0.000000,500.000000,1711635053253055,1,0,0,-12555469,-94.502197,35.910000,-1.050850
5.449208,0,0,0,88.821492,3.748770,0.000000,1452.733102,116598.607271,139.112759,0.000000,0.000000,0.000000,500.000000,1711635053253055,2,0,0,-12962512,-78.296944,35.910000,-1.050844
5.449208,0,0,0,88.821492,3.748770,0.000000,1452.733102,116598.607271,139.112759,0.000000,0.000000,0.000000,500.000000,1711635053253055,3,0,0,12979489,78.296944,35.910000,1.050987
5.449208,0,0,0,88.821492,3.748770,0.000000,1452.733102,116598.607271,139.112759,0.000000,0.000000,0.000000,500.000000,1711635053253055,4,0,0,12572363,94.502197,35.910000,1.050850
5.449208,0,0,0,88.821492,3.748770,0.000000,1452.733102,116598.607271,139.112759,0.000000,0.000000,0.000000,500.000000,1711635053377954,1,0,0,-12556211,-78.481178,35.910000,-1.050690
5.449208,0,0,0,88.821492,3.748770,0.000000,1452.733102,116598.607271,139.112759,0.000000,0.000000,0.000000,500.000000,1711635053377954,2,0,0,-12963254,-78.481178,35.910000,-1.062548
5.449208,0,0,0,88.821492,3.748770,0.000000,1452.733102,116598.607271,139.112759,0.000000,0.000000,0.000000,500.000000,1711635053377954,3,0,0,12980231,78.481178,35.910000,1.062163
5.449208,0,0,0,88.821492,3.748770,0.000000,1452.733102,116598.607271,139.112759,0.000000,0.000000,0.000000,500.000000,1711635053377954,4,0,0,12573105,78.481178,35.910000,1.062548
5.449208,0,0,0,88.821492,3.748770,0.000000,1452.733102,116598.607271,139.112759,0.000000,0.000000,0.000000,500.000000,1711635053521085,1,0,0,-12557053,-98.882477,35.910000,-1.050769
5.449208,0,0,0,88.821492,3.748770,0.000000,1452.733102,116598.607271,139.112759,0.000000,0.000000,0.000000,500.000000,1711635053521085,2,0,0,-12964096,-98.882477,35.910000,-1.061937
5.449208,0,0,0,88.821492,3.748770,0.000000,1452.733102,116598.607271,139.112759,0.000000,0.000000,0.000000,500.000000,1711635053521085,3,0,0,12981073,79.272873,35.910000,1.050147
5.449208,0,0,0,88.821492,3.748770,0.000000,1452.733102,116598.607271,139.112759,0.000000,0.000000,0.000000,500.000000,1711635053521085,4,0,0,12573947,98.882477,35.910000,1.050769
5.449208,0,0,0,88.821492,3.748770,0.000000,1452.733102,116598.607271,139.112759,0.000000,0.000000,0.000000,500.000000,1711635053630407,1,0,0,-12557415,-73.003410,35.910000,-1.062523
5.449208,0,0,0,88.821492,3.748770,0.000000,1452.733102,116598.607271,139.112759,0.000000,0.000000,0.000000,500.000000,1711635053630407,2,0,0,-12964553,-92.161766,35.910000,-1.051018
5.449208,0,0,0,88.821492,3.748770,0.000000,1452.733102,116598.607271,139.112759,0.000000,0.000000,0.000000,500.000000,1711635053630407,3,0,0,12981530,92.161766,35.910000,1.050964
5.449208,0,0,0,88.821492,3.748770,0.000000,1452.733102,116598.607271,139.112759,0.000000,0.000000,0.000000,500.000000,1711635053630407,4,0,0,12574309,73.003410,35.910000,1.062523
5.449208,0,0,0,88.821492,3.748770,0.000000,1452.733102,116598.607271,139.112759,0.000000,0.000000,0.000000,500.000000,1711635053756545,1,0,0,-12558545,-99.315872,35.910000,-1.050769
5.449208,0,0,0,88.821492,3.748770,0.000000,1452.733102,116598.607271,139.112759,0.000000,0.000000,0.000000,500.000000,1711635053756545,2,0,0,-12965588,-99.315872,35.910000,-1.049811
5.449208,0,0,0,88.821492,3.748770,0.000000,1452.733102,116598.607271,139.112759,0.000000,0.000000,0.000000,500.000000,1711635053756545,3,0,0,12982565,79.073143,35.910000,1.051253
5.449208,0,0,0,88.821492,3.748770,0.000000,1452.733102,116598.607271,139.112759,0.000000,0.000000,0.000000,500.000000,1711635053756545,4,0,0,12575439,99.315872,35.910000,1.050898
5.449208,0,0,0,88.821492,3.748770,0.000000,1452.733102,116598.607271,139.112759,0.000000,0.000000,0.000000,500.000000,1711635053894165,1,0,0,-12559281,-96.292114,35.910000,-1.050947
5.449208,0,0,0,88.821492,3.748770,0.000000,1452.733102,116598.607271,139.112759,0.000000,0.000000,0.000000,500.000000,1711635053894165,2,0,0,-12966324,-96.292114,35.910000,-1.050493
5.449208,0,0,0,88.821492,3.748770,0.000000,1452.733102,116598.607271,139.112759,0.000000,0.000000,0.000000,500.000000,1711635053894165,3,0,0,12983301,96.292114,35.910000,1.051369
5.449208,0,0,0,88.821492,3.748770,0.000000,1452.733102,116598.607271,139.112759,0.000000,0.000000,0.000000,500.000000,1711635053894165,4,0,0,12576175,96.292114,35.910000,1.050533
5.449208,0,0,0,88.821492,3.748770,0.000000,1452.733102,116598.607271,139.112759,0.000000,0.000000,0.000000,500.000000,1711635054019196,1,0,0,-12560026,-96.962349,35.910000,-1.051134
5.449208,0,0,0,88.821492,3.748770,0.000000,1452.733102,116598.607271,139.112759,0.000000,0.000000,0.000000,500.000000,1711635054019196,2,0,0,-12967069,-96.962349,35.910000,-1.050422
5.449208,0,0,0,88.821492,3.748770,0.000000,1452.733102,116598.607271,139.112759,0.000000,0.000000,0.000000,500.000000,1711635054019196,3,0,0,12984046,96.962349,35.910000,1.050971
5.449208,0,0,0,88.821492,3.748770,0.000000,1452.733102,116598.607271,139.112759,0.000000,0.000000,0.000000,500.000000,1711635054019196,4,0,0,12576920,96.962349,35.910000,1.050744
5.449208,0,0,0,88.821492,3.748770,0.000000,1452.733102,116598.607271,139.112759,0.000000,0.000000,0.000000,500.000000,1711635054145796,1,0,0,-12560854,-96.685760,35.910000,-1.050202
5.449208,0,0,0,88.821492,3.748770,0.000000,1452.733102,116598.607271,139.112759,0.000000,0.000000,0.000000,500.000000,1711635054145796,2,0,0,-12967897,-96.685760,35.910000,-1.050774
5.449208,0,0,0,88.821492,3.748770,0.000000,1452.733102,116598.607271,139.112759,0.000000,0.000000,0.000000,500.000000,1711635054145796,3,0,0,12984874,96.685760,35.910000,1.050774
5.449208,0,0,0,88.821492,3.748770,0.000000,1452.733102,116598.607271,139.112759,0.000000,0.000000,0.000000,500.000000,1711635054145796,4,0,0,12577748,96.685760,35.910000,1.051507
5.449208,0,0,0,88.821492,3.748770,0.000000,1452.733102,116598.607271,139.112759,0.000000,0.000000,0.000000,500.000000,1711635054270307,1,0,0,-12561508,-78.977203,35.910000,-1.050967
5.449208,0,0,0,88.821492,3.748770,0.000000,1452.733102,116598.607271,139.112759,0.000000,0.000000,0.000000,500.000000,1711635054270307,2,0,0,-12968645,-99.260971,35.910000,-1.050511
5.449208,0,0,0,88.821492,3.748770,0.000000,1452.733102,116598.607271,139.112759,0.000000,0.000000,0.000000,500.000000,1711635054270307,3,0,0,12985622,99.260971,35.910000,1.050511
5.449208,0,0,0,88.821492,3.748770,0.000000,1452.733102,116598.607271,139.112759,0.000000,0.000000,0.000000,500.000000,1711635054270307,4,0,0,12578496,99.260971,35.910000,1.050753
5.449208,0,0,0,88.821492,3.748770,0.000000,1452.733102,116598.607271,139.112759,0.000000,0.000000,0.000000,500.000000,1711635054396722,1,0,0,-12562249,-77.850761,35.910000,-1.051072
5.449208,0,0,0,88.821492,3.748770,0.000000,1452.733102,116598.607271,139.112759,0.000000,0.000000,0.000000,500.000000,1711635054396722,2,0,0,-12969387,-97.732010,35.910000,-1.050625
5.449208,0,0,0,88.821492,3.748770,0.000000,1452.733102,116598.607271,139.112759,0.000000,0.000000,0.000000,500.000000,1711635054396722,3,0,0,12986364,97.732010,35.910000,1.050625
5.449208,0,0,0,88.821492,3.748770,0.000000,1452.733102,116598.607271,139.112759,0.000000,0.000000,0.000000,500.000000,1711635054396722,4,0,0,12579238,97.732010,35.910000,1.050840
6.900355,200,0,0,72.846464,5.322298,0.000000,1565.522033,116604.250689,164.863866,0.000000,0.000000,0.000000,500.000000,1711635054522337,1,0,0,-12563083,-98.411232,35.910000,-1.050356
6.900355,200,0,0,72.846464,5.322298,0.000000,1565.522033,116604.250689,164.863866,0.000000,0.000000,0.000000,500.000000,1711635054522337,2,0,0,-12970126,-98.411232,35.910000,-1.050400
6.900355,200,0,0,72.846464,5.322298,0.000000,1565.522033,116604.250689,164.863866,0.000000,0.000000,0.000000,500.000000,1711635054522337,3,0,0,12987103,98.411232,35.910000,1.050400
6.900355,200,0,0,72.846464,5.322298,0.000000,1565.522033,116604.250689,164.863866,0.000000,0.000000,0.000000,500.000000,1711635054522337,4,0,0,12579977,98.411232,35.910000,1.051349
6.900355,200,0,0,72.846464,5.322298,0.000000,1565.522033,116604.250689,164.863866,0.000000,0.000000,0.000000,500.000000,1711635054671445,1,0,0,-12563741,-72.294540,35.910000,-1.050785
6.900355,200,0,0,72.846464,5.322298,0.000000,1565.522033,116604.250689,164.863866,0.000000,0.000000,0.000000,500.000000,1711635054671445,2,0,0,-12970877,-96.136353,35.910000,-1.050707
6.900355,200,0,0,72.846464,5.322298,0.000000,1565.522033,116604.250689,164.863866,0.000000,0.000000,0.000000,500.000000,1711635054671445,3,0,0,12987854,96.136353,35.910000,1.050732
6.900355,200,0,0,72.846464,5.322298,0.000000,1565.522033,116604.250689,164.863866,0.000000,0.000000,0.000000,500.000000,1711635054671445,4,0,0,12580728,96.136353,35.910000,1.050687
6.900355,200,0,0,72.846464,5.322298,0.000000,1565.522033,116604.250689,164.863866,0.000000,0.000000,0.000000,500.000000,1711635054817561,1,0,0,-12564572,-72.182632,35.910000,-1.050697
6.900355,200,0,0,72.846464,5.322298,0.000000,1565.522033,116604.250689,164.863866,0.000000,0.000000,0.000000,500.000000,1711635054817561,2,0,0,-12971615,-72.182632,35.910000,-1.050983
6.900355,200,0,0,72.846464,5.322298,0.000000,1565.522033,116604.250689,164.863866,0.000000,0.000000,0.000000,500.000000,1711635054817561,3,0,0,12988592,72.182632,35.910000,1.050775
6.900355,200,0,0,72.846464,5.322298,0.000000,1565.522033,116604.250689,164.863866,0.000000,0.000000,0.000000,500.000000,1711635054817561,4,0,0,12581466,72.182632,35.910000,1.050983
6.900355,200,0,0,72.846464,5.322298,0.000000,1565.522033,116604.250689,164.863866,0.000000,0.000000,0.000000,500.000000,1711635054943981,1,0,0,-12565493,-78.229195,35.910000,-1.051283
6.900355,200,0,0,72.846464,5.322298,0.000000,1565.522033,116604.250689,164.863866,0.000000,0.000000,0.000000,500.000000,1711635054943981,2,0,0,-12972633,-98.627663,35.910000,-1.050851
6.900355,200,0,0,72.846464,5.322298,0.000000,1565.522033,116604.250689,164.863866,0.000000,0.000000,0.000000,500.000000,1711635054943981,3,0,0,12989610,98.627663,35.910000,1.050851
6.900355,200,0,0,72.846464,5.322298,0.000000,1565.522033,116604.250689,164.863866,0.000000,0.000000,0.000000,500.000000,1711635054943981,4,0,0,12582387,78.229195,35.910000,1.050880
6.900355,200,0,0,72.846464,5.322298,0.000000,1565.522033,116604.250689,164.863866,0.000000,0.000000,0.000000,500.000000,1711635055070250,1,0,0,-12566244,-71.830261,35.910000,-1.051112
6.900355,200,0,0,72.846464,5.322298,0.000000,1565.522033,116604.250689,164.863866,0.000000,0.000000,0.000000,500.000000,1711635055070250,2,0,0,-12973382,-96.376572,35.910000,-1.050386
6.900355,200,0,0,72.846464,5.322298,0.000000,1565.522033,116604.250689,164.863866,0.000000,0.000000,0.000000,500.000000,1711635055070250,3,0,0,12990359,96.376572,35.910000,1.050386
6.900355,200,0,0,72.846464,5.322298,0.000000,1565.522033,116604.250689,164.863866,0.000000,0.000000,0.000000,500.000000,1711635055070250,4,0,0,12583138,71.830261,35.910000,1.050817
6.900355,200,0,0,72.846464,5.322298,0.000000,1565.522033,116604.250689,164.863866,0.000000,0.000000,0.000000,500.000000,1711635055225701,1,0,0,-12567079,-73.952545,35.910000,-1.050965
6.900355,200,0,0,72.846464,5.322298,0.000000,1565.522033,116604.250689,164.863866,0.000000,0.000000,0.000000,500.000000,1711635055225701,2,0,0,-12974216,-92.539551,35.910000,-1.050708
6.900355,200,0,0,72.846464,5.322298,0.000000,1565.522033,116604.250689,164.863866,0.000000,0.000000,0.000000,500.000000,1711635055225701,3,0,0,12991193,92.539551,35.910000,1.050708
6.900355,200,0,0,72.846464,5.322298,0.000000,1565.522033,116604.250689,164.863866,0.000000,0.000000,0.000000,500.000000,1711635055225701,4,0,0,12584067,92.539551,35.910000,1.050817
6.900355,200,0,0,72.846464,5.322298,0.000000,1565.522033,116604.250689,164.863866,0.000000,0.000000,0.000000,500.000000,1711635055364260,1,0,0,-12567927,-80.937286,35.910000,-1.050630
6.900355,200,0,0,72.846464,5.322298,0.000000,1565.522033,116604.250689,164.863866,0.000000,0.000000,0.000000,500.000000,1711635055364260,2,0,0,-12974970,-80.937286,35.910000,-1.050604
6.900355,200,0,0,72.846464,5.322298,0.000000,1565.522033,116604.250689,164.863866,0.000000,0.000000,0.000000,500.000000,1711635055364260,3,0,0,12991947,80.937286,35.910000,1.050962
6.900355,200,0,0,72.846464,5.322298,0.000000,1565.522033,116604.250689,164.863866,0.000000,0.000000,0.000000,500.000000,1711635055364260,4,0,0,12584821,80.937286,35.910000,1.050604
6.900355,200,0,0,72.846464,5.322298,0.000000,1565.522033,116604.250689,164.863866,0.000000,0.000000,0.000000,500.000000,1711635055527720,1,0,0,-12568867,-76.942123,35.910000,-1.050945
6.900355,200,0,0,72.846464,5.322298,0.000000,1565.522033,116604.250689,164.863866,0.000000,0.000000,0.000000,500.000000,1711635055527720,2,0,0,-12975910,-76.942123,35.910000,-1.050829
6.900355,200,0,0,72.846464,5.322298,0.000000,1565.522033,116604.250689,164.863866,0.000000,0.000000,0.000000,500.000000,1711635055527720,3,0,0,12992981,92.330544,35.910000,1.062118
6.900355,200,0,0,72.846464,5.322298,0.000000,1565.522033,116604.250689,164.863866,0.000000,0.000000,0.000000,500.000000,1711635055527720,4,0,0,12585761,76.942123,35.910000,1.050829
6.900355,200,0,0,72.846464,5.322298,0.000000,1565.522033,116604.250689,164.863866,0.000000,0.000000,0.000000,500.000000,1711635055666364,1,0,0,-12569699,-71.113190,35.910000,-1.051026
6.900355,200,0,0,72.846464,5.322298,0.000000,1565.522033,116604.250689,164.863866,0.000000,0.000000,0.000000,500.000000,1711635055666364,2,0,0,-12976742,-71.113190,35.910000,-1.050720
6.900355,200,0,0,72.846464,5.322298,0.000000,1565.522033,116604.250689,164.863866,0.000000,0.000000,0.000000,500.000000,1711635055666364,3,0,0,12993814,95.679565,35.910000,1.050721
6.900355,200,0,0,72.846464,5.322298,0.000000,1565.522033,116604.250689,164.863866,0.000000,0.000000,0.000000,500.000000,1711635055666364,4,0,0,12586593,71.113190,35.910000,1.050720
6.900355,200,0,0,72.846464,5.322298,0.000000,1565.522033,116604.250689,164.863866,0.000000,0.000000,0.000000,500.000000,1711635055813057,1,0,0,-12570438,-72.195999,35.910000,-1.050817
6.900355,200,0,0,72.846464,5.322298,0.000000,1565.522033,116604.250689,164.863866,0.000000,0.000000,0.000000,500.000000,1711635055813057,2,0,0,-12977574,-96.522911,35.910000,-1.050521
6.900355,200,0,0,72.846464,5.322298,0.000000,1565.522033,116604.250689,164.863866,0.000000,0.000000,0.000000,500.000000,1711635055813057,3,0,0,12994551,96.522911,35.910000,1.050776
6.900355,200,0,0,72.846464,5.322298,0.000000,1565.522033,116604.250689,164.863866,0.000000,0.000000,0.000000,500.000000,1711635055813057,4,0,0,12587332,72.195999,35.910000,1.063416
9.292474,200,0,0,98.417944,38.163920,0.000000,1757.864992,116615.621717,138.338753,0.000000,0.000000,0.000000,500.000000,1711635055941305,1,0,0,-12571366,-88.680901,35.910000,-1.062546
9.292474,200,0,0,98.417944,38.163920,0.000000,1757.864992,116615.621717,138.338753,0.000000,0.000000,0.000000,500.000000,1711635055941305,2,0,0,-12978409,-88.680901,35.910000,-1.062546
9.292474,200,0,0,98.417944,38.163920,0.000000,1757.864992,116615.621717,138.338753,0.000000,0.000000,0.000000,500.000000,1711635055941305,3,0,0,12995386,88.680901,35.910000,1.061681
9.292474,200,0,0,98.417944,38.163920,0.000000,1757.864992,116615.621717,138.338753,0.000000,0.000000,0.000000,500.000000,1711635055941305,4,0,0,12588260,88.680901,35.910000,1.062546
9.292474,200,0,0,98.417944,38.163920,0.000000,1757.864992,116615.621717,138.338753,0.000000,0.000000,0.000000,500.000000,1711635056069554,1,0,0,-12572189,-91.241119,35.910000,-1.050584
9.292474,200,0,0,98.417944,38.163920,0.000000,1757.864992,116615.621717,138.338753,0.000000,0.000000,0.000000,500.000000,1711635056069554,2,0,0,-12979232,-91.241119,35.910000,-1.051044
9.292474,200,0,0,98.417944,38.163920,0.000000,1757.864992,116615.621717,138.338753,0.000000,0.000000,0.000000,500.000000,1711635056069554,3,0,0,12996209,91.241119,35.910000,1.050726
9.292474,200,0,0,98.417944,38.163920,0.000000,1757.864992,116615.621717,138.338753,0.000000,0.000000,0.000000,500.000000,1711635056069554,4,0,0,12589083,91.241119,35.910000,1.050584
9.292474,200,0,0,98.417944,38.163920,0.000000,1757.864992,116615.621717,138.338753,0.000000,0.000000,0.000000,500.000000,1711635056216410,1,0,0,-12573018,-97.935112,35.910000,-1.050560
9.292474,200,0,0,98.417944,38.163920,0.000000,1757.864992,116615.621717,138.338753,0.000000,0.000000,0.000000,500.000000,1711635056216410,2,0,0,-12980061,-78.815460,35.910000,-1.051588
9.292474,200,0,0,98.417944,38.163920,0.000000,1757.864992,116615.621717,138.338753,0.000000,0.000000,0.000000,500.000000,1711635056216410,3,0,0,12997038,78.815460,35.910000,1.051588
9.292474,200,0,0,98.417944,38.163920,0.000000,1757.864992,116615.621717,138.338753,0.000000,0.000000,0.000000,500.000000,1711635056216410,4,0,0,12589912,78.815460,35.910000,1.050560
9.292474,200,0,0,98.417944,38.163920,0.000000,1757.864992,116615.621717,138.338753,0.000000,0.000000,0.000000,500.000000,1711635056359415,1,0,0,-12573865,-80.253441,35.910000,-1.051078
9.292474,200,0,0,98.417944,38.163920,0.000000,1757.864992,116615.621717,138.338753,0.000000,0.000000,0.000000,500.000000,1711635056359415,2,0,0,-12981003,-96.337997,35.910000,-1.050389
9.292474,200,0,0,98.417944,38.163920,0.000000,1757.864992,116615.621717,138.338753,0.000000,0.000000,0.000000,500.000000,1711635056359415,3,0,0,12997980,96.337997,35.910000,1.050389
9.292474,200,0,0,98.417944,38.163920,0.000000,1757.864992,116615.621717,138.338753,0.000000,0.000000,0.000000,500.000000,1711635056359415,4,0,0,12590759,80.253441,35.910000,1.050864
9.292474,200,0,0,98.417944,38.163920,0.000000,1757.864992,116615.621717,138.338753,0.000000,0.000000,0.000000,500.000000,1711635056510773,1,0,0,-12574703,-83.253105,35.910000,-1.050954
9.292474,200,0,0,98.417944,38.163920,0.000000,1757.864992,116615.621717,138.338753,0.000000,0.000000,0.000000,500.000000,1711635056510773,2,0,0,-12981746,-83.253105,35.910000,-1.050730
9.292474,200,0,0,98.417944,38.163920,0.000000,1757.864992,116615.621717,138.338753,0.000000,0.000000,0.000000,500.000000,1711635056510773,3,0,0,12998723,83.253105,35.910000,1.051080
9.292474,200,0,0,98.417944,38.163920,0.000000,1757.864992,116615.621717,138.338753,0.000000,0.000000,0.000000,500.000000,1711635056510773,4,0,0,12591597,83.253105,35.910000,1.050730
9.292474,200,0,0,98.417944,38.163920,0.000000,1757.864992,116615.621717,138.338753,0.000000,0.000000,0.000000,500.000000,1711635056661232,1,0,0,-12575536,-77.025101,35.910000,-1.050267
9.292474,200,0,0,98.417944,38.163920,0.000000,1757.864992,116615.621717,138.338753,0.000000,0.000000,0.000000,500.000000,1711635056661232,2,0,0,-12982579,-77.025101,35.910000,-1.051636
9.292474,200,0,0,98.417944,38.163920,0.000000,1757.864992,116615.621717,138.338753,0.000000,0.000000,0.000000,500.000000,1711635056661232,3,0,0,12999556,77.025101,35.910000,1.050650
9.292474,200,0,0,98.417944,38.163920,0.000000,1757.864992,116615.621717,138.338753,0.000000,0.000000,0.000000,500.000000,1711635056661232,4,0,0,12592430,77.025101,35.910000,1.051144
9.292474,200,0,0,98.417944,38.163920,0.000000,1757.864992,116615.621717,138.338753,0.000000,0.000000,0.000000,500.000000,1711635056789524,1,0,0,-12576482,-97.851402,35.910000,-1.051324
9.292474,200,0,0,98.417944,38.163920,0.000000,1757.864992,116615.621717,138.338753,0.000000,0.000000,0.000000,500.000000,1711635056789524,2,0,0,-12983525,-97.851402,35.910000,-1.050937
9.292474,200,0,0,98.417944,38.163920,0.000000,1757.864992,116615.621717,138.338753,0.000000,0.000000,0.000000,500.000000,1711635056789524,3,0,0,13000502,79.607918,35.910000,1.050937
9.292474,200,0,0,98.417944,38.163920,0.000000,1757.864992,116615.621717,138.338753,0.000000,0.000000,0.000000,500.000000,1711635056789524,4,0,0,12593376,97.851402,35.910000,1.051118
9.292474,200,0,0,98.417944,38.163920,0.000000,1757.864992,116615.621717,138.338753,0.000000,0.000000,0.000000,500.000000,1711635056950106,1,0,0,-12577310,-87.643753,35.910000,-1.050400
9.292474,200,0,0,98.417944,38.163920,0.000000,1757.864992,116615.621717,138.338753,0.000000,0.000000,0.000000,500.000000,1711635056950106,2,0,0,-12984353,-87.643753,35.910000,-1.051099
9.292474,200,0,0,98.417944,38.163920,0.000000,1757.864992,116615.621717,138.338753,0.000000,0.000000,0.000000,500.000000,1711635056950106,3,0,0,13001330,87.643753,35.910000,1.050837
9.292474,200,0,0,98.417944,38.163920,0.000000,1757.864992,116615.621717,138.338753,0.000000,0.000000,0.000000,500.000000,1711635056950106,4,0,0,12594204,87.643753,35.910000,1.051099
9.292474,200,0,0,98.417944,38.163920,0.000000,1757.864992,116615.621717,138.338753,0.000000,0.000000,0.000000,500.000000,1711635057086400,1,0,0,-12578066,-97.008171,35.910000,-1.050292
9.292474,200,0,0,98.417944,38.163920,0.000000,1757.864992,116615.621717,138.338753,0.000000,0.000000,0.000000,500.000000,1711635057086400,2,0,0,-12985109,-72.500839,35.910000,-1.051169
9.292474,200,0,0,98.417944,38.163920,0.000000,1757.864992,116615.621717,138.338753,0.000000,0.000000,0.000000,500.000000,1711635057086400,3,0,0,13002086,72.500839,35.910000,1.050703
9.292474,200,0,0,98.417944,38.163920,0.000000,1757.864992,116615.621717,138.338753,0.000000,0.000000,0.000000,500.000000,1711635057086400,4,0,0,12594960,72.500839,35.910000,1.051169
9.292474,200,0,0,98.417944,38.163920,0.000000,1757.864992,116615.621717,138.338753,0.000000,0.000000,0.000000,500.000000,1711635057212055,1,0,0,-12578902,-78.679283,35.910000,-1.050782
9.292474,200,0,0,98.417944,38.163920,0.000000,1757.864992,116615.621717,138.338753,0.000000,0.000000,0.000000,500.000000,1711635057212055,2,0,0,-12986038,-98.296371,35.910000,-1.050417
9.292474,200,0,0,98.417944,38.163920,0.000000,1757.864992,116615.621717,138.338753,0.000000,0.000000,0.000000,500.000000,1711635057212055,3,0,0,13003015,98.296371,35.910000,1.050417
9.292474,200,0,0,98.417944,38.163920,0.000000,1757.864992,116615.621717,138.338753,0.000000,0.000000,0.000000,500.000000,1711635057212055,4,0,0,12595889,98.296371,35.910000,1.050678
9.292474,200,0,0,98.417944,38.163920,0.000000,1757.864992,116615.621717,138.338753,0.000000,0.000000,0.000000,500.000000,1711635057335945,1,0,0,-12579641,-78.748116,35.910000,-1.050905
9.292474,200,0,0,98.417944,38.163920,0.000000,1757.864992,116615.621717,138.338753,0.000000,0.000000,0.000000,500.000000,1711635057335945,2,0,0,-12986778,-98.917938,35.910000,-1.050477
9.292474,200,0,0,98.417944,38.163920,0.000000,1757.864992,116615.621717,138.338753,0.000000,0.000000,0.000000,500.000000,1711635057335945,3,0,0,13003755,98.917938,35.910000,1.050477
9.292474,200,0,0,98.417944,38.163920,0.000000,1757.864992,116615.621717,138.338753,0.000000,0.000000,0.000000,500.000000,1711635057335945,4,0,0,12596629,98.917938,35.910000,1.050630
9.292474,200,0,0,98.417944,38.163920,0.000000,1757.864992,116615.621717,138.338753,0.000000,0.000000,0.000000,500.000000,1711635057471439,1,0,0,-12580470,-81.378731,35.910000,0.449018
9.292474,200,0,0,98.417944,38.163920,0.000000,1757.864992,116615.621717,138.338753,0.000000,0.000000,0.000000,500.000000,1711635057471439,2,0,0,-12987517,-82.265694,35.910000,-2.697613
9.292474,200,0,0,98.417944,38.163920,0.000000,1757.864992,116615.621717,138.338753,0.000000,0.000000,0.000000,500.000000,1711635057471439,3,0,0,13004492,81.822212,35.910000,2.692635
9.292474,200,0,0,98.417944,38.163920,0.000000,1757.864992,116615.621717,138.338753,0.000000,0.000000,0.000000,500.000000,1711635057471439,4,0,0,12597364,81.378731,35.910000,-0.364974
9.292474,200,0,0,98.417944,38.163920,0.000000,1757.864992,116615.621717,138.338753,0.000000,0.000000,0.000000,500.000000,1711635057609588,1,0,0,-12581147,-84.875847,35.910000,0.188741
9.292474,200,0,0,98.417944,38.163920,0.000000,1757.864992,116615.621717,138.338753,0.000000,0.000000,0.000000,500.000000,1711635057609588,2,0,0,-12988338,-82.767128,35.910000,-2.525816
9.292474,200,0,0,98.417944,38.163920,0.000000,1757.864992,116615.621717,138.338753,0.000000,0.000000,0.000000,500.000000,1711635057609588,3,0,0,13005301,81.976357,35.910000,2.524839
9.292474,200,0,0,98.417944,38.163920,0.000000,1757.864992,116615.621717,138.338753,0.000000,0.000000,0.000000,500.000000,1711635057609588,4,0,0,12598041,62.997910,35.910000,-0.216501
9.292474,200,0,0,98.417944,38.163920,0.000000,1757.864992,116615.621717,138.338753,0.000000,0.000000,0.000000,500.000000,1711635057751085,1,0,0,-12581819,-73.026436,35.910000,0.024771
9.292474,200,0,0,98.417944,38.163920,0.000000,1757.864992,116615.621717,138.338753,0.000000,0.000000,0.000000,500.000000,1711635057751085,2,0,0,-12989382,-70.605667,35.910000,-2.293281
9.292474,200,0,0,98.417944,38.163920,0.000000,1757.864992,116615.621717,138.338753,0.000000,0.000000,0.000000,500.000000,1711635057751085,3,0,0,13006335,70.000481,35.910000,2.284868
9.292474,200,0,0,98.417944,38.163920,0.000000,1757.864992,116615.621717,138.338753,0.000000,0.000000,0.000000,500.000000,1711635057751085,4,0,0,12598713,42.161671,35.910000,-0.017229
9.292474,200,0,0,98.417944,38.163920,0.000000,1757.864992,116615.621717,138.338753,0.000000,0.000000,0.000000,500.000000,1711635057876128,1,0,0,-12582408,-68.161789,35.910000,-0.098436
9.292474,200,0,0,98.417944,38.163920,0.000000,1757.864992,116615.621717,138.338753,0.000000,0.000000,0.000000,500.000000,1711635057876128,2,0,0,-12990500,-107.567825,35.910000,-2.157067
9.292474,200,0,0,98.417944,38.163920,0.000000,1757.864992,116615.621717,138.338753,0.000000,0.000000,0.000000,500.000000,1711635057876128,3,0,0,13007445,106.928810,35.910000,2.151148
9.292474,200,0,0,98.417944,38.163920,0.000000,1757.864992,116615.621717,138.338753,0.000000,0.000000,0.000000,500.000000,1711635057876128,4,0,0,12599302,53.890415,35.910000,0.098436
9.292474,200,0,0,98.417944,38.163920,0.000000,1757.864992,116615.621717,138.338753,0.000000,0.000000,0.000000,500.000000,1711635058012467,1,0,0,-12582939,-64.803604,35.910000,-0.136170
9.292474,200,0,0,98.417944,38.163920,0.000000,1757.864992,116615.621717,138.338753,0.000000,0.000000,0.000000,500.000000,1711635058012467,2,0,0,-12991676,-122.922600,35.910000,-2.053098
9.292474,200,0,0,98.417944,38.163920,0.000000,1757.864992,116615.621717,138.338753,0.000000,0.000000,0.000000,500.000000,1711635058012467,3,0,0,13008615,122.365547,35.910000,2.062957
9.292474,200,0,0,98.417944,38.163920,0.000000,1757.864992,116615.621717,138.338753,0.000000,0.000000,0.000000,500.000000,1711635058012467,4,0,0,12599833,53.662586,35.910000,0.180934
9.292474,200,0,0,98.417944,38.163920,0.000000,1757.864992,116615.621717,138.338753,0.000000,0.000000,0.000000,500.000000,1711635058137514,1,0,0,-12583381,-58.163975,35.910000,-0.232675
9.292474,200,0,0,98.417944,38.163920,0.000000,1757.864992,116615.621717,138.338753,0.000000,0.000000,0.000000,500.000000,1711635058137514,2,0,0,-12992777,-147.647018,35.910000,-1.979282
9.292474,200,0,0,98.417944,38.163920,0.000000,1757.864992,116615.621717,138.338753,0.000000,0.000000,0.000000,500.000000,1711635058137514,3,0,0,13009711,147.007858,35.910000,1.972486
9.292474,200,0,0,98.417944,38.163920,0.000000,1757.864992,116615.621717,138.338753,0.000000,0.000000,0.000000,500.000000,1711635058137514,4,0,0,12600275,58.163975,35.910000,0.251524
9.292474,200,0,0,98.417944,38.163920,0.000000,1757.864992,116615.621717,138.338753,0.000000,0.000000,0.000000,500.000000,1711635058275239,1,0,0,-12583789,-54.402290,35.910000,-0.277547
9.292474,200,0,0,98.417944,38.163920,0.000000,1757.864992,116615.621717,138.338753,0.000000,0.000000,0.000000,500.000000,1711635058275239,2,0,0,-12993886,-150.141754,35.910000,-1.940432
9.292474,200,0,0,98.417944,38.163920,0.000000,1757.864992,116615.621717,138.338753,0.000000,0.000000,0.000000,500.000000,1711635058275239,3,0,0,13010817,149.713379,35.910000,1.946640
9.292474,200,0,0,98.417944,38.163920,0.000000,1757.864992,116615.621717,138.338753,0.000000,0.000000,0.000000,500.000000,1711635058275239,4,0,0,12600683,54.402290,35.910000,0.299935
11.601277,200,0,0,85.561877,-35.071805,0.000000,1948.604090,116676.031661,129.846629,0.000000,0.000000,0.000000,500.000000,1711635058399225,1,0,0,-12584181,-42.414516,35.910000,-0.331036
11.601277,200,0,0,85.561877,-35.071805,0.000000,1948.604090,116676.031661,129.846629,0.000000,0.000000,0.000000,500.000000,1711635058399225,2,0,0,-12995171,-156.024826,35.910000,-1.882210
11.601277,200,0,0,85.561877,-35.071805,0.000000,1948.604090,116676.031661,129.846629,0.000000,0.000000,0.000000,500.000000,1711635058399225,3,0,0,13012101,155.808426,35.910000,1.886582
11.601277,200,0,0,85.561877,-35.071805,0.000000,1948.604090,116676.031661,129.846629,0.000000,0.000000,0.000000,500.000000,1711635058399225,4,0,0,12601075,42.414516,35.910000,0.325208
11.601277,200,0,0,85.561877,-35.071805,0.000000,1948.604090,116676.031661,129.846629,0.000000,0.000000,0.000000,500.000000,1711635058526488,1,0,0,-12584562,-40.357391,35.910000,-0.354480
11.601277,200,0,0,85.561877,-35.071805,0.000000,1948.604090,116676.031661,129.846629,0.000000,0.000000,0.000000,500.000000,1711635058526488,2,0,0,-12996349,-156.969009,35.910000,-1.864459
11.601277,200,0,0,85.561877,-35.071805,0.000000,1948.604090,116676.031661,129.846629,0.000000,0.000000,0.000000,500.000000,1711635058526488,3,0,0,13013278,156.969009,35.910000,1.868196
11.601277,200,0,0,85.561877,-35.071805,0.000000,1948.604090,116676.031661,129.846629,0.000000,0.000000,0.000000,500.000000,1711635058526488,4,0,0,12601456,40.357391,35.910000,0.366797
11.601277,200,0,0,85.561877,-35.071805,0.000000,1948.604090,116676.031661,129.846629,0.000000,0.000000,0.000000,500.000000,1711635058649404,1,0,0,-12584923,-38.563828,35.910000,-0.381260
11.601277,200,0,0,85.561877,-35.071805,0.000000,1948.604090,116676.031661,129.846629,0.000000,0.000000,0.000000,500.000000,1711635058649404,2,0,0,-12997512,-157.305557,35.910000,-1.831941
11.601277,200,0,0,85.561877,-35.071805,0.000000,1948.604090,116676.031661,129.846629,0.000000,0.000000,0.000000,500.000000,1711635058649404,3,0,0,13014437,156.651932,35.910000,1.834672
11.601277,200,0,0,85.561877,-35.071805,0.000000,1948.604090,116676.031661,129.846629,0.000000,0.000000,0.000000,500.000000,1711635058649404,4,0,0,12601817,38.563828,35.910000,0.384675
11.601277,200,0,0,85.561877,-35.071805,0.000000,1948.604090,116676.031661,129.846629,0.000000,0.000000,0.000000,500.000000,1711635058775832,1,0,0,-12585277,-35.155811,35.910000,-0.398173
11.601277,200,0,0,85.561877,-35.071805,0.000000,1948.604090,116676.031661,129.846629,0.000000,0.000000,0.000000,500.000000,1711635058775832,2,0,0,-12998697,-156.508469,35.910000,-1.808333
11.601277,200,0,0,85.561877,-35.071805,0.000000,1948.604090,116676.031661,129.846629,0.000000,0.000000,0.000000,500.000000,1711635058775832,3,0,0,13015621,156.508469,35.910000,1.810335
11.601277,200,0,0,85.561877,-35.071805,0.000000,1948.604090,116676.031661,129.846629,0.000000,0.000000,0.000000,500.000000,1711635058775832,4,0,0,12602171,35.155811,35.910000,0.396768
11.601277,200,0,0,85.561877,-35.071805,0.000000,1948.604090,116676.031661,129.846629,0.000000,0.000000,0.000000,500.000000,1711635058925183,1,0,0,-12585627,-33.693001,35.910000,-0.411592
11.601277,200,0,0,85.561877,-35.071805,0.000000,1948.604090,116676.031661,129.846629,0.000000,0.000000,0.000000,500.000000,1711635058925183,2,0,0,-12999896,-154.622147,35.910000,-1.915653
11.601277,200,0,0,85.561877,-35.071805,0.000000,1948.604090,116676.031661,129.846629,0.000000,0.000000,0.000000,500.000000,1711635058925183,3,0,0,13016818,154.622147,35.910000,1.792004
11.601277,200,0,0,85.561877,-35.071805,0.000000,1948.604090,116676.031661,129.846629,0.000000,0.000000,0.000000,500.000000,1711635058925183,4,0,0,12602564,44.924004,35.910000,0.410897
11.601277,200,0,0,85.561877,-35.071805,0.000000,1948.604090,116676.031661,129.846629,0.000000,0.000000,0.000000,500.000000,1711635059063624,1,0,0,-12586057,-43.415718,35.910000,-0.423179
11.601277,200,0,0,85.561877,-35.071805,0.000000,1948.604090,116676.031661,129.846629,0.000000,0.000000,0.000000,500.000000,1711635059063624,2,0,0,-13001255,-116.117775,35.910000,-1.782406
11.601277,200,0,0,85.561877,-35.071805,0.000000,1948.604090,116676.031661,129.846629,0.000000,0.000000,0.000000,500.000000,1711635059063624,3,0,0,13018176,116.117775,35.910000,1.781871
11.601277,200,0,0,85.561877,-35.071805,0.000000,1948.604090,116676.031661,129.846629,0.000000,0.000000,0.000000,500.000000,1711635059063624,4,0,0,12602951,43.415718,35.910000,0.423179
11.601277,200,0,0,85.561877,-35.071805,0.000000,1948.604090,116676.031661,129.846629,0.000000,0.000000,0.000000,500.000000,1711635059204194,1,0,0,-12586434,-43.727371,35.910000,-0.430318
11.601277,200,0,0,85.561877,-35.071805,0.000000,1948.604090,116676.031661,129.846629,0.000000,0.000000,0.000000,500.000000,1711635059204194,2,0,0,-13002601,-125.295731,35.910000,-1.775643
11.601277,200,0,0,85.561877,-35.071805,0.000000,1948.604090,116676.031661,129.846629,0.000000,0.000000,0.000000,500.000000,1711635059204194,3,0,0,13019522,125.295731,35.910000,1.772780
11.601277,200,0,0,85.561877,-35.071805,0.000000,1948.604090,116676.031661,129.846629,0.000000,0.000000,0.000000,500.000000,1711635059204194,4,0,0,12603328,43.727371,35.910000,0.430318
11.601277,200,0,0,85.561877,-35.071805,0.000000,1948.604090,116676.031661,129.846629,0.000000,0.000000,0.000000,500.000000,1711635059329297,1,0,0,-12586812,-44.452736,35.910000,-0.438113
11.601277,200,0,0,85.561877,-35.071805,0.000000,1948.604090,116676.031661,129.846629,0.000000,0.000000,0.000000,500.000000,1711635059329297,2,0,0,-13003967,-129.083908,35.910000,-1.766564
11.601277,200,0,0,85.561877,-35.071805,0.000000,1948.604090,116676.031661,129.846629,0.000000,0.000000,0.000000,500.000000,1711635059329297,3,0,0,13020887,128.870193,35.910000,1.767974
11.601277,200,0,0,85.561877,-35.071805,0.000000,1948.604090,116676.031661,129.846629,0.000000,0.000000,0.000000,500.000000,1711635059329297,4,0,0,12603706,44.452736,35.910000,0.438113
11.601277,200,0,0,85.561877,-35.071805,0.000000,1948.604090,116676.031661,129.846629,0.000000,0.000000,0.000000,500.000000,1711635059453629,1,0,0,-12587146,-44.799854,35.910000,-0.442191
11.601277,200,0,0,85.561877,-35.071805,0.000000,1948.604090,116676.031661,129.846629,0.000000,0.000000,0.000000,500.000000,1711635059453629,2,0,0,-13005191,-132.256027,35.910000,-1.761867
11.601277,200,0,0,85.561877,-35.071805,0.000000,1948.604090,116676.031661,129.846629,0.000000,0.000000,0.000000,500.000000,1711635059453629,3,0,0,13022111,132.256027,35.910000,1.763243
11.601277,200,0,0,85.561877,-35.071805,0.000000,1948.604090,116676.031661,129.846629,0.000000,0.000000,0.000000,500.000000,1711635059453629,4,0,0,12604040,44.799854,35.910000,0.442984
11.601277,200,0,0,85.561877,-35.071805,0.000000,1948.604090,116676.031661,129.846629,0.000000,0.000000,0.000000,500.000000,1711635059599979,1,0,0,-12587578,-47.733685,35.910000,-3.291598
11.601277,200,0,0,85.561877,-35.071805,0.000000,1948.604090,116676.031661,129.846629,0.000000,0.000000,0.000000,500.000000,1711635059599979,2,0,0,-13006466,-122.227165,35.910000,0.962616
11.601277,200,0,0,85.561877,-35.071805,0.000000,1948.604090,116676.031661,129.846629,0.000000,0.000000,0.000000,500.000000,1711635059599979,3,0,0,13023384,122.046356,35.910000,-1.131463
11.601277,200,0,0,85.561877,-35.071805,0.000000,1948.604090,116676.031661,129.846629,0.000000,0.000000,0.000000,500.000000,1711635059599979,4,0,0,12604472,47.733685,35.910000,3.165902
11.601277,200,0,0,85.561877,-35.071805,0.000000,1948.604090,116676.031661,129.846629,0.000000,0.000000,0.000000,500.000000,1711635059724593,1,0,0,-12588151,-64.011353,35.910000,-3.019210
11.601277,200,0,0,85.561877,-35.071805,0.000000,1948.604090,116676.031661,129.846629,0.000000,0.000000,0.000000,500.000000,1711635059724593,2,0,0,-13007420,-95.277618,35.910000,0.667170
11.601277,200,0,0,85.561877,-35.071805,0.000000,1948.604090,116676.031661,129.846629,0.000000,0.000000,0.000000,500.000000,1711635059724593,3,0,0,13024451,119.149841,35.910000,-0.651755
11.601277,200,0,0,85.561877,-35.071805,0.000000,1948.604090,116676.031661,129.846629,0.000000,0.000000,0.000000,500.000000,1711635059724593,4,0,0,12605045,64.011353,35.910000,2.869802
11.601277,200,0,0,85.561877,-35.071805,0.000000,1948.604090,116676.031661,129.846629,0.000000,0.000000,0.000000,500.000000,1711635059859929,1,0,0,-12588976,-89.184914,35.910000,-2.687958
11.601277,200,0,0,85.561877,-35.071805,0.000000,1948.604090,116676.031661,129.846629,0.000000,0.000000,0.000000,500.000000,1711635059859929,2,0,0,-13008337,-72.162071,35.910000,0.412630
11.601277,200,0,0,85.561877,-35.071805,0.000000,1948.604090,116676.031661,129.846629,0.000000,0.000000,0.000000,500.000000,1711635059859929,3,0,0,13025255,72.162071,35.910000,-0.368601
11.601277,200,0,0,85.561877,-35.071805,0.000000,1948.604090,116676.031661,129.846629,0.000000,0.000000,0.000000,500.000000,1711635059859929,4,0,0,12605870,71.792007,35.910000,2.687958
11.601277,200,0,0,85.561877,-35.071805,0.000000,1948.604090,116676.031661,129.846629,0.000000,0.000000,0.000000,500.000000,1711635060004730,1,0,0,-12589824,-114.239655,35.910000,-3.682688
11.601277,200,0,0,85.561877,-35.071805,0.000000,1948.604090,116676.031661,129.846629,0.000000,0.000000,0.000000,500.000000,1711635060004730,2,0,0,-13009033,-71.162224,35.910000,0.226214
11.601277,200,0,0,85.561877,-35.071805,0.000000,1948.604090,116676.031661,129.846629,0.000000,0.000000,0.000000,500.000000,1711635060004730,3,0,0,13025951,71.162224,35.910000,-0.158487
11.601277,200,0,0,85.561877,-35.071805,0.000000,1948.604090,116676.031661,129.846629,0.000000,0.000000,0.000000,500.000000,1711635060004730,4,0,0,12606718,92.067444,35.910000,2.428345
11.601277,200,0,0,85.561877,-35.071805,0.000000,1948.604090,116676.031661,129.846629,0.000000,0.000000,0.000000,500.000000,1711635060158995,1,0,0,-12591028,-124.420418,35.910000,-2.248941
11.601277,200,0,0,85.561877,-35.071805,0.000000,1948.604090,116676.031661,129.846629,0.000000,0.000000,0.000000,500.000000,1711635060158995,2,0,0,-13009798,-58.598003,35.910000,0.031590
