CurrentTime,PlatformType,PlatformDirection,PlatformMovementType,PlayerVelocity.x,PlayerVelocity.y,PlayerVelocity.z,PlayerPosition.x,PlayerPosition.y,PlayerPosition.z,PlayerRotation.Pitch,PlayerRotation.Roll,PlayerRotation.Yaw,PlayerCurrentSpeed,UnixTimeStamp [us],ControllerId,MotorFlags,HallPosition,EncoderPosition,MotorVelocity,MotorVoltage,MotorCurrent 
2.040353,0,0,250,699.538723,-25.408179,0.000000,421.517693,116588.044939,138.911696,0.000000,358.040039,357.725000,700.000000,1711636182154920,1,0,0,-19615415,-85.646683,35.910000,-1.304241
2.040353,0,0,250,699.538723,-25.408179,0.000000,421.517693,116588.044939,138.911696,0.000000,358.040039,357.725000,700.000000,1711636182154920,2,0,0,-20160231,-86.956261,35.910000,-1.276655
2.040353,0,0,250,699.538723,-25.408179,0.000000,421.517693,116588.044939,138.911696,0.000000,358.040039,357.725000,700.000000,1711636182154920,3,0,0,20177717,117.600487,35.910000,1.277510
2.040353,0,0,250,699.538723,-25.408179,0.000000,421.517693,116588.044939,138.911696,0.000000,358.040039,357.725000,700.000000,1711636182154920,4,0,0,19634401,85.646683,35.910000,1.299653
2.040353,0,0,250,699.538723,-25.408179,0.000000,421.517693,116588.044939,138.911696,0.000000,358.040039,357.725000,700.000000,1711636182327891,1,0,0,-19616650,-106.457932,35.910000,-1.295921
2.040353,0,0,250,699.538723,-25.408179,0.000000,421.517693,116588.044939,138.911696,0.000000,358.040039,357.725000,700.000000,1711636182327891,2,0,0,-20161481,-107.563576,35.910000,-1.278807
2.040353,0,0,250,699.538723,-25.408179,0.000000,421.517693,116588.044939,138.911696,0.000000,358.040039,357.725000,700.000000,1711636182327891,3,0,0,20178850,107.563576,35.910000,1.290365
2.040353,0,0,250,699.538723,-25.408179,0.000000,421.517693,116588.044939,138.911696,0.000000,358.040039,357.725000,700.000000,1711636182327891,4,0,0,19635636,106.457932,35.910000,1.295975
2.040353,0,0,250,699.538723,-25.408179,0.000000,421.517693,116588.044939,138.911696,0.000000,358.040039,357.725000,700.000000,1711636182488668,1,0,0,-19617875,-105.320976,35.910000,-1.327497
2.040353,0,0,250,699.538723,-25.408179,0.000000,421.517693,116588.044939,138.911696,0.000000,358.040039,357.725000,700.000000,1711636182488668,2,0,0,-20162717,-106.271240,35.910000,-1.279353
2.040353,0,0,250,699.538723,-25.408179,0.000000,421.517693,116588.044939,138.911696,0.000000,358.040039,357.725000,700.000000,1711636182488668,3,0,0,20180086,106.271240,35.910000,1.279336
2.040353,0,0,250,699.538723,-25.408179,0.000000,421.517693,116588.044939,138.911696,0.000000,358.040039,357.725000,700.000000,1711636182488668,4,0,0,19636861,105.320976,35.910000,1.290990
2.040353,0,0,250,699.538723,-25.408179,0.000000,421.517693,116588.044939,138.911696,0.000000,358.040039,357.725000,700.000000,1711636182612955,1,0,0,-19618767,-116.854973,35.910000,-1.289883
2.040353,0,0,250,699.538723,-25.408179,0.000000,421.517693,116588.044939,138.911696,0.000000,358.040039,357.725000,700.000000,1711636182612955,2,0,0,-20163613,-117.377815,35.910000,-1.279917
2.040353,0,0,250,699.538723,-25.408179,0.000000,421.517693,116588.044939,138.911696,0.000000,358.040039,357.725000,700.000000,1711636182612955,3,0,0,20180982,117.377815,35.910000,1.279958
2.040353,0,0,250,699.538723,-25.408179,0.000000,421.517693,116588.044939,138.911696,0.000000,358.040039,357.725000,700.000000,1711636182612955,4,0,0,19637753,116.854973,35.910000,1.289498
2.040353,0,0,250,699.538723,-25.408179,0.000000,421.517693,116588.044939,138.911696,0.000000,358.040039,357.725000,700.000000,1711636182738835,1,0,0,-19619660,-96.421310,35.910000,-1.287986
2.040353,0,0,250,699.538723,-25.408179,0.000000,421.517693,116588.044939,138.911696,0.000000,358.040039,357.725000,700.000000,1711636182738835,2,0,0,-20164623,-121.331940,35.910000,-1.281128
2.040353,0,0,250,699.538723,-25.408179,0.000000,421.517693,116588.044939,138.911696,0.000000,358.040039,357.725000,700.000000,1711636182738835,3,0,0,20181992,121.331940,35.910000,1.281128
2.040353,0,0,250,699.538723,-25.408179,0.000000,421.517693,116588.044939,138.911696,0.000000,358.040039,357.725000,700.000000,1711636182738835,4,0,0,19638758,120.472954,35.910000,1.287979
2.040353,0,0,250,699.538723,-25.408179,0.000000,421.517693,116588.044939,138.911696,0.000000,358.040039,357.725000,700.000000,1711636182864828,1,0,0,-19620669,-116.991547,35.910000,-1.286637
2.040353,0,0,250,699.538723,-25.408179,0.000000,421.517693,116588.044939,138.911696,0.000000,358.040039,357.725000,700.000000,1711636182864828,2,0,0,-20165522,-117.202339,35.910000,-1.281817
2.040353,0,0,250,699.538723,-25.408179,0.000000,421.517693,116588.044939,138.911696,0.000000,358.040039,357.725000,700.000000,1711636182864828,3,0,0,20182891,117.202339,35.910000,1.281817
2.040353,0,0,250,699.538723,-25.408179,0.000000,421.517693,116588.044939,138.911696,0.000000,358.040039,357.725000,700.000000,1711636182864828,4,0,0,19639655,116.991547,35.910000,1.286026
2.040353,0,0,250,699.538723,-25.408179,0.000000,421.517693,116588.044939,138.911696,0.000000,358.040039,357.725000,700.000000,1711636183033066,1,0,0,-19621578,-102.167137,35.910000,-1.309380
2.040353,0,0,250,699.538723,-25.408179,0.000000,421.517693,116588.044939,138.911696,0.000000,358.040039,357.725000,700.000000,1711636183033066,2,0,0,-20166660,-143.033997,35.910000,-1.280717
2.040353,0,0,250,699.538723,-25.408179,0.000000,421.517693,116588.044939,138.911696,0.000000,358.040039,357.725000,700.000000,1711636183033066,3,0,0,20184029,143.033997,35.910000,1.280717
2.040353,0,0,250,699.538723,-25.408179,0.000000,421.517693,116588.044939,138.911696,0.000000,358.040039,357.725000,700.000000,1711636183033066,4,0,0,19640792,143.033997,35.910000,1.284668
2.040353,0,0,250,699.538723,-25.408179,0.000000,421.517693,116588.044939,138.911696,0.000000,358.040039,357.725000,700.000000,1711636183158450,1,0,0,-19622697,-95.248985,35.910000,-1.284290
2.040353,0,0,250,699.538723,-25.408179,0.000000,421.517693,116588.044939,138.911696,0.000000,358.040039,357.725000,700.000000,1711636183158450,2,0,0,-20167662,-119.007721,35.910000,-1.281974
2.040353,0,0,250,699.538723,-25.408179,0.000000,421.517693,116588.044939,138.911696,0.000000,358.040039,357.725000,700.000000,1711636183158450,3,0,0,20185031,119.007721,35.910000,1.281758
2.040353,0,0,250,699.538723,-25.408179,0.000000,421.517693,116588.044939,138.911696,0.000000,358.040039,357.725000,700.000000,1711636183158450,4,0,0,19641683,95.248985,35.910000,1.284981
2.040353,0,0,250,699.538723,-25.408179,0.000000,421.517693,116588.044939,138.911696,0.000000,358.040039,357.725000,700.000000,1711636183305737,1,0,0,-19623611,-95.592400,35.910000,-1.284421
2.040353,0,0,250,699.538723,-25.408179,0.000000,421.517693,116588.044939,138.911696,0.000000,358.040039,357.725000,700.000000,1711636183305737,2,0,0,-20168466,-95.592400,35.910000,-1.281674
2.040353,0,0,250,699.538723,-25.408179,0.000000,421.517693,116588.044939,138.911696,0.000000,358.040039,357.725000,700.000000,1711636183305737,3,0,0,20185949,119.647385,35.910000,1.281786
2.040353,0,0,250,699.538723,-25.408179,0.000000,421.517693,116588.044939,138.911696,0.000000,358.040039,357.725000,700.000000,1711636183305737,4,0,0,19642597,95.592400,35.910000,1.284045
2.040353,0,0,250,699.538723,-25.408179,0.000000,421.517693,116588.044939,138.911696,0.000000,358.040039,357.725000,700.000000,1711636183453071,1,0,0,-19624738,-103.824425,35.910000,-1.284470
2.040353,0,0,250,699.538723,-25.408179,0.000000,421.517693,116588.044939,138.911696,0.000000,358.040039,357.725000,700.000000,1711636183453071,2,0,0,-20169594,-104.010155,35.910000,-1.281636
2.040353,0,0,250,699.538723,-25.408179,0.000000,421.517693,116588.044939,138.911696,0.000000,358.040039,357.725000,700.000000,1711636183453071,3,0,0,20186962,84.322517,35.910000,1.281824
2.040353,0,0,250,699.538723,-25.408179,0.000000,421.517693,116588.044939,138.911696,0.000000,358.040039,357.725000,700.000000,1711636183453071,4,0,0,19643724,103.824425,35.910000,1.283324
3.283220,0,0,0,699.943353,-8.905186,0.000000,1267.575450,116556.808667,139.112747,0.000000,358.740051,359.125000,700.000000,1711636183579478,1,0,0,-19625765,-96.138268,35.910000,-1.283202
3.283220,0,0,0,699.943353,-8.905186,0.000000,1267.575450,116556.808667,139.112747,0.000000,358.740051,359.125000,700.000000,1711636183579478,2,0,0,-20170622,-96.138268,35.910000,-1.282124
3.283220,0,0,0,699.943353,-8.905186,0.000000,1267.575450,116556.808667,139.112747,0.000000,358.740051,359.125000,700.000000,1711636183579478,3,0,0,20187990,96.138268,35.910000,1.281509
3.283220,0,0,0,699.943353,-8.905186,0.000000,1267.575450,116556.808667,139.112747,0.000000,358.740051,359.125000,700.000000,1711636183579478,4,0,0,19644751,96.138268,35.910000,1.283202
3.283220,0,0,0,699.943353,-8.905186,0.000000,1267.575450,116556.808667,139.112747,0.000000,358.740051,359.125000,700.000000,1711636183705231,1,0,0,-19626667,-95.191292,35.910000,-1.283196
3.283220,0,0,0,699.943353,-8.905186,0.000000,1267.575450,116556.808667,139.112747,0.000000,358.740051,359.125000,700.000000,1711636183705231,2,0,0,-20171526,-95.614365,35.910000,-1.281921
3.283220,0,0,0,699.943353,-8.905186,0.000000,1267.575450,116556.808667,139.112747,0.000000,358.740051,359.125000,700.000000,1711636183705231,3,0,0,20188894,95.614365,35.910000,1.281720
3.283220,0,0,0,699.943353,-8.905186,0.000000,1267.575450,116556.808667,139.112747,0.000000,358.740051,359.125000,700.000000,1711636183705231,4,0,0,19645653,95.191292,35.910000,1.283196
3.283220,0,0,0,699.943353,-8.905186,0.000000,1267.575450,116556.808667,139.112747,0.000000,358.740051,359.125000,700.000000,1711636183828786,1,0,0,-19627564,-95.817307,35.910000,-1.282645
3.283220,0,0,0,699.943353,-8.905186,0.000000,1267.575450,116556.808667,139.112747,0.000000,358.740051,359.125000,700.000000,1711636183828786,2,0,0,-20172423,-96.033112,35.910000,-1.282805
3.283220,0,0,0,699.943353,-8.905186,0.000000,1267.575450,116556.808667,139.112747,0.000000,358.740051,359.125000,700.000000,1711636183828786,3,0,0,20189791,96.033112,35.910000,1.281951
3.283220,0,0,0,699.943353,-8.905186,0.000000,1267.575450,116556.808667,139.112747,0.000000,358.740051,359.125000,700.000000,1711636183828786,4,0,0,19646550,96.033112,35.910000,1.282645
3.283220,0,0,0,699.943353,-8.905186,0.000000,1267.575450,116556.808667,139.112747,0.000000,358.740051,359.125000,700.000000,1711636183956138,1,0,0,-19628483,-120.025360,35.910000,-1.283193
3.283220,0,0,0,699.943353,-8.905186,0.000000,1267.575450,116556.808667,139.112747,0.000000,358.740051,359.125000,700.000000,1711636183956138,2,0,0,-20173342,-95.185326,35.910000,-1.281336
3.283220,0,0,0,699.943353,-8.905186,0.000000,1267.575450,116556.808667,139.112747,0.000000,358.740051,359.125000,700.000000,1711636183956138,3,0,0,20190710,95.185326,35.910000,1.282580
3.283220,0,0,0,699.943353,-8.905186,0.000000,1267.575450,116556.808667,139.112747,0.000000,358.740051,359.125000,700.000000,1711636183956138,4,0,0,19647469,95.185326,35.910000,1.283193
3.283220,0,0,0,699.943353,-8.905186,0.000000,1267.575450,116556.808667,139.112747,0.000000,358.740051,359.125000,700.000000,1711636184080702,1,0,0,-19629392,-117.720543,35.910000,-1.281791
3.283220,0,0,0,699.943353,-8.905186,0.000000,1267.575450,116556.808667,139.112747,0.000000,358.740051,359.125000,700.000000,1711636184080702,2,0,0,-20174252,-117.980408,35.910000,-1.281630
3.283220,0,0,0,699.943353,-8.905186,0.000000,1267.575450,116556.808667,139.112747,0.000000,358.740051,359.125000,700.000000,1711636184080702,3,0,0,20191620,87.835640,35.910000,1.282111
3.283220,0,0,0,699.943353,-8.905186,0.000000,1267.575450,116556.808667,139.112747,0.000000,358.740051,359.125000,700.000000,1711636184080702,4,0,0,19648378,117.720543,35.910000,1.281791
3.283220,0,0,0,699.943353,-8.905186,0.000000,1267.575450,116556.808667,139.112747,0.000000,358.740051,359.125000,700.000000,1711636184217609,1,0,0,-19630290,-117.973434,35.910000,-1.281475
3.283220,0,0,0,699.943353,-8.905186,0.000000,1267.575450,116556.808667,139.112747,0.000000,358.740051,359.125000,700.000000,1711636184217609,2,0,0,-20175150,-117.973434,35.910000,-1.281802
3.283220,0,0,0,699.943353,-8.905186,0.000000,1267.575450,116556.808667,139.112747,0.000000,358.740051,359.125000,700.000000,1711636184217609,3,0,0,20192518,87.118843,35.910000,1.281653
3.283220,0,0,0,699.943353,-8.905186,0.000000,1267.575450,116556.808667,139.112747,0.000000,358.740051,359.125000,700.000000,1711636184217609,4,0,0,19649276,117.973434,35.910000,1.281475
3.283220,0,0,0,699.943353,-8.905186,0.000000,1267.575450,116556.808667,139.112747,0.000000,358.740051,359.125000,700.000000,1711636184343578,1,0,0,-19631184,-117.411354,35.910000,-1.282340
3.283220,0,0,0,699.943353,-8.905186,0.000000,1267.575450,116556.808667,139.112747,0.000000,358.740051,359.125000,700.000000,1711636184343578,2,0,0,-20176044,-117.411354,35.910000,-1.281975
3.283220,0,0,0,699.943353,-8.905186,0.000000,1267.575450,116556.808667,139.112747,0.000000,358.740051,359.125000,700.000000,1711636184343578,3,0,0,20193412,87.929207,35.910000,1.281811
3.283220,0,0,0,699.943353,-8.905186,0.000000,1267.575450,116556.808667,139.112747,0.000000,358.740051,359.125000,700.000000,1711636184343578,4,0,0,19650170,117.411354,35.910000,1.282340
3.283220,0,0,0,699.943353,-8.905186,0.000000,1267.575450,116556.808667,139.112747,0.000000,358.740051,359.125000,700.000000,1711636184494156,1,0,0,-19632317,-106.062988,35.910000,-1.282120
3.283220,0,0,0,699.943353,-8.905186,0.000000,1267.575450,116556.808667,139.112747,0.000000,358.740051,359.125000,700.000000,1711636184494156,2,0,0,-20177177,-106.062988,35.910000,-1.281298
3.283220,0,0,0,699.943353,-8.905186,0.000000,1267.575450,116556.808667,139.112747,0.000000,358.740051,359.125000,700.000000,1711636184494156,3,0,0,20194657,104.971169,35.910000,1.281298
3.283220,0,0,0,699.943353,-8.905186,0.000000,1267.575450,116556.808667,139.112747,0.000000,358.740051,359.125000,700.000000,1711636184494156,4,0,0,19651303,106.062988,35.910000,1.282123
3.283220,0,0,0,699.943353,-8.905186,0.000000,1267.575450,116556.808667,139.112747,0.000000,358.740051,359.125000,700.000000,1711636184619645,1,0,0,-19633221,-96.002914,35.910000,-1.282404
3.283220,0,0,0,699.943353,-8.905186,0.000000,1267.575450,116556.808667,139.112747,0.000000,358.740051,359.125000,700.000000,1711636184619645,2,0,0,-20178081,-96.002914,35.910000,-1.281636
3.283220,0,0,0,699.943353,-8.905186,0.000000,1267.575450,116556.808667,139.112747,0.000000,358.740051,359.125000,700.000000,1711636184619645,3,0,0,20195563,120.109375,35.910000,1.281636
3.283220,0,0,0,699.943353,-8.905186,0.000000,1267.575450,116556.808667,139.112747,0.000000,358.740051,359.125000,700.000000,1711636184619645,4,0,0,19652207,96.002914,35.910000,1.282160
3.283220,0,0,0,699.943353,-8.905186,0.000000,1267.575450,116556.808667,139.112747,0.000000,358.740051,359.125000,700.000000,1711636184745363,1,0,0,-19634123,-96.103737,35.910000,-1.282248
3.283220,0,0,0,699.943353,-8.905186,0.000000,1267.575450,116556.808667,139.112747,0.000000,358.740051,359.125000,700.000000,1711636184745363,2,0,0,-20178983,-96.103737,35.910000,-1.282049
3.283220,0,0,0,699.943353,-8.905186,0.000000,1267.575450,116556.808667,139.112747,0.000000,358.740051,359.125000,700.000000,1711636184745363,3,0,0,20196464,120.076637,35.910000,1.282159
3.283220,0,0,0,699.943353,-8.905186,0.000000,1267.575450,116556.808667,139.112747,0.000000,358.740051,359.125000,700.000000,1711636184745363,4,0,0,19653109,96.103737,35.910000,1.282166
5.525650,0,0,0,699.957986,7.669309,0.000000,2791.956816,116589.121662,134.352774,0.000000,359.160065,0.350000,700.000000,1711636184903185,1,0,0,-19635021,-95.490089,35.910000,-1.282500
5.525650,0,0,0,699.957986,7.669309,0.000000,2791.956816,116589.121662,134.352774,0.000000,359.160065,0.350000,700.000000,1711636184903185,2,0,0,-20179881,-95.490089,35.910000,-1.299020
5.525650,0,0,0,699.957986,7.669309,0.000000,2791.956816,116589.121662,134.352774,0.000000,359.160065,0.350000,700.000000,1711636184903185,3,0,0,20197364,120.167305,35.910000,1.299020
5.525650,0,0,0,699.957986,7.669309,0.000000,2791.956816,116589.121662,134.352774,0.000000,359.160065,0.350000,700.000000,1711636184903185,4,0,0,19654007,95.490089,35.910000,1.282049
5.525650,0,0,0,699.957986,7.669309,0.000000,2791.956816,116589.121662,134.352774,0.000000,359.160065,0.350000,700.000000,1711636185029244,1,0,0,-19636153,-95.785507,35.910000,-1.282493
5.525650,0,0,0,699.957986,7.669309,0.000000,2791.956816,116589.121662,134.352774,0.000000,359.160065,0.350000,700.000000,1711636185029244,2,0,0,-20181129,-120.313362,35.910000,-1.281971
5.525650,0,0,0,699.957986,7.669309,0.000000,2791.956816,116589.121662,134.352774,0.000000,359.160065,0.350000,700.000000,1711636185029244,3,0,0,20198497,120.313362,35.910000,1.281971
5.525650,0,0,0,699.957986,7.669309,0.000000,2791.956816,116589.121662,134.352774,0.000000,359.160065,0.350000,700.000000,1711636185029244,4,0,0,19655139,95.785507,35.910000,1.282180
5.525650,0,0,0,699.957986,7.669309,0.000000,2791.956816,116589.121662,134.352774,0.000000,359.160065,0.350000,700.000000,1711636185154887,1,0,0,-19637055,-94.834091,35.910000,-1.283132
5.525650,0,0,0,699.957986,7.669309,0.000000,2791.956816,116589.121662,134.352774,0.000000,359.160065,0.350000,700.000000,1711636185154887,2,0,0,-20182035,-120.024391,35.910000,-1.282058
5.525650,0,0,0,699.957986,7.669309,0.000000,2791.956816,116589.121662,134.352774,0.000000,359.160065,0.350000,700.000000,1711636185154887,3,0,0,20199403,120.024391,35.910000,1.282058
5.525650,0,0,0,699.957986,7.669309,0.000000,2791.956816,116589.121662,134.352774,0.000000,359.160065,0.350000,700.000000,1711636185154887,4,0,0,19656041,94.834091,35.910000,1.282108
5.525650,0,0,0,699.957986,7.669309,0.000000,2791.956816,116589.121662,134.352774,0.000000,359.160065,0.350000,700.000000,1711636185288923,1,0,0,-19638099,-124.283852,35.910000,-2.342788
5.525650,0,0,0,699.957986,7.669309,0.000000,2791.956816,116589.121662,134.352774,0.000000,359.160065,0.350000,700.000000,1711636185288923,2,0,0,-20182909,-89.196915,35.910000,0.488567
5.525650,0,0,0,699.957986,7.669309,0.000000,2791.956816,116589.121662,134.352774,0.000000,359.160065,0.350000,700.000000,1711636185288923,3,0,0,20200277,89.196915,35.910000,-0.561704
5.525650,0,0,0,699.957986,7.669309,0.000000,2791.956816,116589.121662,134.352774,0.000000,359.160065,0.350000,700.000000,1711636185288923,4,0,0,19657085,99.342537,35.910000,2.342788
5.525650,0,0,0,699.957986,7.669309,0.000000,2791.956816,116589.121662,134.352774,0.000000,359.160065,0.350000,700.000000,1711636185448773,1,0,0,-19639077,-130.504196,35.910000,-2.183809
5.525650,0,0,0,699.957986,7.669309,0.000000,2791.956816,116589.121662,134.352774,0.000000,359.160065,0.350000,700.000000,1711636185448773,2,0,0,-20183656,-94.457672,35.910000,0.411151
5.525650,0,0,0,699.957986,7.669309,0.000000,2791.956816,116589.121662,134.352774,0.000000,359.160065,0.350000,700.000000,1711636185448773,3,0,0,20201024,70.777473,35.910000,-1.505305
5.525650,0,0,0,699.957986,7.669309,0.000000,2791.956816,116589.121662,134.352774,0.000000,359.160065,0.350000,700.000000,1711636185448773,4,0,0,19658063,130.504196,35.910000,2.183809
5.525650,0,0,0,699.957986,7.669309,0.000000,2791.956816,116589.121662,134.352774,0.000000,359.160065,0.350000,700.000000,1711636185574873,1,0,0,-19640403,-112.132339,35.910000,-2.055309
5.525650,0,0,0,699.957986,7.669309,0.000000,2791.956816,116589.121662,134.352774,0.000000,359.160065,0.350000,700.000000,1711636185574873,2,0,0,-20184471,-64.643456,35.910000,0.143139
5.525650,0,0,0,699.957986,7.669309,0.000000,2791.956816,116589.121662,134.352774,0.000000,359.160065,0.350000,700.000000,1711636185574873,3,0,0,20201839,64.643456,35.910000,-0.093149
5.525650,0,0,0,699.957986,7.669309,0.000000,2791.956816,116589.121662,134.352774,0.000000,359.160065,0.350000,700.000000,1711636185574873,4,0,0,19659389,112.132339,35.910000,2.079776
5.525650,0,0,0,699.957986,7.669309,0.000000,2791.956816,116589.121662,134.352774,0.000000,359.160065,0.350000,700.000000,1711636185701409,1,0,0,-19641495,-114.651329,35.910000,-1.988973
5.525650,0,0,0,699.957986,7.669309,0.000000,2791.956816,116589.121662,134.352774,0.000000,359.160065,0.350000,700.000000,1711636185701409,2,0,0,-20185035,-57.117207,35.910000,-0.030094
5.525650,0,0,0,699.957986,7.669309,0.000000,2791.956816,116589.121662,134.352774,0.000000,359.160065,0.350000,700.000000,1711636185701409,3,0,0,20202403,57.117207,35.910000,0.033702
5.525650,0,0,0,699.957986,7.669309,0.000000,2791.956816,116589.121662,134.352774,0.000000,359.160065,0.350000,700.000000,1711636185701409,4,0,0,19660481,114.651329,35.910000,1.981810
5.525650,0,0,0,699.957986,7.669309,0.000000,2791.956816,116589.121662,134.352774,0.000000,359.160065,0.350000,700.000000,1711636185827182,1,0,0,-19642616,-109.376274,35.910000,-1.944436
5.525650,0,0,0,699.957986,7.669309,0.000000,2791.956816,116589.121662,134.352774,0.000000,359.160065,0.350000,700.000000,1711636185827182,2,0,0,-20185545,-47.949314,35.910000,-0.137041
5.525650,0,0,0,699.957986,7.669309,0.000000,2791.956816,116589.121662,134.352774,0.000000,359.160065,0.350000,700.000000,1711636185827182,3,0,0,20202913,47.949314,35.910000,0.123501
5.525650,0,0,0,699.957986,7.669309,0.000000,2791.956816,116589.121662,134.352774,0.000000,359.160065,0.350000,700.000000,1711636185827182,4,0,0,19661602,109.376274,35.910000,1.921812
5.525650,0,0,0,699.957986,7.669309,0.000000,2791.956816,116589.121662,134.352774,0.000000,359.160065,0.350000,700.000000,1711636185965896,1,0,0,-19643766,-114.848366,35.910000,-1.886086
5.525650,0,0,0,699.957986,7.669309,0.000000,2791.956816,116589.121662,134.352774,0.000000,359.160065,0.350000,700.000000,1711636185965896,2,0,0,-20186014,-45.362484,35.910000,-0.188747
5.525650,0,0,0,699.957986,7.669309,0.000000,2791.956816,116589.121662,134.352774,0.000000,359.160065,0.350000,700.000000,1711636185965896,3,0,0,20203382,45.362484,35.910000,0.203256
5.525650,0,0,0,699.957986,7.669309,0.000000,2791.956816,116589.121662,134.352774,0.000000,359.160065,0.350000,700.000000,1711636185965896,4,0,0,19662752,114.848366,35.910000,1.894543
5.525650,0,0,0,699.957986,7.669309,0.000000,2791.956816,116589.121662,134.352774,0.000000,359.160065,0.350000,700.000000,1711636186104413,1,0,0,-19644928,-114.220917,35.910000,-1.856983
5.525650,0,0,0,699.957986,7.669309,0.000000,2791.956816,116589.121662,134.352774,0.000000,359.160065,0.350000,700.000000,1711636186104413,2,0,0,-20186448,-41.582729,35.910000,-0.253057
5.525650,0,0,0,699.957986,7.669309,0.000000,2791.956816,116589.121662,134.352774,0.000000,359.160065,0.350000,700.000000,1711636186104413,3,0,0,20203867,55.005001,35.910000,0.264681
5.525650,0,0,0,699.957986,7.669309,0.000000,2791.956816,116589.121662,134.352774,0.000000,359.160065,0.350000,700.000000,1711636186104413,4,0,0,19663914,114.220917,35.910000,1.858589
5.525650,0,0,0,699.957986,7.669309,0.000000,2791.956816,116589.121662,134.352774,0.000000,359.160065,0.350000,700.000000,1711636186229139,1,0,0,-19646378,-125.170479,35.910000,-1.833594
5.525650,0,0,0,699.957986,7.669309,0.000000,2791.956816,116589.121662,134.352774,0.000000,359.160065,0.350000,700.000000,1711636186229139,2,0,0,-20186950,-42.574993,35.910000,-0.307680
5.525650,0,0,0,699.957986,7.669309,0.000000,2791.956816,116589.121662,134.352774,0.000000,359.160065,0.350000,700.000000,1711636186229139,3,0,0,20204318,42.574993,35.910000,0.316075
5.525650,0,0,0,699.957986,7.669309,0.000000,2791.956816,116589.121662,134.352774,0.000000,359.160065,0.350000,700.000000,1711636186229139,4,0,0,19665364,125.170479,35.910000,1.833594
5.525650,0,0,0,699.957986,7.669309,0.000000,2791.956816,116589.121662,134.352774,0.000000,359.160065,0.350000,700.000000,1711636186373163,1,0,0,-19647697,-120.018150,35.910000,-1.818058
5.525650,0,0,0,699.957986,7.669309,0.000000,2791.956816,116589.121662,134.352774,0.000000,359.160065,0.350000,700.000000,1711636186373163,2,0,0,-20187378,-38.524345,35.910000,-0.331539
5.525650,0,0,0,699.957986,7.669309,0.000000,2791.956816,116589.121662,134.352774,0.000000,359.160065,0.350000,700.000000,1711636186373163,3,0,0,20204796,46.756042,35.910000,0.364716
5.525650,0,0,0,699.957986,7.669309,0.000000,2791.956816,116589.121662,134.352774,0.000000,359.160065,0.350000,700.000000,1711636186373163,4,0,0,19666683,120.018150,35.910000,1.817646
5.525650,0,0,0,699.957986,7.669309,0.000000,2791.956816,116589.121662,134.352774,0.000000,359.160065,0.350000,700.000000,1711636186511610,1,0,0,-19648902,-116.632164,35.910000,-1.796370
5.525650,0,0,0,699.957986,7.669309,0.000000,2791.956816,116589.121662,134.352774,0.000000,359.160065,0.350000,700.000000,1711636186511610,2,0,0,-20187752,-35.808121,35.910000,-0.380144
5.525650,0,0,0,699.957986,7.669309,0.000000,2791.956816,116589.121662,134.352774,0.000000,359.160065,0.350000,700.000000,1711636186511610,3,0,0,20205166,47.573647,35.910000,0.380144
5.525650,0,0,0,699.957986,7.669309,0.000000,2791.956816,116589.121662,134.352774,0.000000,359.160065,0.350000,700.000000,1711636186511610,4,0,0,19667888,116.632164,35.910000,1.789908
5.525650,0,0,0,699.957986,7.669309,0.000000,2791.956816,116589.121662,134.352774,0.000000,359.160065,0.350000,700.000000,1711636186635926,1,0,0,-19650252,-128.597168,35.910000,-1.781628
5.525650,0,0,0,699.957986,7.669309,0.000000,2791.956816,116589.121662,134.352774,0.000000,359.160065,0.350000,700.000000,1711636186635926,2,0,0,-20188154,-37.873043,35.910000,-0.393923
5.525650,0,0,0,699.957986,7.669309,0.000000,2791.956816,116589.121662,134.352774,0.000000,359.160065,0.350000,700.000000,1711636186635926,3,0,0,20205522,37.873043,35.910000,0.395075
5.525650,0,0,0,699.957986,7.669309,0.000000,2791.956816,116589.121662,134.352774,0.000000,359.160065,0.350000,700.000000,1711636186635926,4,0,0,19669238,128.597168,35.910000,1.780470
5.525650,0,0,0,699.957986,7.669309,0.000000,2791.956816,116589.121662,134.352774,0.000000,359.160065,0.350000,700.000000,1711636186783488,1,0,0,-19651458,-128.116501,35.910000,-1.775932
5.525650,0,0,0,699.957986,7.669309,0.000000,2791.956816,116589.121662,134.352774,0.000000,359.160065,0.350000,700.000000,1711636186783488,2,0,0,-20188506,-37.058491,35.910000,-0.325186
5.525650,0,0,0,699.957986,7.669309,0.000000,2791.956816,116589.121662,134.352774,0.000000,359.160065,0.350000,700.000000,1711636186783488,3,0,0,20205874,37.058491,35.910000,0.325186
5.525650,0,0,0,699.957986,7.669309,0.000000,2791.956816,116589.121662,134.352774,0.000000,359.160065,0.350000,700.000000,1711636186783488,4,0,0,19670444,128.116501,35.910000,1.773717
5.525650,0,0,0,699.957986,7.669309,0.000000,2791.956816,116589.121662,134.352774,0.000000,359.160065,0.350000,700.000000,1711636186910126,1,0,0,-19652835,-128.180527,35.910000,-1.769555
5.525650,0,0,0,699.957986,7.669309,0.000000,2791.956816,116589.121662,134.352774,0.000000,359.160065,0.350000,700.000000,1711636186910126,2,0,0,-20188941,-45.612843,35.910000,-0.420630
5.525650,0,0,0,699.957986,7.669309,0.000000,2791.956816,116589.121662,134.352774,0.000000,359.160065,0.350000,700.000000,1711636186910126,3,0,0,20206309,45.612843,35.910000,0.420629
5.525650,0,0,0,699.957986,7.669309,0.000000,2791.956816,116589.121662,134.352774,0.000000,359.160065,0.350000,700.000000,1711636186910126,4,0,0,19671821,128.180527,35.910000,1.766840
6.913659,200,0,0,699.997854,-1.733486,0.000000,3766.163536,116625.520485,159.607243,0.000000,359.160065,0.350000,700.000000,1711636187082091,1,0,0,-19654500,-153.184921,35.910000,-0.460277
6.913659,200,0,0,699.997854,-1.733486,0.000000,3766.163536,116625.520485,159.607243,0.000000,359.160065,0.350000,700.000000,1711636187082091,2,0,0,-20189365,-43.065193,35.910000,-2.277546
6.913659,200,0,0,699.997854,-1.733486,0.000000,3766.163536,116625.520485,159.607243,0.000000,359.160065,0.350000,700.000000,1711636187082091,3,0,0,20206733,43.065193,35.910000,2.167987
6.913659,200,0,0,699.997854,-1.733486,0.000000,3766.163536,116625.520485,159.607243,0.000000,359.160065,0.350000,700.000000,1711636187082091,4,0,0,19673486,153.184921,35.910000,0.474582
6.913659,200,0,0,699.997854,-1.733486,0.000000,3766.163536,116625.520485,159.607243,0.000000,359.160065,0.350000,700.000000,1711636187219483,1,0,0,-19655821,-132.164581,35.910000,-0.648963
6.913659,200,0,0,699.997854,-1.733486,0.000000,3766.163536,116625.520485,159.607243,0.000000,359.160065,0.350000,700.000000,1711636187219483,2,0,0,-20189855,-53.197166,35.910000,-2.034045
6.913659,200,0,0,699.997854,-1.733486,0.000000,3766.163536,116625.520485,159.607243,0.000000,359.160065,0.350000,700.000000,1711636187219483,3,0,0,20207223,53.197166,35.910000,2.005815
6.913659,200,0,0,699.997854,-1.733486,0.000000,3766.163536,116625.520485,159.607243,0.000000,359.160065,0.350000,700.000000,1711636187219483,4,0,0,19674807,132.164581,35.910000,0.648963
6.913659,200,0,0,699.997854,-1.733486,0.000000,3766.163536,116625.520485,159.607243,0.000000,359.160065,0.350000,700.000000,1711636187375901,1,0,0,-19656914,-109.937393,35.910000,-0.794144
6.913659,200,0,0,699.997854,-1.733486,0.000000,3766.163536,116625.520485,159.607243,0.000000,359.160065,0.350000,700.000000,1711636187375901,2,0,0,-20190392,-56.950489,35.910000,-2.746157
6.913659,200,0,0,699.997854,-1.733486,0.000000,3766.163536,116625.520485,159.607243,0.000000,359.160065,0.350000,700.000000,1711636187375901,3,0,0,20207760,56.950489,35.910000,1.725958
6.913659,200,0,0,699.997854,-1.733486,0.000000,3766.163536,116625.520485,159.607243,0.000000,359.160065,0.350000,700.000000,1711636187375901,4,0,0,19675900,109.937393,35.910000,0.788419
6.913659,200,0,0,699.997854,-1.733486,0.000000,3766.163536,116625.520485,159.607243,0.000000,359.160065,0.350000,700.000000,1711636187514296,1,0,0,-19658186,-104.784821,35.910000,-0.912707
6.913659,200,0,0,699.997854,-1.733486,0.000000,3766.163536,116625.520485,159.607243,0.000000,359.160065,0.350000,700.000000,1711636187514296,2,0,0,-20191155,-66.168900,35.910000,-1.636860
6.913659,200,0,0,699.997854,-1.733486,0.000000,3766.163536,116625.520485,159.607243,0.000000,359.160065,0.350000,700.000000,1711636187514296,3,0,0,20208523,66.168900,35.910000,1.632694
6.913659,200,0,0,699.997854,-1.733486,0.000000,3766.163536,116625.520485,159.607243,0.000000,359.160065,0.350000,700.000000,1711636187514296,4,0,0,19677172,104.784821,35.910000,0.937559
6.913659,200,0,0,699.997854,-1.733486,0.000000,3766.163536,116625.520485,159.607243,0.000000,359.160065,0.350000,700.000000,1711636187641714,1,0,0,-19659293,-102.468590,35.910000,-0.984739
6.913659,200,0,0,699.997854,-1.733486,0.000000,3766.163536,116625.520485,159.607243,0.000000,359.160065,0.350000,700.000000,1711636187641714,2,0,0,-20191921,-73.251472,35.910000,-1.546244
6.913659,200,0,0,699.997854,-1.733486,0.000000,3766.163536,116625.520485,159.607243,0.000000,359.160065,0.350000,700.000000,1711636187641714,3,0,0,20209289,73.251472,35.910000,1.550254
6.913659,200,0,0,699.997854,-1.733486,0.000000,3766.163536,116625.520485,159.607243,0.000000,359.160065,0.350000,700.000000,1711636187641714,4,0,0,19678279,102.468590,35.910000,0.984739
6.913659,200,0,0,699.997854,-1.733486,0.000000,3766.163536,116625.520485,159.607243,0.000000,359.160065,0.350000,700.000000,1711636187767236,1,0,0,-19660254,-100.078255,35.910000,-1.039820
6.913659,200,0,0,699.997854,-1.733486,0.000000,3766.163536,116625.520485,159.607243,0.000000,359.160065,0.350000,700.000000,1711636187767236,2,0,0,-20192649,-77.275620,35.910000,-1.454336
6.913659,200,0,0,699.997854,-1.733486,0.000000,3766.163536,116625.520485,159.607243,0.000000,359.160065,0.350000,700.000000,1711636187767236,3,0,0,20210018,77.486748,35.910000,1.485727
6.913659,200,0,0,699.997854,-1.733486,0.000000,3766.163536,116625.520485,159.607243,0.000000,359.160065,0.350000,700.000000,1711636187767236,4,0,0,19679239,100.078255,35.910000,1.061516
6.913659,200,0,0,699.997854,-1.733486,0.000000,3766.163536,116625.520485,159.607243,0.000000,359.160065,0.350000,700.000000,1711636187893231,1,0,0,-19661187,-98.131966,35.910000,-1.080294
6.913659,200,0,0,699.997854,-1.733486,0.000000,3766.163536,116625.520485,159.607243,0.000000,359.160065,0.350000,700.000000,1711636187893231,2,0,0,-20193402,-80.366692,35.910000,-1.420032
6.913659,200,0,0,699.997854,-1.733486,0.000000,3766.163536,116625.520485,159.607243,0.000000,359.160065,0.350000,700.000000,1711636187893231,3,0,0,20210771,80.366692,35.910000,1.423848
6.913659,200,0,0,699.997854,-1.733486,0.000000,3766.163536,116625.520485,159.607243,0.000000,359.160065,0.350000,700.000000,1711636187893231,4,0,0,19680172,98.131966,35.910000,1.080294
6.913659,200,0,0,699.997854,-1.733486,0.000000,3766.163536,116625.520485,159.607243,0.000000,359.160065,0.350000,700.000000,1711636188041760,1,0,0,-19662106,-118.530426,35.910000,-0.956747
6.913659,200,0,0,699.997854,-1.733486,0.000000,3766.163536,116625.520485,159.607243,0.000000,359.160065,0.350000,700.000000,1711636188041760,2,0,0,-20194380,-128.539658,35.910000,-1.361700
6.913659,200,0,0,699.997854,-1.733486,0.000000,3766.163536,116625.520485,159.607243,0.000000,359.160065,0.350000,700.000000,1711636188041760,3,0,0,20211749,128.539658,35.910000,1.361700
6.913659,200,0,0,699.997854,-1.733486,0.000000,3766.163536,116625.520485,159.607243,0.000000,359.160065,0.350000,700.000000,1711636188041760,4,0,0,19681318,178.322433,35.910000,1.121083
6.913659,200,0,0,699.997854,-1.733486,0.000000,3766.163536,116625.520485,159.607243,0.000000,359.160065,0.350000,700.000000,1711636188200864,1,0,0,-19663333,-104.524109,35.910000,-1.149907
6.913659,200,0,0,699.997854,-1.733486,0.000000,3766.163536,116625.520485,159.607243,0.000000,359.160065,0.350000,700.000000,1711636188200864,2,0,0,-20195271,-93.900970,35.910000,-1.322560
6.913659,200,0,0,699.997854,-1.733486,0.000000,3766.163536,116625.520485,159.607243,0.000000,359.160065,0.350000,700.000000,1711636188200864,3,0,0,20212640,93.900970,35.910000,1.332747
6.913659,200,0,0,699.997854,-1.733486,0.000000,3766.163536,116625.520485,159.607243,0.000000,359.160065,0.350000,700.000000,1711636188200864,4,0,0,19682318,104.524109,35.910000,1.149907
6.913659,200,0,0,699.997854,-1.733486,0.000000,3766.163536,116625.520485,159.607243,0.000000,359.160065,0.350000,700.000000,1711636188348010,1,0,0,-19664453,-108.630028,35.910000,-1.166780
6.913659,200,0,0,699.997854,-1.733486,0.000000,3766.163536,116625.520485,159.607243,0.000000,359.160065,0.350000,700.000000,1711636188348010,2,0,0,-20196301,-83.561562,35.910000,-1.297235
6.913659,200,0,0,699.997854,-1.733486,0.000000,3766.163536,116625.520485,159.607243,0.000000,359.160065,0.350000,700.000000,1711636188348010,3,0,0,20213670,83.561562,35.910000,1.292065
6.913659,200,0,0,699.997854,-1.733486,0.000000,3766.163536,116625.520485,159.607243,0.000000,359.160065,0.350000,700.000000,1711636188348010,4,0,0,19683438,108.630028,35.910000,1.169396
8.681756,0,0,0,699.058378,-36.295778,0.000000,5026.422331,116589.105945,138.911653,0.000000,359.160065,0.350000,700.000000,1711636188486471,1,0,0,-19665324,-85.503098,35.910000,-1.179161
8.681756,0,0,0,699.058378,-36.295778,0.000000,5026.422331,116589.105945,138.911653,0.000000,359.160065,0.350000,700.000000,1711636188486471,2,0,0,-20197119,-80.519783,35.910000,-1.280385
8.681756,0,0,0,699.058378,-36.295778,0.000000,5026.422331,116589.105945,138.911653,0.000000,359.160065,0.350000,700.000000,1711636188486471,3,0,0,20214488,80.519783,35.910000,1.279321
8.681756,0,0,0,699.058378,-36.295778,0.000000,5026.422331,116589.105945,138.911653,0.000000,359.160065,0.350000,700.000000,1711636188486471,4,0,0,19684309,85.503098,35.910000,1.180916
8.681756,0,0,0,699.058378,-36.295778,0.000000,5026.422331,116589.105945,138.911653,0.000000,359.160065,0.350000,700.000000,1711636188623048,1,0,0,-19666322,-114.297684,35.910000,-1.108653
8.681756,0,0,0,699.058378,-36.295778,0.000000,5026.422331,116589.105945,138.911653,0.000000,359.160065,0.350000,700.000000,1711636188623048,2,0,0,-20198070,-109.695091,35.910000,-1.183037
8.681756,0,0,0,699.058378,-36.295778,0.000000,5026.422331,116589.105945,138.911653,0.000000,359.160065,0.350000,700.000000,1711636188623048,3,0,0,20215439,109.695091,35.910000,1.183084
8.681756,0,0,0,699.058378,-36.295778,0.000000,5026.422331,116589.105945,138.911653,0.000000,359.160065,0.350000,700.000000,1711636188623048,4,0,0,19685307,114.297684,35.910000,1.108653
8.681756,0,0,0,699.058378,-36.295778,0.000000,5026.422331,116589.105945,138.911653,0.000000,359.160065,0.350000,700.000000,1711636188758532,1,0,0,-19667203,-86.022728,35.910000,-2.390228
8.681756,0,0,0,699.058378,-36.295778,0.000000,5026.422331,116589.105945,138.911653,0.000000,359.160065,0.350000,700.000000,1711636188758532,2,0,0,-20198977,-99.118721,35.910000,0.463684
8.681756,0,0,0,699.058378,-36.295778,0.000000,5026.422331,116589.105945,138.911653,0.000000,359.160065,0.350000,700.000000,1711636188758532,3,0,0,20216346,99.118721,35.910000,-0.463684
8.681756,0,0,0,699.058378,-36.295778,0.000000,5026.422331,116589.105945,138.911653,0.000000,359.160065,0.350000,700.000000,1711636188758532,4,0,0,19686301,115.039345,35.910000,2.387650
8.681756,0,0,0,699.058378,-36.295778,0.000000,5026.422331,116589.105945,138.911653,0.000000,359.160065,0.350000,700.000000,1711636188884360,1,0,0,-19668267,-103.407242,35.910000,-2.271098
8.681756,0,0,0,699.058378,-36.295778,0.000000,5026.422331,116589.105945,138.911653,0.000000,359.160065,0.350000,700.000000,1711636188884360,2,0,0,-20199758,-89.689957,35.910000,0.213793
8.681756,0,0,0,699.058378,-36.295778,0.000000,5026.422331,116589.105945,138.911653,0.000000,359.160065,0.350000,700.000000,1711636188884360,3,0,0,20217127,89.689957,35.910000,-0.213793
8.681756,0,0,0,699.058378,-36.295778,0.000000,5026.422331,116589.105945,138.911653,0.000000,359.160065,0.350000,700.000000,1711636188884360,4,0,0,19687252,103.407242,35.910000,2.224540
8.681756,0,0,0,699.058378,-36.295778,0.000000,5026.422331,116589.105945,138.911653,0.000000,359.160065,0.350000,700.000000,1711636189030148,1,0,0,-19669553,-124.241348,35.910000,-2.830215
8.681756,0,0,0,699.058378,-36.295778,0.000000,5026.422331,116589.105945,138.911653,0.000000,359.160065,0.350000,700.000000,1711636189030148,2,0,0,-20200438,-69.682358,35.910000,0.043320
8.681756,0,0,0,699.058378,-36.295778,0.000000,5026.422331,116589.105945,138.911653,0.000000,359.160065,0.350000,700.000000,1711636189030148,3,0,0,20217807,69.682358,35.910000,-0.012765
8.681756,0,0,0,699.058378,-36.295778,0.000000,5026.422331,116589.105945,138.911653,0.000000,359.160065,0.350000,700.000000,1711636189030148,4,0,0,19688538,124.241348,35.910000,2.104419
8.681756,0,0,0,699.058378,-36.295778,0.000000,5026.422331,116589.105945,138.911653,0.000000,359.160065,0.350000,700.000000,1711636189170409,1,0,0,-19670632,-142.486694,35.910000,-2.053122
8.681756,0,0,0,699.058378,-36.295778,0.000000,5026.422331,116589.105945,138.911653,0.000000,359.160065,0.350000,700.000000,1711636189170409,2,0,0,-20200978,-69.163246,35.910000,-0.032448
8.681756,0,0,0,699.058378,-36.295778,0.000000,5026.422331,116589.105945,138.911653,0.000000,359.160065,0.350000,700.000000,1711636189170409,3,0,0,20218347,69.163246,35.910000,0.093224
8.681756,0,0,0,699.058378,-36.295778,0.000000,5026.422331,116589.105945,138.911653,0.000000,359.160065,0.350000,700.000000,1711636189170409,4,0,0,19689617,142.486694,35.910000,2.042308
8.681756,0,0,0,699.058378,-36.295778,0.000000,5026.422331,116589.105945,138.911653,0.000000,359.160065,0.350000,700.000000,1711636189296376,1,0,0,-19671753,-117.954285,35.910000,-1.986631
8.681756,0,0,0,699.058378,-36.295778,0.000000,5026.422331,116589.105945,138.911653,0.000000,359.160065,0.350000,700.000000,1711636189296376,2,0,0,-20201535,-63.856548,35.910000,-0.158999
8.681756,0,0,0,699.058378,-36.295778,0.000000,5026.422331,116589.105945,138.911653,0.000000,359.160065,0.350000,700.000000,1711636189296376,3,0,0,20218904,63.856548,35.910000,0.158999
8.681756,0,0,0,699.058378,-36.295778,0.000000,5026.422331,116589.105945,138.911653,0.000000,359.160065,0.350000,700.000000,1711636189296376,4,0,0,19690888,149.776489,35.910000,1.947896
8.681756,0,0,0,699.058378,-36.295778,0.000000,5026.422331,116589.105945,138.911653,0.000000,359.160065,0.350000,700.000000,1711636189421384,1,0,0,-19673032,-150.057648,35.910000,-1.897513
8.681756,0,0,0,699.058378,-36.295778,0.000000,5026.422331,116589.105945,138.911653,0.000000,359.160065,0.350000,700.000000,1711636189421384,2,0,0,-20201979,-57.909573,35.910000,-0.238933
8.681756,0,0,0,699.058378,-36.295778,0.000000,5026.422331,116589.105945,138.911653,0.000000,359.160065,0.350000,700.000000,1711636189421384,3,0,0,20219348,57.909573,35.910000,0.238933
8.681756,0,0,0,699.058378,-36.295778,0.000000,5026.422331,116589.105945,138.911653,0.000000,359.160065,0.350000,700.000000,1711636189421384,4,0,0,19692017,150.057648,35.910000,1.900779
8.681756,0,0,0,699.058378,-36.295778,0.000000,5026.422331,116589.105945,138.911653,0.000000,359.160065,0.350000,700.000000,1711636189546514,1,0,0,-19674180,-155.266693,35.910000,-1.869168
8.681756,0,0,0,699.058378,-36.295778,0.000000,5026.422331,116589.105945,138.911653,0.000000,359.160065,0.350000,700.000000,1711636189546514,2,0,0,-20202396,-55.681847,35.910000,-0.285797
8.681756,0,0,0,699.058378,-36.295778,0.000000,5026.422331,116589.105945,138.911653,0.000000,359.160065,0.350000,700.000000,1711636189546514,3,0,0,20219765,55.681847,35.910000,0.299510
8.681756,0,0,0,699.058378,-36.295778,0.000000,5026.422331,116589.105945,138.911653,0.000000,359.160065,0.350000,700.000000,1711636189546514,4,0,0,19693165,155.266693,35.910000,1.869933
8.681756,0,0,0,699.058378,-36.295778,0.000000,5026.422331,116589.105945,138.911653,0.000000,359.160065,0.350000,700.000000,1711636189671372,1,0,0,-19675354,-157.508713,35.910000,-1.850247
8.681756,0,0,0,699.058378,-36.295778,0.000000,5026.422331,116589.105945,138.911653,0.000000,359.160065,0.350000,700.000000,1711636189671372,2,0,0,-20202795,-52.855274,35.910000,-0.322980
8.681756,0,0,0,699.058378,-36.295778,0.000000,5026.422331,116589.105945,138.911653,0.000000,359.160065,0.350000,700.000000,1711636189671372,3,0,0,20220164,52.855274,35.910000,0.322980
8.681756,0,0,0,699.058378,-36.295778,0.000000,5026.422331,116589.105945,138.911653,0.000000,359.160065,0.350000,700.000000,1711636189671372,4,0,0,19694339,157.508713,35.910000,1.836802
8.681756,0,0,0,699.058378,-36.295778,0.000000,5026.422331,116589.105945,138.911653,0.000000,359.160065,0.350000,700.000000,1711636189796170,1,0,0,-19676533,-157.665237,35.910000,-1.829397
8.681756,0,0,0,699.058378,-36.295778,0.000000,5026.422331,116589.105945,138.911653,0.000000,359.160065,0.350000,700.000000,1711636189796170,2,0,0,-20203175,-50.503803,35.910000,-0.354622
8.681756,0,0,0,699.058378,-36.295778,0.000000,5026.422331,116589.105945,138.911653,0.000000,359.160065,0.350000,700.000000,1711636189796170,3,0,0,20220544,50.503803,35.910000,0.354622
8.681756,0,0,0,699.058378,-36.295778,0.000000,5026.422331,116589.105945,138.911653,0.000000,359.160065,0.350000,700.000000,1711636189796170,4,0,0,19695518,157.665237,35.910000,1.820747
8.681756,0,0,0,699.058378,-36.295778,0.000000,5026.422331,116589.105945,138.911653,0.000000,359.160065,0.350000,700.000000,1711636189934696,1,0,0,-19677729,-157.677658,35.910000,-1.803528
8.681756,0,0,0,699.058378,-36.295778,0.000000,5026.422331,116589.105945,138.911653,0.000000,359.160065,0.350000,700.000000,1711636189934696,2,0,0,-20203546,-48.274025,35.910000,-0.377975
8.681756,0,0,0,699.058378,-36.295778,0.000000,5026.422331,116589.105945,138.911653,0.000000,359.160065,0.350000,700.000000,1711636189934696,3,0,0,20220915,48.274025,35.910000,0.377975
8.681756,0,0,0,699.058378,-36.295778,0.000000,5026.422331,116589.105945,138.911653,0.000000,359.160065,0.350000,700.000000,1711636189934696,4,0,0,19696714,157.677658,35.910000,1.804784
8.681756,0,0,0,699.058378,-36.295778,0.000000,5026.422331,116589.105945,138.911653,0.000000,359.160065,0.350000,700.000000,1711636190081665,1,0,0,-19679096,-130.885300,35.910000,-1.790288
8.681756,0,0,0,699.058378,-36.295778,0.000000,5026.422331,116589.105945,138.911653,0.000000,359.160065,0.350000,700.000000,1711636190081665,2,0,0,-20203955,-38.757298,35.910000,-0.399516
8.681756,0,0,0,699.058378,-36.295778,0.000000,5026.422331,116589.105945,138.911653,0.000000,359.160065,0.350000,700.000000,1711636190081665,3,0,0,20221324,38.757298,35.910000,0.400621
8.681756,0,0,0,699.058378,-36.295778,0.000000,5026.422331,116589.105945,138.911653,0.000000,359.160065,0.350000,700.000000,1711636190081665,4,0,0,19698081,130.885300,35.910000,1.790288
10.067483,200,0,0,699.985176,-4.555550,0.000000,5999.878870,116615.499973,162.774648,0.000000,359.160065,0.350000,700.000000,1711636190216639,1,0,0,-19680428,-123.708878,35.910000,-0.661734
10.067483,200,0,0,699.985176,-4.555550,0.000000,5999.878870,116615.499973,162.774648,0.000000,359.160065,0.350000,700.000000,1711636190216639,2,0,0,-20204382,-43.624763,35.910000,-2.193419
10.067483,200,0,0,699.985176,-4.555550,0.000000,5999.878870,116615.499973,162.774648,0.000000,359.160065,0.350000,700.000000,1711636190216639,3,0,0,20221808,55.637383,35.910000,2.139047
10.067483,200,0,0,699.985176,-4.555550,0.000000,5999.878870,116615.499973,162.774648,0.000000,359.160065,0.350000,700.000000,1711636190216639,4,0,0,19699413,123.708878,35.910000,0.697580
10.067483,200,0,0,699.985176,-4.555550,0.000000,5999.878870,116615.499973,162.774648,0.000000,359.160065,0.350000,700.000000,1711636190382496,1,0,0,-19681819,-118.565231,35.910000,-0.835657
10.067483,200,0,0,699.985176,-4.555550,0.000000,5999.878870,116615.499973,162.774648,0.000000,359.160065,0.350000,700.000000,1711636190382496,2,0,0,-20205011,-58.062088,35.910000,-1.944064
10.067483,200,0,0,699.985176,-4.555550,0.000000,5999.878870,116615.499973,162.774648,0.000000,359.160065,0.350000,700.000000,1711636190382496,3,0,0,20222380,58.062088,35.910000,1.912423
10.067483,200,0,0,699.985176,-4.555550,0.000000,5999.878870,116615.499973,162.774648,0.000000,359.160065,0.350000,700.000000,1711636190382496,4,0,0,19700804,118.565231,35.910000,0.847454
10.067483,200,0,0,699.985176,-4.555550,0.000000,5999.878870,116615.499973,162.774648,0.000000,359.160065,0.350000,700.000000,1711636190508882,1,0,0,-19682883,-136.614792,35.910000,-0.931418
10.067483,200,0,0,699.985176,-4.555550,0.000000,5999.878870,116615.499973,162.774648,0.000000,359.160065,0.350000,700.000000,1711636190508882,2,0,0,-20205614,-60.688992,35.910000,-1.811202
10.067483,200,0,0,699.985176,-4.555550,0.000000,5999.878870,116615.499973,162.774648,0.000000,359.160065,0.350000,700.000000,1711636190508882,3,0,0,20222983,60.688992,35.910000,1.741336
10.067483,200,0,0,699.985176,-4.555550,0.000000,5999.878870,116615.499973,162.774648,0.000000,359.160065,0.350000,700.000000,1711636190508882,4,0,0,19701868,101.750908,35.910000,0.927830
10.067483,200,0,0,699.985176,-4.555550,0.000000,5999.878870,116615.499973,162.774648,0.000000,359.160065,0.350000,700.000000,1711636190635673,1,0,0,-19684029,-132.477127,35.910000,-0.997259
10.067483,200,0,0,699.985176,-4.555550,0.000000,5999.878870,116615.499973,162.774648,0.000000,359.160065,0.350000,700.000000,1711636190635673,2,0,0,-20206369,-72.126434,35.910000,-1.674873
10.067483,200,0,0,699.985176,-4.555550,0.000000,5999.878870,116615.499973,162.774648,0.000000,359.160065,0.350000,700.000000,1711636190635673,3,0,0,20223738,72.126434,35.910000,1.611096
10.067483,200,0,0,699.985176,-4.555550,0.000000,5999.878870,116615.499973,162.774648,0.000000,359.160065,0.350000,700.000000,1711636190635673,4,0,0,19703014,105.561142,35.910000,0.997259
10.067483,200,0,0,699.985176,-4.555550,0.000000,5999.878870,116615.499973,162.774648,0.000000,359.160065,0.350000,700.000000,1711636190761187,1,0,0,-19685019,-129.703766,35.910000,-1.079196
10.067483,200,0,0,699.985176,-4.555550,0.000000,5999.878870,116615.499973,162.774648,0.000000,359.160065,0.350000,700.000000,1711636190761187,2,0,0,-20207092,-75.996643,35.910000,-1.558865
10.067483,200,0,0,699.985176,-4.555550,0.000000,5999.878870,116615.499973,162.774648,0.000000,359.160065,0.350000,700.000000,1711636190761187,3,0,0,20224461,75.996643,35.910000,1.548177
10.067483,200,0,0,699.985176,-4.555550,0.000000,5999.878870,116615.499973,162.774648,0.000000,359.160065,0.350000,700.000000,1711636190761187,4,0,0,19704004,102.107216,35.910000,1.079196
10.067483,200,0,0,699.985176,-4.555550,0.000000,5999.878870,116615.499973,162.774648,0.000000,359.160065,0.350000,700.000000,1711636190900633,1,0,0,-19685971,-100.970383,35.910000,-1.104624
10.067483,200,0,0,699.985176,-4.555550,0.000000,5999.878870,116615.499973,162.774648,0.000000,359.160065,0.350000,700.000000,1711636190900633,2,0,0,-20207841,-80.946716,35.910000,-1.507370
10.067483,200,0,0,699.985176,-4.555550,0.000000,5999.878870,116615.499973,162.774648,0.000000,359.160065,0.350000,700.000000,1711636190900633,3,0,0,20225210,80.946716,35.910000,1.480639
10.067483,200,0,0,699.985176,-4.555550,0.000000,5999.878870,116615.499973,162.774648,0.000000,359.160065,0.350000,700.000000,1711636190900633,4,0,0,19704956,100.970383,35.910000,1.104624
10.067483,200,0,0,699.985176,-4.555550,0.000000,5999.878870,116615.499973,162.774648,0.000000,359.160065,0.350000,700.000000,1711636191025002,1,0,0,-19687045,-124.173958,35.910000,-1.143841
10.067483,200,0,0,699.985176,-4.555550,0.000000,5999.878870,116615.499973,162.774648,0.000000,359.160065,0.350000,700.000000,1711636191025002,2,0,0,-20208738,-83.700874,35.910000,-1.442942
10.067483,200,0,0,699.985176,-4.555550,0.000000,5999.878870,116615.499973,162.774648,0.000000,359.160065,0.350000,700.000000,1711636191025002,3,0,0,20226107,83.700874,35.910000,1.427869
10.067483,200,0,0,699.985176,-4.555550,0.000000,5999.878870,116615.499973,162.774648,0.000000,359.160065,0.350000,700.000000,1711636191025002,4,0,0,19706030,124.173958,35.910000,1.143841
10.067483,200,0,0,699.985176,-4.555550,0.000000,5999.878870,116615.499973,162.774648,0.000000,359.160065,0.350000,700.000000,1711636191151329,1,0,0,-19687989,-122.078659,35.910000,-1.167692
10.067483,200,0,0,699.985176,-4.555550,0.000000,5999.878870,116615.499973,162.774648,0.000000,359.160065,0.350000,700.000000,1711636191151329,2,0,0,-20209562,-107.470955,35.910000,-1.393635
10.067483,200,0,0,699.985176,-4.555550,0.000000,5999.878870,116615.499973,162.774648,0.000000,359.160065,0.350000,700.000000,1711636191151329,3,0,0,20226931,107.470955,35.910000,1.386067
10.067483,200,0,0,699.985176,-4.555550,0.000000,5999.878870,116615.499973,162.774648,0.000000,359.160065,0.350000,700.000000,1711636191151329,4,0,0,19706974,122.078659,35.910000,1.173571
10.067483,200,0,0,699.985176,-4.555550,0.000000,5999.878870,116615.499973,162.774648,0.000000,359.160065,0.350000,700.000000,1711636191276690,1,0,0,-19688916,-122.531563,35.910000,-1.186980
10.067483,200,0,0,699.985176,-4.555550,0.000000,5999.878870,116615.499973,162.774648,0.000000,359.160065,0.350000,700.000000,1711636191276690,2,0,0,-20210395,-110.489670,35.910000,-1.357130
10.067483,200,0,0,699.985176,-4.555550,0.000000,5999.878870,116615.499973,162.774648,0.000000,359.160065,0.350000,700.000000,1711636191276690,3,0,0,20227764,88.307236,35.910000,1.350864
10.067483,200,0,0,699.985176,-4.555550,0.000000,5999.878870,116615.499973,162.774648,0.000000,359.160065,0.350000,700.000000,1711636191276690,4,0,0,19707901,122.531563,35.910000,1.194447
10.067483,200,0,0,699.985176,-4.555550,0.000000,5999.878870,116615.499973,162.774648,0.000000,359.160065,0.350000,700.000000,1711636191402848,1,0,0,-19689824,-119.721855,35.910000,-1.210016
10.067483,200,0,0,699.985176,-4.555550,0.000000,5999.878870,116615.499973,162.774648,0.000000,359.160065,0.350000,700.000000,1711636191402848,2,0,0,-20211235,-110.976952,35.910000,-1.335650
10.067483,200,0,0,699.985176,-4.555550,0.000000,5999.878870,116615.499973,162.774648,0.000000,359.160065,0.350000,700.000000,1711636191402848,3,0,0,20228604,88.073647,35.910000,1.332308
10.067483,200,0,0,699.985176,-4.555550,0.000000,5999.878870,116615.499973,162.774648,0.000000,359.160065,0.350000,700.000000,1711636191402848,4,0,0,19708809,119.721855,35.910000,1.210016
11.832577,0,0,0,698.768182,41.509372,0.000000,7188.734960,116659.882321,134.352746,0.000000,359.160065,0.350000,700.000000,1711636191563797,1,0,0,-19690822,-98.601372,35.910000,0.664272
11.832577,0,0,0,698.768182,41.509372,0.000000,7188.734960,116659.882321,134.352746,0.000000,359.160065,0.350000,700.000000,1711636191563797,2,0,0,-20212291,-113.935402,35.910000,-2.513108
11.832577,0,0,0,698.768182,41.509372,0.000000,7188.734960,116659.882321,134.352746,0.000000,359.160065,0.350000,700.000000,1711636191563797,3,0,0,20229660,95.391922,35.910000,2.407379
11.832577,0,0,0,698.768182,41.509372,0.000000,7188.734960,116659.882321,134.352746,0.000000,359.160065,0.350000,700.000000,1711636191563797,4,0,0,19709925,119.641090,35.910000,-0.747970
11.832577,0,0,0,698.768182,41.509372,0.000000,7188.734960,116659.882321,134.352746,0.000000,359.160065,0.350000,700.000000,1711636191702074,1,0,0,-19691702,-72.235664,35.910000,0.435101
11.832577,0,0,0,698.768182,41.509372,0.000000,7188.734960,116659.882321,134.352746,0.000000,359.160065,0.350000,700.000000,1711636191702074,2,0,0,-20213198,-90.810547,35.910000,-2.295066
11.832577,0,0,0,698.768182,41.509372,0.000000,7188.734960,116659.882321,134.352746,0.000000,359.160065,0.350000,700.000000,1711636191702074,3,0,0,20230567,90.810547,35.910000,2.284854
11.832577,0,0,0,698.768182,41.509372,0.000000,7188.734960,116659.882321,134.352746,0.000000,359.160065,0.350000,700.000000,1711636191702074,4,0,0,19710730,74.815506,35.910000,-0.408389
11.832577,0,0,0,698.768182,41.509372,0.000000,7188.734960,116659.882321,134.352746,0.000000,359.160065,0.350000,700.000000,1711636191840426,1,0,0,-19692463,-68.259361,35.910000,0.223424
11.832577,0,0,0,698.768182,41.509372,0.000000,7188.734960,116659.882321,134.352746,0.000000,359.160065,0.350000,700.000000,1711636191840426,2,0,0,-20214313,-106.416763,35.910000,-2.154290
11.832577,0,0,0,698.768182,41.509372,0.000000,7188.734960,116659.882321,134.352746,0.000000,359.160065,0.350000,700.000000,1711636191840426,3,0,0,20231682,106.416763,35.910000,2.138906
11.832577,0,0,0,698.768182,41.509372,0.000000,7188.734960,116659.882321,134.352746,0.000000,359.160065,0.350000,700.000000,1711636191840426,4,0,0,19711514,70.167229,35.910000,-0.267886
11.832577,0,0,0,698.768182,41.509372,0.000000,7188.734960,116659.882321,134.352746,0.000000,359.160065,0.350000,700.000000,1711636191992851,1,0,0,-19693131,-75.770401,35.910000,0.074572
11.832577,0,0,0,698.768182,41.509372,0.000000,7188.734960,116659.882321,134.352746,0.000000,359.160065,0.350000,700.000000,1711636191992851,2,0,0,-20215510,-113.031120,35.910000,-2.057536
11.832577,0,0,0,698.768182,41.509372,0.000000,7188.734960,116659.882321,134.352746,0.000000,359.160065,0.350000,700.000000,1711636191992851,3,0,0,20232879,113.031120,35.910000,2.600370
11.832577,0,0,0,698.768182,41.509372,0.000000,7188.734960,116659.882321,134.352746,0.000000,359.160065,0.350000,700.000000,1711636191992851,4,0,0,19712202,77.852005,35.910000,-0.109300
11.832577,0,0,0,698.768182,41.509372,0.000000,7188.734960,116659.882321,134.352746,0.000000,359.160065,0.350000,700.000000,1711636192157397,1,0,0,-19693781,-54.914066,35.910000,-0.075983
11.832577,0,0,0,698.768182,41.509372,0.000000,7188.734960,116659.882321,134.352746,0.000000,359.160065,0.350000,700.000000,1711636192157397,2,0,0,-20216891,-90.718040,35.910000,-1.976791
11.832577,0,0,0,698.768182,41.509372,0.000000,7188.734960,116659.882321,134.352746,0.000000,359.160065,0.350000,700.000000,1711636192157397,3,0,0,20234260,90.718040,35.910000,1.975618
11.832577,0,0,0,698.768182,41.509372,0.000000,7188.734960,116659.882321,134.352746,0.000000,359.160065,0.350000,700.000000,1711636192157397,4,0,0,19712867,55.792694,35.910000,0.051093
11.832577,0,0,0,698.768182,41.509372,0.000000,7188.734960,116659.882321,134.352746,0.000000,359.160065,0.350000,700.000000,1711636192284209,1,0,0,-19694368,-59.571400,35.910000,-0.206560
11.832577,0,0,0,698.768182,41.509372,0.000000,7188.734960,116659.882321,134.352746,0.000000,359.160065,0.350000,700.000000,1711636192284209,2,0,0,-20218323,-119.990791,35.910000,-1.888968
11.832577,0,0,0,698.768182,41.509372,0.000000,7188.734960,116659.882321,134.352746,0.000000,359.160065,0.350000,700.000000,1711636192284209,3,0,0,20235692,119.990791,35.910000,1.898249
11.832577,0,0,0,698.768182,41.509372,0.000000,7188.734960,116659.882321,134.352746,0.000000,359.160065,0.350000,700.000000,1711636192284209,4,0,0,19713465,60.631390,35.910000,0.155795
11.832577,0,0,0,698.768182,41.509372,0.000000,7188.734960,116659.882321,134.352746,0.000000,359.160065,0.350000,700.000000,1711636192451319,1,0,0,-19694899,-55.589664,35.910000,-0.267256
11.832577,0,0,0,698.768182,41.509372,0.000000,7188.734960,116659.882321,134.352746,0.000000,359.160065,0.350000,700.000000,1711636192451319,2,0,0,-20219770,-129.416946,35.910000,-1.865692
11.832577,0,0,0,698.768182,41.509372,0.000000,7188.734960,116659.882321,134.352746,0.000000,359.160065,0.350000,700.000000,1711636192451319,3,0,0,20237139,129.416946,35.910000,1.865692
11.832577,0,0,0,698.768182,41.509372,0.000000,7188.734960,116659.882321,134.352746,0.000000,359.160065,0.350000,700.000000,1711636192451319,4,0,0,19714004,56.291111,35.910000,0.262613
11.832577,0,0,0,698.768182,41.509372,0.000000,7188.734960,116659.882321,134.352746,0.000000,359.160065,0.350000,700.000000,1711636192577484,1,0,0,-19695299,-51.229115,35.910000,-0.321122
11.832577,0,0,0,698.768182,41.509372,0.000000,7188.734960,116659.882321,134.352746,0.000000,359.160065,0.350000,700.000000,1711636192577484,2,0,0,-20220941,-152.142746,35.910000,-1.832074
11.832577,0,0,0,698.768182,41.509372,0.000000,7188.734960,116659.882321,134.352746,0.000000,359.160065,0.350000,700.000000,1711636192577484,3,0,0,20238310,152.142746,35.910000,1.837716
11.832577,0,0,0,698.768182,41.509372,0.000000,7188.734960,116659.882321,134.352746,0.000000,359.160065,0.350000,700.000000,1711636192577484,4,0,0,19714409,51.743980,35.910000,0.292958
11.832577,0,0,0,698.768182,41.509372,0.000000,7188.734960,116659.882321,134.352746,0.000000,359.160065,0.350000,700.000000,1711636192714496,1,0,0,-19695637,-30.888565,35.910000,-0.169659
11.832577,0,0,0,698.768182,41.509372,0.000000,7188.734960,116659.882321,134.352746,0.000000,359.160065,0.350000,700.000000,1711636192714496,2,0,0,-20222275,-159.410919,35.910000,-1.813488
11.832577,0,0,0,698.768182,41.509372,0.000000,7188.734960,116659.882321,134.352746,0.000000,359.160065,0.350000,700.000000,1711636192714496,3,0,0,20239644,159.410919,35.910000,1.813488
11.832577,0,0,0,698.768182,41.509372,0.000000,7188.734960,116659.882321,134.352746,0.000000,359.160065,0.350000,700.000000,1711636192714496,4,0,0,19714843,51.192936,35.910000,0.348916
11.832577,0,0,0,698.768182,41.509372,0.000000,7188.734960,116659.882321,134.352746,0.000000,359.160065,0.350000,700.000000,1711636192840111,1,0,0,-19696093,-38.174644,35.910000,-0.382553
11.832577,0,0,0,698.768182,41.509372,0.000000,7188.734960,116659.882321,134.352746,0.000000,359.160065,0.350000,700.000000,1711636192840111,2,0,0,-20223595,-153.758972,35.910000,-1.793949
11.832577,0,0,0,698.768182,41.509372,0.000000,7188.734960,116659.882321,134.352746,0.000000,359.160065,0.350000,700.000000,1711636192840111,3,0,0,20240964,153.758972,35.910000,1.793949
11.832577,0,0,0,698.768182,41.509372,0.000000,7188.734960,116659.882321,134.352746,0.000000,359.160065,0.350000,700.000000,1711636192840111,4,0,0,19715252,47.294140,35.910000,0.376392
11.832577,0,0,0,698.768182,41.509372,0.000000,7188.734960,116659.882321,134.352746,0.000000,359.160065,0.350000,700.000000,1711636192965539,1,0,0,-19696488,-46.184830,35.910000,-0.393128
11.832577,0,0,0,698.768182,41.509372,0.000000,7188.734960,116659.882321,134.352746,0.000000,359.160065,0.350000,700.000000,1711636192965539,2,0,0,-20224777,-156.136215,35.910000,-1.788127
11.832577,0,0,0,698.768182,41.509372,0.000000,7188.734960,116659.882321,134.352746,0.000000,359.160065,0.350000,700.000000,1711636192965539,3,0,0,20242146,156.136215,35.910000,1.781230
