CurrentTime,PlatformType,PlatformDirection,PlatformMovementType,PlayerVelocity.x,PlayerVelocity.y,PlayerVelocity.z,PlayerPosition.x,PlayerPosition.y,PlayerPosition.z,PlayerRotation.Pitch,PlayerRotation.Roll,PlayerRotation.Yaw,PlayerCurrentSpeed,UnixTimeStamp [us],ControllerId,MotorFlags,HallPosition,EncoderPosition,MotorVelocity,MotorVoltage,MotorCurrent 
1.522319,0,0,250,67.885218,-39.186869,0.000000,42.022357,116576.416852,138.911682,0.000000,0.000000,0.000000,500.000000,1712606661030891,1,0,0,-74301293,-71.399887,35.910000,-1.563368
1.522319,0,0,250,67.885218,-39.186869,0.000000,42.022357,116576.416852,138.911682,0.000000,0.000000,0.000000,500.000000,1712606661030891,2,0,0,-67661010,-37.769508,35.910000,-0.409016
1.522319,0,0,250,67.885218,-39.186869,0.000000,42.022357,116576.416852,138.911682,0.000000,0.000000,0.000000,500.000000,1712606661030891,3,0,0,67921393,37.769508,35.910000,0.409016
1.522319,0,0,250,67.885218,-39.186869,0.000000,42.022357,116576.416852,138.911682,0.000000,0.000000,0.000000,500.000000,1712606661030891,4,0,0,74550306,140.988907,35.910000,1.538048
1.522319,0,0,250,67.885218,-39.186869,0.000000,42.022357,116576.416852,138.911682,0.000000,0.000000,0.000000,500.000000,1712606661159650,1,0,0,-74302642,-138.581406,35.910000,-1.538243
1.522319,0,0,250,67.885218,-39.186869,0.000000,42.022357,116576.416852,138.911682,0.000000,0.000000,0.000000,500.000000,1712606661159650,2,0,0,-67661300,-37.192806,35.910000,-0.409054
1.522319,0,0,250,67.885218,-39.186869,0.000000,42.022357,116576.416852,138.911682,0.000000,0.000000,0.000000,500.000000,1712606661159650,3,0,0,67921683,37.192806,35.910000,0.409054
1.522319,0,0,250,67.885218,-39.186869,0.000000,42.022357,116576.416852,138.911682,0.000000,0.000000,0.000000,500.000000,1712606661159650,4,0,0,74551386,138.581406,35.910000,1.538288
1.522319,0,0,250,67.885218,-39.186869,0.000000,42.022357,116576.416852,138.911682,0.000000,0.000000,0.000000,500.000000,1712606661304071,1,0,0,-74303737,-141.220535,35.910000,-1.538355
1.522319,0,0,250,67.885218,-39.186869,0.000000,42.022357,116576.416852,138.911682,0.000000,0.000000,0.000000,500.000000,1712606661304071,2,0,0,-67661593,-37.641502,35.910000,-0.409078
1.522319,0,0,250,67.885218,-39.186869,0.000000,42.022357,116576.416852,138.911682,0.000000,0.000000,0.000000,500.000000,1712606661304071,3,0,0,67921976,37.641502,35.910000,0.409039
1.522319,0,0,250,67.885218,-39.186869,0.000000,42.022357,116576.416852,138.911682,0.000000,0.000000,0.000000,500.000000,1712606661304071,4,0,0,74552481,141.220535,35.910000,1.565248
1.522319,0,0,250,67.885218,-39.186869,0.000000,42.022357,116576.416852,138.911682,0.000000,0.000000,0.000000,500.000000,1712606661430900,1,0,0,-74304967,-114.558327,35.910000,-1.538801
1.522319,0,0,250,67.885218,-39.186869,0.000000,42.022357,116576.416852,138.911682,0.000000,0.000000,0.000000,500.000000,1712606661430900,2,0,0,-67661960,-38.679287,35.910000,-0.409022
1.522319,0,0,250,67.885218,-39.186869,0.000000,42.022357,116576.416852,138.911682,0.000000,0.000000,0.000000,500.000000,1712606661430900,3,0,0,67922343,38.679287,35.910000,0.409022
1.522319,0,0,250,67.885218,-39.186869,0.000000,42.022357,116576.416852,138.911682,0.000000,0.000000,0.000000,500.000000,1712606661430900,4,0,0,74553848,143.514954,35.910000,1.539569
1.522319,0,0,250,67.885218,-39.186869,0.000000,42.022357,116576.416852,138.911682,0.000000,0.000000,0.000000,500.000000,1712606661557343,1,0,0,-74306070,-104.490593,35.910000,-1.539312
1.522319,0,0,250,67.885218,-39.186869,0.000000,42.022357,116576.416852,138.911682,0.000000,0.000000,0.000000,500.000000,1712606661557343,2,0,0,-67662258,-37.881020,35.910000,-0.408994
1.522319,0,0,250,67.885218,-39.186869,0.000000,42.022357,116576.416852,138.911682,0.000000,0.000000,0.000000,500.000000,1712606661557343,3,0,0,67922641,37.881020,35.910000,0.408994
1.522319,0,0,250,67.885218,-39.186869,0.000000,42.022357,116576.416852,138.911682,0.000000,0.000000,0.000000,500.000000,1712606661557343,4,0,0,74554954,140.083496,35.910000,1.538158
1.522319,0,0,250,67.885218,-39.186869,0.000000,42.022357,116576.416852,138.911682,0.000000,0.000000,0.000000,500.000000,1712606661694844,1,0,0,-74307282,-140.130081,35.910000,-1.537464
1.522319,0,0,250,67.885218,-39.186869,0.000000,42.022357,116576.416852,138.911682,0.000000,0.000000,0.000000,500.000000,1712606661694844,2,0,0,-67662546,-37.816990,35.910000,-0.409026
1.522319,0,0,250,67.885218,-39.186869,0.000000,42.022357,116576.416852,138.911682,0.000000,0.000000,0.000000,500.000000,1712606661694844,3,0,0,67922929,37.816990,35.910000,0.409026
1.522319,0,0,250,67.885218,-39.186869,0.000000,42.022357,116576.416852,138.911682,0.000000,0.000000,0.000000,500.000000,1712606661694844,4,0,0,74556026,140.130081,35.910000,1.538927
1.522319,0,0,250,67.885218,-39.186869,0.000000,42.022357,116576.416852,138.911682,0.000000,0.000000,0.000000,500.000000,1712606661830345,1,0,0,-74308489,-113.358978,35.910000,-1.538563
1.522319,0,0,250,67.885218,-39.186869,0.000000,42.022357,116576.416852,138.911682,0.000000,0.000000,0.000000,500.000000,1712606661830345,2,0,0,-67662872,-30.723461,35.910000,-0.409047
1.522319,0,0,250,67.885218,-39.186869,0.000000,42.022357,116576.416852,138.911682,0.000000,0.000000,0.000000,500.000000,1712606661830345,3,0,0,67923255,30.723461,35.910000,0.408999
1.522319,0,0,250,67.885218,-39.186869,0.000000,42.022357,116576.416852,138.911682,0.000000,0.000000,0.000000,500.000000,1712606661830345,4,0,0,74557233,113.358978,35.910000,1.538563
1.522319,0,0,250,67.885218,-39.186869,0.000000,42.022357,116576.416852,138.911682,0.000000,0.000000,0.000000,500.000000,1712606661955793,1,0,0,-74309569,-114.045326,35.910000,-1.539030
1.522319,0,0,250,67.885218,-39.186869,0.000000,42.022357,116576.416852,138.911682,0.000000,0.000000,0.000000,500.000000,1712606661955793,2,0,0,-67663163,-30.777483,35.910000,-0.409024
1.522319,0,0,250,67.885218,-39.186869,0.000000,42.022357,116576.416852,138.911682,0.000000,0.000000,0.000000,500.000000,1712606661955793,3,0,0,67923546,30.777483,35.910000,0.409017
1.522319,0,0,250,67.885218,-39.186869,0.000000,42.022357,116576.416852,138.911682,0.000000,0.000000,0.000000,500.000000,1712606661955793,4,0,0,74558313,114.045326,35.910000,1.539030
1.522319,0,0,250,67.885218,-39.186869,0.000000,42.022357,116576.416852,138.911682,0.000000,0.000000,0.000000,500.000000,1712606662080407,1,0,0,-74310641,-114.199326,35.910000,-1.538704
1.522319,0,0,250,67.885218,-39.186869,0.000000,42.022357,116576.416852,138.911682,0.000000,0.000000,0.000000,500.000000,1712606662080407,2,0,0,-67663451,-30.581469,35.910000,-0.409022
1.522319,0,0,250,67.885218,-39.186869,0.000000,42.022357,116576.416852,138.911682,0.000000,0.000000,0.000000,500.000000,1712606662080407,3,0,0,67923834,30.581469,35.910000,0.409053
1.522319,0,0,250,67.885218,-39.186869,0.000000,42.022357,116576.416852,138.911682,0.000000,0.000000,0.000000,500.000000,1712606662080407,4,0,0,74559385,114.199326,35.910000,1.538704
1.522319,0,0,250,67.885218,-39.186869,0.000000,42.022357,116576.416852,138.911682,0.000000,0.000000,0.000000,500.000000,1712606662206829,1,0,0,-74311723,-113.621216,35.910000,-1.537377
1.522319,0,0,250,67.885218,-39.186869,0.000000,42.022357,116576.416852,138.911682,0.000000,0.000000,0.000000,500.000000,1712606662206829,2,0,0,-67663741,-30.396820,35.910000,-0.409050
1.522319,0,0,250,67.885218,-39.186869,0.000000,42.022357,116576.416852,138.911682,0.000000,0.000000,0.000000,500.000000,1712606662206829,3,0,0,67924124,30.396820,35.910000,0.409048
1.522319,0,0,250,67.885218,-39.186869,0.000000,42.022357,116576.416852,138.911682,0.000000,0.000000,0.000000,500.000000,1712606662206829,4,0,0,74560467,113.621216,35.910000,1.538526
2.820420,0,0,250,497.724994,47.642733,0.000000,372.680519,116603.264362,138.911682,0.000000,0.000000,0.000000,500.000000,1712606662345499,1,0,0,-74312800,-139.727280,35.910000,-1.538775
2.820420,0,0,250,497.724994,47.642733,0.000000,372.680519,116603.264362,138.911682,0.000000,0.000000,0.000000,500.000000,1712606662345499,2,0,0,-67664030,-28.305712,35.910000,-0.409112
2.820420,0,0,250,497.724994,47.642733,0.000000,372.680519,116603.264362,138.911682,0.000000,0.000000,0.000000,500.000000,1712606662345499,3,0,0,67924413,28.305712,35.910000,0.408976
2.820420,0,0,250,497.724994,47.642733,0.000000,372.680519,116603.264362,138.911682,0.000000,0.000000,0.000000,500.000000,1712606662345499,4,0,0,74561544,104.988457,35.910000,1.539381
2.820420,0,0,250,497.724994,47.642733,0.000000,372.680519,116603.264362,138.911682,0.000000,0.000000,0.000000,500.000000,1712606662473049,1,0,0,-74313889,-105.283203,35.910000,-1.538834
2.820420,0,0,250,497.724994,47.642733,0.000000,372.680519,116603.264362,138.911682,0.000000,0.000000,0.000000,500.000000,1712606662473049,2,0,0,-67664323,-28.145014,35.910000,-0.409039
2.820420,0,0,250,497.724994,47.642733,0.000000,372.680519,116603.264362,138.911682,0.000000,0.000000,0.000000,500.000000,1712606662473049,3,0,0,67924706,28.145014,35.910000,0.409047
2.820420,0,0,250,497.724994,47.642733,0.000000,372.680519,116603.264362,138.911682,0.000000,0.000000,0.000000,500.000000,1712606662473049,4,0,0,74562633,105.283203,35.910000,1.538365
2.820420,0,0,250,497.724994,47.642733,0.000000,372.680519,116603.264362,138.911682,0.000000,0.000000,0.000000,500.000000,1712606662599829,1,0,0,-74314982,-105.531693,35.910000,-1.538767
2.820420,0,0,250,497.724994,47.642733,0.000000,372.680519,116603.264362,138.911682,0.000000,0.000000,0.000000,500.000000,1712606662599829,2,0,0,-67664616,-28.363239,35.910000,-0.409061
2.820420,0,0,250,497.724994,47.642733,0.000000,372.680519,116603.264362,138.911682,0.000000,0.000000,0.000000,500.000000,1712606662599829,3,0,0,67924999,28.363239,35.910000,0.409026
2.820420,0,0,250,497.724994,47.642733,0.000000,372.680519,116603.264362,138.911682,0.000000,0.000000,0.000000,500.000000,1712606662599829,4,0,0,74563726,105.531693,35.910000,1.538670
2.820420,0,0,250,497.724994,47.642733,0.000000,372.680519,116603.264362,138.911682,0.000000,0.000000,0.000000,500.000000,1712606662738218,1,0,0,-74316201,-114.219727,35.910000,-1.539466
2.820420,0,0,250,497.724994,47.642733,0.000000,372.680519,116603.264362,138.911682,0.000000,0.000000,0.000000,500.000000,1712606662738218,2,0,0,-67664945,-30.824549,35.910000,-0.409131
2.820420,0,0,250,497.724994,47.642733,0.000000,372.680519,116603.264362,138.911682,0.000000,0.000000,0.000000,500.000000,1712606662738218,3,0,0,67925328,30.824549,35.910000,0.409090
2.820420,0,0,250,497.724994,47.642733,0.000000,372.680519,116603.264362,138.911682,0.000000,0.000000,0.000000,500.000000,1712606662738218,4,0,0,74564945,114.219727,35.910000,1.539466
2.820420,0,0,250,497.724994,47.642733,0.000000,372.680519,116603.264362,138.911682,0.000000,0.000000,0.000000,500.000000,1712606662864070,1,0,0,-74317421,-139.906860,35.910000,-1.539234
2.820420,0,0,250,497.724994,47.642733,0.000000,372.680519,116603.264362,138.911682,0.000000,0.000000,0.000000,500.000000,1712606662864070,2,0,0,-67665272,-30.551949,35.910000,-0.409038
2.820420,0,0,250,497.724994,47.642733,0.000000,372.680519,116603.264362,138.911682,0.000000,0.000000,0.000000,500.000000,1712606662864070,3,0,0,67925655,30.551949,35.910000,0.409039
2.820420,0,0,250,497.724994,47.642733,0.000000,372.680519,116603.264362,138.911682,0.000000,0.000000,0.000000,500.000000,1712606662864070,4,0,0,74566165,139.906860,35.910000,1.539234
2.820420,0,0,250,497.724994,47.642733,0.000000,372.680519,116603.264362,138.911682,0.000000,0.000000,0.000000,500.000000,1712606663033196,1,0,0,-74318645,-134.393875,35.910000,-1.539340
2.820420,0,0,250,497.724994,47.642733,0.000000,372.680519,116603.264362,138.911682,0.000000,0.000000,0.000000,500.000000,1712606663033196,2,0,0,-67665600,-29.975103,35.910000,-0.409055
2.820420,0,0,250,497.724994,47.642733,0.000000,372.680519,116603.264362,138.911682,0.000000,0.000000,0.000000,500.000000,1712606663033196,3,0,0,67925983,29.975103,35.910000,0.409065
2.820420,0,0,250,497.724994,47.642733,0.000000,372.680519,116603.264362,138.911682,0.000000,0.000000,0.000000,500.000000,1712606663033196,4,0,0,74567389,134.393875,35.910000,1.539340
2.820420,0,0,250,497.724994,47.642733,0.000000,372.680519,116603.264362,138.911682,0.000000,0.000000,0.000000,500.000000,1712606663159037,1,0,0,-74319865,-114.792320,35.910000,-1.538431
2.820420,0,0,250,497.724994,47.642733,0.000000,372.680519,116603.264362,138.911682,0.000000,0.000000,0.000000,500.000000,1712606663159037,2,0,0,-67665964,-38.335098,35.910000,-0.409059
2.820420,0,0,250,497.724994,47.642733,0.000000,372.680519,116603.264362,138.911682,0.000000,0.000000,0.000000,500.000000,1712606663159037,3,0,0,67926347,38.335098,35.910000,0.409059
2.820420,0,0,250,497.724994,47.642733,0.000000,372.680519,116603.264362,138.911682,0.000000,0.000000,0.000000,500.000000,1712606663159037,4,0,0,74568744,143.543640,35.910000,1.539181
2.820420,0,0,250,497.724994,47.642733,0.000000,372.680519,116603.264362,138.911682,0.000000,0.000000,0.000000,500.000000,1712606663286178,1,0,0,-74320960,-114.525185,35.910000,-1.539218
2.820420,0,0,250,497.724994,47.642733,0.000000,372.680519,116603.264362,138.911682,0.000000,0.000000,0.000000,500.000000,1712606663286178,2,0,0,-67666259,-38.522106,35.910000,-0.409037
2.820420,0,0,250,497.724994,47.642733,0.000000,372.680519,116603.264362,138.911682,0.000000,0.000000,0.000000,500.000000,1712606663286178,3,0,0,67926642,38.522106,35.910000,0.409037
2.820420,0,0,250,497.724994,47.642733,0.000000,372.680519,116603.264362,138.911682,0.000000,0.000000,0.000000,500.000000,1712606663286178,4,0,0,74569843,143.468826,35.910000,1.539315
2.820420,0,0,250,497.724994,47.642733,0.000000,372.680519,116603.264362,138.911682,0.000000,0.000000,0.000000,500.000000,1712606663414181,1,0,0,-74322196,-143.711304,35.910000,-1.539417
2.820420,0,0,250,497.724994,47.642733,0.000000,372.680519,116603.264362,138.911682,0.000000,0.000000,0.000000,500.000000,1712606663414181,2,0,0,-67666555,-38.795795,35.910000,-0.409072
2.820420,0,0,250,497.724994,47.642733,0.000000,372.680519,116603.264362,138.911682,0.000000,0.000000,0.000000,500.000000,1712606663414181,3,0,0,67926938,38.795795,35.910000,0.409072
2.820420,0,0,250,497.724994,47.642733,0.000000,372.680519,116603.264362,138.911682,0.000000,0.000000,0.000000,500.000000,1712606663414181,4,0,0,74570940,143.711304,35.910000,1.539819
2.820420,0,0,250,497.724994,47.642733,0.000000,372.680519,116603.264362,138.911682,0.000000,0.000000,0.000000,500.000000,1712606663540467,1,0,0,-74323154,-114.297523,35.910000,-1.538989
2.820420,0,0,250,497.724994,47.642733,0.000000,372.680519,116603.264362,138.911682,0.000000,0.000000,0.000000,500.000000,1712606663540467,2,0,0,-67666849,-38.520157,35.910000,-0.409091
2.820420,0,0,250,497.724994,47.642733,0.000000,372.680519,116603.264362,138.911682,0.000000,0.000000,0.000000,500.000000,1712606663540467,3,0,0,67927232,38.520157,35.910000,0.409091
2.820420,0,0,250,497.724994,47.642733,0.000000,372.680519,116603.264362,138.911682,0.000000,0.000000,0.000000,500.000000,1712606663540467,4,0,0,74572036,143.345505,35.910000,1.538046
4.155325,0,0,0,76.174878,-40.431247,0.000000,697.729526,116557.914650,138.911682,0.000000,0.000000,0.000000,500.000000,1712606663680295,1,0,0,-74324372,-140.241943,35.910000,-1.536881
4.155325,0,0,0,76.174878,-40.431247,0.000000,697.729526,116557.914650,138.911682,0.000000,0.000000,0.000000,500.000000,1712606663680295,2,0,0,-67667140,-37.869488,35.910000,-0.409039
4.155325,0,0,0,76.174878,-40.431247,0.000000,697.729526,116557.914650,138.911682,0.000000,0.000000,0.000000,500.000000,1712606663680295,3,0,0,67927523,37.869488,35.910000,0.409039
4.155325,0,0,0,76.174878,-40.431247,0.000000,697.729526,116557.914650,138.911682,0.000000,0.000000,0.000000,500.000000,1712606663680295,4,0,0,74573116,140.241943,35.910000,1.538232
4.155325,0,0,0,76.174878,-40.431247,0.000000,697.729526,116557.914650,138.911682,0.000000,0.000000,0.000000,500.000000,1712606663806320,1,0,0,-74325455,-115.085945,35.910000,-1.538844
4.155325,0,0,0,76.174878,-40.431247,0.000000,697.729526,116557.914650,138.911682,0.000000,0.000000,0.000000,500.000000,1712606663806320,2,0,0,-67667467,-38.788227,35.910000,-0.409079
4.155325,0,0,0,76.174878,-40.431247,0.000000,697.729526,116557.914650,138.911682,0.000000,0.000000,0.000000,500.000000,1712606663806320,3,0,0,67927850,38.788227,35.910000,0.409079
4.155325,0,0,0,76.174878,-40.431247,0.000000,697.729526,116557.914650,138.911682,0.000000,0.000000,0.000000,500.000000,1712606663806320,4,0,0,74574199,115.085945,35.910000,1.538435
4.155325,0,0,0,76.174878,-40.431247,0.000000,697.729526,116557.914650,138.911682,0.000000,0.000000,0.000000,500.000000,1712606663931896,1,0,0,-74326545,-114.415123,35.910000,-1.538417
4.155325,0,0,0,76.174878,-40.431247,0.000000,697.729526,116557.914650,138.911682,0.000000,0.000000,0.000000,500.000000,1712606663931896,2,0,0,-67667760,-38.488911,35.910000,-0.409030
4.155325,0,0,0,76.174878,-40.431247,0.000000,697.729526,116557.914650,138.911682,0.000000,0.000000,0.000000,500.000000,1712606663931896,3,0,0,67928143,38.488911,35.910000,0.409030
4.155325,0,0,0,76.174878,-40.431247,0.000000,697.729526,116557.914650,138.911682,0.000000,0.000000,0.000000,500.000000,1712606663931896,4,0,0,74575289,114.415123,35.910000,1.538453
4.155325,0,0,0,76.174878,-40.431247,0.000000,697.729526,116557.914650,138.911682,0.000000,0.000000,0.000000,500.000000,1712606664056535,1,0,0,-74327619,-114.691040,35.910000,-1.538357
4.155325,0,0,0,76.174878,-40.431247,0.000000,697.729526,116557.914650,138.911682,0.000000,0.000000,0.000000,500.000000,1712606664056535,2,0,0,-67668048,-38.443924,35.910000,-0.409041
4.155325,0,0,0,76.174878,-40.431247,0.000000,697.729526,116557.914650,138.911682,0.000000,0.000000,0.000000,500.000000,1712606664056535,3,0,0,67928431,38.443924,35.910000,0.409041
4.155325,0,0,0,76.174878,-40.431247,0.000000,697.729526,116557.914650,138.911682,0.000000,0.000000,0.000000,500.000000,1712606664056535,4,0,0,74576363,114.691040,35.910000,1.538126
4.155325,0,0,0,76.174878,-40.431247,0.000000,697.729526,116557.914650,138.911682,0.000000,0.000000,0.000000,500.000000,1712606664199643,1,0,0,-74328959,-131.353302,35.910000,-1.539304
4.155325,0,0,0,76.174878,-40.431247,0.000000,697.729526,116557.914650,138.911682,0.000000,0.000000,0.000000,500.000000,1712606664199643,2,0,0,-67668373,-35.432110,35.910000,-0.408960
4.155325,0,0,0,76.174878,-40.431247,0.000000,697.729526,116557.914650,138.911682,0.000000,0.000000,0.000000,500.000000,1712606664199643,3,0,0,67928756,35.432110,35.910000,0.409002
4.155325,0,0,0,76.174878,-40.431247,0.000000,697.729526,116557.914650,138.911682,0.000000,0.000000,0.000000,500.000000,1712606664199643,4,0,0,74577703,131.353302,35.910000,1.538769
4.155325,0,0,0,76.174878,-40.431247,0.000000,697.729526,116557.914650,138.911682,0.000000,0.000000,0.000000,500.000000,1712606664339707,1,0,0,-74330047,-141.900436,35.910000,-1.539020
4.155325,0,0,0,76.174878,-40.431247,0.000000,697.729526,116557.914650,138.911682,0.000000,0.000000,0.000000,500.000000,1712606664339707,2,0,0,-67668665,-38.027275,35.910000,-0.409048
4.155325,0,0,0,76.174878,-40.431247,0.000000,697.729526,116557.914650,138.911682,0.000000,0.000000,0.000000,500.000000,1712606664339707,3,0,0,67929048,38.027275,35.910000,0.409048
4.155325,0,0,0,76.174878,-40.431247,0.000000,697.729526,116557.914650,138.911682,0.000000,0.000000,0.000000,500.000000,1712606664339707,4,0,0,74578791,141.900436,35.910000,1.538449
4.155325,0,0,0,76.174878,-40.431247,0.000000,697.729526,116557.914650,138.911682,0.000000,0.000000,0.000000,500.000000,1712606664464993,1,0,0,-74331130,-139.379654,35.910000,-1.537541
4.155325,0,0,0,76.174878,-40.431247,0.000000,697.729526,116557.914650,138.911682,0.000000,0.000000,0.000000,500.000000,1712606664464993,2,0,0,-67668955,-37.254749,35.910000,-0.409035
4.155325,0,0,0,76.174878,-40.431247,0.000000,697.729526,116557.914650,138.911682,0.000000,0.000000,0.000000,500.000000,1712606664464993,3,0,0,67929338,37.254749,35.910000,0.409035
4.155325,0,0,0,76.174878,-40.431247,0.000000,697.729526,116557.914650,138.911682,0.000000,0.000000,0.000000,500.000000,1712606664464993,4,0,0,74579874,139.379654,35.910000,1.539288
4.155325,0,0,0,76.174878,-40.431247,0.000000,697.729526,116557.914650,138.911682,0.000000,0.000000,0.000000,500.000000,1712606664592769,1,0,0,-74332215,-112.515045,35.910000,-1.539372
4.155325,0,0,0,76.174878,-40.431247,0.000000,697.729526,116557.914650,138.911682,0.000000,0.000000,0.000000,500.000000,1712606664592769,2,0,0,-67669285,-38.130096,35.910000,-0.409022
4.155325,0,0,0,76.174878,-40.431247,0.000000,697.729526,116557.914650,138.911682,0.000000,0.000000,0.000000,500.000000,1712606664592769,3,0,0,67929668,38.130096,35.910000,0.409022
4.155325,0,0,0,76.174878,-40.431247,0.000000,697.729526,116557.914650,138.911682,0.000000,0.000000,0.000000,500.000000,1712606664592769,4,0,0,74581099,141.685608,35.910000,1.538720
4.155325,0,0,0,76.174878,-40.431247,0.000000,697.729526,116557.914650,138.911682,0.000000,0.000000,0.000000,500.000000,1712606664721231,1,0,0,-74333316,-114.659958,35.910000,-1.539793
4.155325,0,0,0,76.174878,-40.431247,0.000000,697.729526,116557.914650,138.911682,0.000000,0.000000,0.000000,500.000000,1712606664721231,2,0,0,-67669582,-38.700310,35.910000,-0.409065
4.155325,0,0,0,76.174878,-40.431247,0.000000,697.729526,116557.914650,138.911682,0.000000,0.000000,0.000000,500.000000,1712606664721231,3,0,0,67929965,38.700310,35.910000,0.409065
4.155325,0,0,0,76.174878,-40.431247,0.000000,697.729526,116557.914650,138.911682,0.000000,0.000000,0.000000,500.000000,1712606664721231,4,0,0,74582202,143.891037,35.910000,1.538868
4.155325,0,0,0,76.174878,-40.431247,0.000000,697.729526,116557.914650,138.911682,0.000000,0.000000,0.000000,500.000000,1712606664829411,1,0,0,-74333871,-141.902084,35.910000,-1.564653
4.155325,0,0,0,76.174878,-40.431247,0.000000,697.729526,116557.914650,138.911682,0.000000,0.000000,0.000000,500.000000,1712606664829411,2,0,0,-67669693,-28.380417,35.910000,-0.409044
4.155325,0,0,0,76.174878,-40.431247,0.000000,697.729526,116557.914650,138.911682,0.000000,0.000000,0.000000,500.000000,1712606664829411,3,0,0,67930150,47.300697,35.910000,0.409044
4.155325,0,0,0,76.174878,-40.431247,0.000000,697.729526,116557.914650,138.911682,0.000000,0.000000,0.000000,500.000000,1712606664829411,4,0,0,74582615,105.595612,35.910000,1.562498
5.559838,0,0,0,64.891270,-39.978977,0.000000,807.628051,116494.683253,138.911682,0.000000,359.369995,3.500000,500.000000,1712606664978527,1,0,0,-74335345,-111.584007,35.910000,-1.538832
5.559838,0,0,0,64.891270,-39.978977,0.000000,807.628051,116494.683253,138.911682,0.000000,359.369995,3.500000,500.000000,1712606664978527,2,0,0,-67670126,-37.825089,35.910000,-0.410883
5.559838,0,0,0,64.891270,-39.978977,0.000000,807.628051,116494.683253,138.911682,0.000000,359.369995,3.500000,500.000000,1712606664978527,3,0,0,67930509,37.825089,35.910000,0.409006
5.559838,0,0,0,64.891270,-39.978977,0.000000,807.628051,116494.683253,138.911682,0.000000,359.369995,3.500000,500.000000,1712606664978527,4,0,0,74584227,140.583237,35.910000,1.538187
5.559838,0,0,0,64.891270,-39.978977,0.000000,807.628051,116494.683253,138.911682,0.000000,359.369995,3.500000,500.000000,1712606665114800,1,0,0,-74336688,-114.085068,35.910000,-1.537047
5.559838,0,0,0,64.891270,-39.978977,0.000000,807.628051,116494.683253,138.911682,0.000000,359.369995,3.500000,500.000000,1712606665114800,2,0,0,-67670450,-30.608191,35.910000,-0.408972
5.559838,0,0,0,64.891270,-39.978977,0.000000,807.628051,116494.683253,138.911682,0.000000,359.369995,3.500000,500.000000,1712606665114800,3,0,0,67930833,30.608191,35.910000,0.408988
5.559838,0,0,0,64.891270,-39.978977,0.000000,807.628051,116494.683253,138.911682,0.000000,359.369995,3.500000,500.000000,1712606665114800,4,0,0,74585432,114.085068,35.910000,1.537438
5.559838,0,0,0,64.891270,-39.978977,0.000000,807.628051,116494.683253,138.911682,0.000000,359.369995,3.500000,500.000000,1712606665260476,1,0,0,-74337753,-140.785278,35.910000,-1.538154
5.559838,0,0,0,64.891270,-39.978977,0.000000,807.628051,116494.683253,138.911682,0.000000,359.369995,3.500000,500.000000,1712606665260476,2,0,0,-67670735,-28.157057,35.910000,-0.408982
5.559838,0,0,0,64.891270,-39.978977,0.000000,807.628051,116494.683253,138.911682,0.000000,359.369995,3.500000,500.000000,1712606665260476,3,0,0,67931118,28.157057,35.910000,0.409095
5.559838,0,0,0,64.891270,-39.978977,0.000000,807.628051,116494.683253,138.911682,0.000000,359.369995,3.500000,500.000000,1712606665260476,4,0,0,74586497,105.395218,35.910000,1.537578
5.559838,0,0,0,64.891270,-39.978977,0.000000,807.628051,116494.683253,138.911682,0.000000,359.369995,3.500000,500.000000,1712606665408305,1,0,0,-74339376,-131.387222,35.910000,-1.562879
5.559838,0,0,0,64.891270,-39.978977,0.000000,807.628051,116494.683253,138.911682,0.000000,359.369995,3.500000,500.000000,1712606665408305,2,0,0,-67671171,-35.379669,35.910000,-0.409039
5.559838,0,0,0,64.891270,-39.978977,0.000000,807.628051,116494.683253,138.911682,0.000000,359.369995,3.500000,500.000000,1712606665408305,3,0,0,67931554,35.379669,35.910000,0.409039
5.559838,0,0,0,64.891270,-39.978977,0.000000,807.628051,116494.683253,138.911682,0.000000,359.369995,3.500000,500.000000,1712606665408305,4,0,0,74588120,131.387222,35.910000,1.537825
5.559838,0,0,0,64.891270,-39.978977,0.000000,807.628051,116494.683253,138.911682,0.000000,359.369995,3.500000,500.000000,1712606665534435,1,0,0,-74340455,-143.559402,35.910000,-1.538503
5.559838,0,0,0,64.891270,-39.978977,0.000000,807.628051,116494.683253,138.911682,0.000000,359.369995,3.500000,500.000000,1712606665534435,2,0,0,-67671461,-38.536594,35.910000,-0.409042
5.559838,0,0,0,64.891270,-39.978977,0.000000,807.628051,116494.683253,138.911682,0.000000,359.369995,3.500000,500.000000,1712606665534435,3,0,0,67931844,38.536594,35.910000,0.409042
5.559838,0,0,0,64.891270,-39.978977,0.000000,807.628051,116494.683253,138.911682,0.000000,359.369995,3.500000,500.000000,1712606665534435,4,0,0,74589199,143.559402,35.910000,1.538549
5.559838,0,0,0,64.891270,-39.978977,0.000000,807.628051,116494.683253,138.911682,0.000000,359.369995,3.500000,500.000000,1712606665671811,1,0,0,-74341539,-140.897522,35.910000,-1.538809
5.559838,0,0,0,64.891270,-39.978977,0.000000,807.628051,116494.683253,138.911682,0.000000,359.369995,3.500000,500.000000,1712606665671811,2,0,0,-67671753,-37.833595,35.910000,-0.408991
5.559838,0,0,0,64.891270,-39.978977,0.000000,807.628051,116494.683253,138.911682,0.000000,359.369995,3.500000,500.000000,1712606665671811,3,0,0,67932136,37.833595,35.910000,0.408991
5.559838,0,0,0,64.891270,-39.978977,0.000000,807.628051,116494.683253,138.911682,0.000000,359.369995,3.500000,500.000000,1712606665671811,4,0,0,74590283,140.897522,35.910000,1.538134
5.559838,0,0,0,64.891270,-39.978977,0.000000,807.628051,116494.683253,138.911682,0.000000,359.369995,3.500000,500.000000,1712606665798833,1,0,0,-74342614,-137.205795,35.910000,-1.538110
5.559838,0,0,0,64.891270,-39.978977,0.000000,807.628051,116494.683253,138.911682,0.000000,359.369995,3.500000,500.000000,1712606665798833,2,0,0,-67672042,-36.910652,35.910000,-0.409038
5.559838,0,0,0,64.891270,-39.978977,0.000000,807.628051,116494.683253,138.911682,0.000000,359.369995,3.500000,500.000000,1712606665798833,3,0,0,67932425,36.910652,35.910000,0.409067
5.559838,0,0,0,64.891270,-39.978977,0.000000,807.628051,116494.683253,138.911682,0.000000,359.369995,3.500000,500.000000,1712606665798833,4,0,0,74591358,137.205795,35.910000,1.538231
5.559838,0,0,0,64.891270,-39.978977,0.000000,807.628051,116494.683253,138.911682,0.000000,359.369995,3.500000,500.000000,1712606665945629,1,0,0,-74343698,-141.417099,35.910000,-1.538264
5.559838,0,0,0,64.891270,-39.978977,0.000000,807.628051,116494.683253,138.911682,0.000000,359.369995,3.500000,500.000000,1712606665945629,2,0,0,-67672334,-38.093906,35.910000,-0.409032
5.559838,0,0,0,64.891270,-39.978977,0.000000,807.628051,116494.683253,138.911682,0.000000,359.369995,3.500000,500.000000,1712606665945629,3,0,0,67932717,38.093906,35.910000,0.409023
5.559838,0,0,0,64.891270,-39.978977,0.000000,807.628051,116494.683253,138.911682,0.000000,359.369995,3.500000,500.000000,1712606665945629,4,0,0,74592442,141.417099,35.910000,1.538219
5.559838,0,0,0,64.891270,-39.978977,0.000000,807.628051,116494.683253,138.911682,0.000000,359.369995,3.500000,500.000000,1712606666106096,1,0,0,-74345196,-130.548477,35.910000,-1.538432
5.559838,0,0,0,64.891270,-39.978977,0.000000,807.628051,116494.683253,138.911682,0.000000,359.369995,3.500000,500.000000,1712606666106096,2,0,0,-67672737,-29.349352,35.910000,-0.409015
5.559838,0,0,0,64.891270,-39.978977,0.000000,807.628051,116494.683253,138.911682,0.000000,359.369995,3.500000,500.000000,1712606666106096,3,0,0,67933120,29.349352,35.910000,0.409028
5.559838,0,0,0,64.891270,-39.978977,0.000000,807.628051,116494.683253,138.911682,0.000000,359.369995,3.500000,500.000000,1712606666106096,4,0,0,74593940,130.548477,35.910000,1.538042
5.559838,0,0,0,64.891270,-39.978977,0.000000,807.628051,116494.683253,138.911682,0.000000,359.369995,3.500000,500.000000,1712606666246879,1,0,0,-74346286,-110.439934,35.910000,-1.538678
5.559838,0,0,0,64.891270,-39.978977,0.000000,807.628051,116494.683253,138.911682,0.000000,359.369995,3.500000,500.000000,1712606666246879,2,0,0,-67673030,-29.713602,35.910000,-0.409000
5.559838,0,0,0,64.891270,-39.978977,0.000000,807.628051,116494.683253,138.911682,0.000000,359.369995,3.500000,500.000000,1712606666246879,3,0,0,67933413,29.713602,35.910000,0.410937
5.559838,0,0,0,64.891270,-39.978977,0.000000,807.628051,116494.683253,138.911682,0.000000,359.369995,3.500000,500.000000,1712606666246879,4,0,0,74595030,110.439934,35.910000,1.537823
6.853407,0,0,0,85.144281,-22.719315,0.000000,913.659103,116458.496125,138.911682,0.000000,359.019989,16.975000,500.000000,1712606666373674,1,0,0,-74347630,-112.981079,35.910000,-1.536719
6.853407,0,0,0,85.144281,-22.719315,0.000000,913.659103,116458.496125,138.911682,0.000000,359.019989,16.975000,500.000000,1712606666373674,2,0,0,-67673392,-30.450291,35.910000,-0.409061
6.853407,0,0,0,85.144281,-22.719315,0.000000,913.659103,116458.496125,138.911682,0.000000,359.019989,16.975000,500.000000,1712606666373674,3,0,0,67933775,30.450291,35.910000,0.408963
6.853407,0,0,0,85.144281,-22.719315,0.000000,913.659103,116458.496125,138.911682,0.000000,359.019989,16.975000,500.000000,1712606666373674,4,0,0,74596374,112.981079,35.910000,1.538676
6.853407,0,0,0,85.144281,-22.719315,0.000000,913.659103,116458.496125,138.911682,0.000000,359.019989,16.975000,500.000000,1712606666502030,1,0,0,-74348708,-104.746552,35.910000,-1.537872
6.853407,0,0,0,85.144281,-22.719315,0.000000,913.659103,116458.496125,138.911682,0.000000,359.019989,16.975000,500.000000,1712606666502030,2,0,0,-67673682,-28.152222,35.910000,-0.408955
6.853407,0,0,0,85.144281,-22.719315,0.000000,913.659103,116458.496125,138.911682,0.000000,359.019989,16.975000,500.000000,1712606666502030,3,0,0,67934065,28.152222,35.910000,0.409066
6.853407,0,0,0,85.144281,-22.719315,0.000000,913.659103,116458.496125,138.911682,0.000000,359.019989,16.975000,500.000000,1712606666502030,4,0,0,74597452,104.746552,35.910000,1.537206
6.853407,0,0,0,85.144281,-22.719315,0.000000,913.659103,116458.496125,138.911682,0.000000,359.019989,16.975000,500.000000,1712606666664526,1,0,0,-74349776,-104.750038,35.910000,-1.538806
6.853407,0,0,0,85.144281,-22.719315,0.000000,913.659103,116458.496125,138.911682,0.000000,359.019989,16.975000,500.000000,1712606666664526,2,0,0,-67674007,-37.855213,35.910000,-0.409006
6.853407,0,0,0,85.144281,-22.719315,0.000000,913.659103,116458.496125,138.911682,0.000000,359.019989,16.975000,500.000000,1712606666664526,3,0,0,67934390,37.855213,35.910000,0.410886
6.853407,0,0,0,85.144281,-22.719315,0.000000,913.659103,116458.496125,138.911682,0.000000,359.019989,16.975000,500.000000,1712606666664526,4,0,0,74598520,104.750038,35.910000,1.538474
6.853407,0,0,0,85.144281,-22.719315,0.000000,913.659103,116458.496125,138.911682,0.000000,359.019989,16.975000,500.000000,1712606666791511,1,0,0,-74351128,-136.637375,35.910000,-1.539436
6.853407,0,0,0,85.144281,-22.719315,0.000000,913.659103,116458.496125,138.911682,0.000000,359.019989,16.975000,500.000000,1712606666791511,2,0,0,-67674334,-36.689667,35.910000,-0.408991
6.853407,0,0,0,85.144281,-22.719315,0.000000,913.659103,116458.496125,138.911682,0.000000,359.019989,16.975000,500.000000,1712606666791511,3,0,0,67934717,27.074442,35.910000,0.409026
6.853407,0,0,0,85.144281,-22.719315,0.000000,913.659103,116458.496125,138.911682,0.000000,359.019989,16.975000,500.000000,1712606666791511,4,0,0,74599872,136.637375,35.910000,1.539436
6.853407,0,0,0,85.144281,-22.719315,0.000000,913.659103,116458.496125,138.911682,0.000000,359.019989,16.975000,500.000000,1712606666916517,1,0,0,-74352341,-142.986938,35.910000,-1.538938
6.853407,0,0,0,85.144281,-22.719315,0.000000,913.659103,116458.496125,138.911682,0.000000,359.019989,16.975000,500.000000,1712606666916517,2,0,0,-67674658,-30.427280,35.910000,-0.409036
6.853407,0,0,0,85.144281,-22.719315,0.000000,913.659103,116458.496125,138.911682,0.000000,359.019989,16.975000,500.000000,1712606666916517,3,0,0,67935041,30.427280,35.910000,0.409011
6.853407,0,0,0,85.144281,-22.719315,0.000000,913.659103,116458.496125,138.911682,0.000000,359.019989,16.975000,500.000000,1712606666916517,4,0,0,74601085,142.986938,35.910000,1.538938
6.853407,0,0,0,85.144281,-22.719315,0.000000,913.659103,116458.496125,138.911682,0.000000,359.019989,16.975000,500.000000,1712606667040761,1,0,0,-74353418,-142.944626,35.910000,-1.538118
6.853407,0,0,0,85.144281,-22.719315,0.000000,913.659103,116458.496125,138.911682,0.000000,359.019989,16.975000,500.000000,1712606667040761,2,0,0,-67674947,-30.889675,35.910000,-0.409015
6.853407,0,0,0,85.144281,-22.719315,0.000000,913.659103,116458.496125,138.911682,0.000000,359.019989,16.975000,500.000000,1712606667040761,3,0,0,67935330,30.889675,35.910000,0.409027
6.853407,0,0,0,85.144281,-22.719315,0.000000,913.659103,116458.496125,138.911682,0.000000,359.019989,16.975000,500.000000,1712606667040761,4,0,0,74602162,142.944626,35.910000,1.538118
6.853407,0,0,0,85.144281,-22.719315,0.000000,913.659103,116458.496125,138.911682,0.000000,359.019989,16.975000,500.000000,1712606667211553,1,0,0,-74354616,-143.050980,35.910000,-1.537872
6.853407,0,0,0,85.144281,-22.719315,0.000000,913.659103,116458.496125,138.911682,0.000000,359.019989,16.975000,500.000000,1712606667211553,2,0,0,-67675269,-31.908613,35.910000,-0.409025
6.853407,0,0,0,85.144281,-22.719315,0.000000,913.659103,116458.496125,138.911682,0.000000,359.019989,16.975000,500.000000,1712606667211553,3,0,0,67935652,31.908613,35.910000,0.410903
6.853407,0,0,0,85.144281,-22.719315,0.000000,913.659103,116458.496125,138.911682,0.000000,359.019989,16.975000,500.000000,1712606667211553,4,0,0,74603360,143.050980,35.910000,1.537835
6.853407,0,0,0,85.144281,-22.719315,0.000000,913.659103,116458.496125,138.911682,0.000000,359.019989,16.975000,500.000000,1712606667338883,1,0,0,-74355969,-143.078934,35.910000,-1.537720
6.853407,0,0,0,85.144281,-22.719315,0.000000,913.659103,116458.496125,138.911682,0.000000,359.019989,16.975000,500.000000,1712606667338883,2,0,0,-67675633,-30.975851,35.910000,-0.409010
6.853407,0,0,0,85.144281,-22.719315,0.000000,913.659103,116458.496125,138.911682,0.000000,359.019989,16.975000,500.000000,1712606667338883,3,0,0,67936016,30.975851,35.910000,0.409132
6.853407,0,0,0,85.144281,-22.719315,0.000000,913.659103,116458.496125,138.911682,0.000000,359.019989,16.975000,500.000000,1712606667338883,4,0,0,74604713,143.078934,35.910000,1.537720
6.853407,0,0,0,85.144281,-22.719315,0.000000,913.659103,116458.496125,138.911682,0.000000,359.019989,16.975000,500.000000,1712606667465187,1,0,0,-74357046,-142.830307,35.910000,-1.537592
6.853407,0,0,0,85.144281,-22.719315,0.000000,913.659103,116458.496125,138.911682,0.000000,359.019989,16.975000,500.000000,1712606667465187,2,0,0,-67675923,-30.819038,35.910000,-0.409066
6.853407,0,0,0,85.144281,-22.719315,0.000000,913.659103,116458.496125,138.911682,0.000000,359.019989,16.975000,500.000000,1712606667465187,3,0,0,67936306,30.819038,35.910000,0.409061
6.853407,0,0,0,85.144281,-22.719315,0.000000,913.659103,116458.496125,138.911682,0.000000,359.019989,16.975000,500.000000,1712606667465187,4,0,0,74605790,114.349258,35.910000,1.537592
6.853407,0,0,0,85.144281,-22.719315,0.000000,913.659103,116458.496125,138.911682,0.000000,359.019989,16.975000,500.000000,1712606667569689,1,0,0,-74357583,-137.360992,35.910000,-1.590878
6.853407,0,0,0,85.144281,-22.719315,0.000000,913.659103,116458.496125,138.911682,0.000000,359.019989,16.975000,500.000000,1712606667569689,2,0,0,-67676068,-37.090027,35.910000,-0.408902
6.853407,0,0,0,85.144281,-22.719315,0.000000,913.659103,116458.496125,138.911682,0.000000,359.019989,16.975000,500.000000,1712606667569689,3,0,0,67936451,37.090027,35.910000,0.409005
6.853407,0,0,0,85.144281,-22.719315,0.000000,913.659103,116458.496125,138.911682,0.000000,359.019989,16.975000,500.000000,1712606667569689,4,0,0,74606327,137.360992,35.910000,1.590878
8.259309,0,0,0,71.710063,15.393147,0.000000,1036.075834,116455.670588,138.911682,0.000000,358.039948,39.900001,500.000000,1712606667715064,1,0,0,-74359063,-142.008575,35.910000,-1.538615
8.259309,0,0,0,71.710063,15.393147,0.000000,1036.075834,116455.670588,138.911682,0.000000,358.039948,39.900001,500.000000,1712606667715064,2,0,0,-67676466,-30.761501,35.910000,-0.409046
8.259309,0,0,0,71.710063,15.393147,0.000000,1036.075834,116455.670588,138.911682,0.000000,358.039948,39.900001,500.000000,1712606667715064,3,0,0,67936849,30.761501,35.910000,0.410982
8.259309,0,0,0,71.710063,15.393147,0.000000,1036.075834,116455.670588,138.911682,0.000000,358.039948,39.900001,500.000000,1712606667715064,4,0,0,74607807,142.008575,35.910000,1.538615
8.259309,0,0,0,71.710063,15.393147,0.000000,1036.075834,116455.670588,138.911682,0.000000,358.039948,39.900001,500.000000,1712606667853666,1,0,0,-74360283,-138.172363,35.910000,-1.538907
8.259309,0,0,0,71.710063,15.393147,0.000000,1036.075834,116455.670588,138.911682,0.000000,358.039948,39.900001,500.000000,1712606667853666,2,0,0,-67676794,-28.297293,35.910000,-0.409009
8.259309,0,0,0,71.710063,15.393147,0.000000,1036.075834,116455.670588,138.911682,0.000000,358.039948,39.900001,500.000000,1712606667853666,3,0,0,67937177,28.297293,35.910000,0.409021
8.259309,0,0,0,71.710063,15.393147,0.000000,1036.075834,116455.670588,138.911682,0.000000,358.039948,39.900001,500.000000,1712606667853666,4,0,0,74609027,138.172363,35.910000,1.538907
8.259309,0,0,0,71.710063,15.393147,0.000000,1036.075834,116455.670588,138.911682,0.000000,358.039948,39.900001,500.000000,1712606667979344,1,0,0,-74361365,-140.712326,35.910000,-1.538236
8.259309,0,0,0,71.710063,15.393147,0.000000,1036.075834,116455.670588,138.911682,0.000000,358.039948,39.900001,500.000000,1712606667979344,2,0,0,-67677085,-28.246119,35.910000,-0.409018
8.259309,0,0,0,71.710063,15.393147,0.000000,1036.075834,116455.670588,138.911682,0.000000,358.039948,39.900001,500.000000,1712606667979344,3,0,0,67937468,28.246119,35.910000,0.409088
8.259309,0,0,0,71.710063,15.393147,0.000000,1036.075834,116455.670588,138.911682,0.000000,358.039948,39.900001,500.000000,1712606667979344,4,0,0,74610109,140.712326,35.910000,1.538081
8.259309,0,0,0,71.710063,15.393147,0.000000,1036.075834,116455.670588,138.911682,0.000000,358.039948,39.900001,500.000000,1712606668121179,1,0,0,-74362439,-139.058594,35.910000,-1.563338
8.259309,0,0,0,71.710063,15.393147,0.000000,1036.075834,116455.670588,138.911682,0.000000,358.039948,39.900001,500.000000,1712606668121179,2,0,0,-67677373,-28.229940,35.910000,-0.409047
8.259309,0,0,0,71.710063,15.393147,0.000000,1036.075834,116455.670588,138.911682,0.000000,358.039948,39.900001,500.000000,1712606668121179,3,0,0,67937756,28.229940,35.910000,0.409068
8.259309,0,0,0,71.710063,15.393147,0.000000,1036.075834,116455.670588,138.911682,0.000000,358.039948,39.900001,500.000000,1712606668121179,4,0,0,74611183,105.339500,35.910000,1.538482
8.259309,0,0,0,71.710063,15.393147,0.000000,1036.075834,116455.670588,138.911682,0.000000,358.039948,39.900001,500.000000,1712606668246480,1,0,0,-74363791,-142.944855,35.910000,-1.538178
8.259309,0,0,0,71.710063,15.393147,0.000000,1036.075834,116455.670588,138.911682,0.000000,358.039948,39.900001,500.000000,1712606668246480,2,0,0,-67677736,-30.918442,35.910000,-0.409030
8.259309,0,0,0,71.710063,15.393147,0.000000,1036.075834,116455.670588,138.911682,0.000000,358.039948,39.900001,500.000000,1712606668246480,3,0,0,67938119,30.918442,35.910000,0.409030
8.259309,0,0,0,71.710063,15.393147,0.000000,1036.075834,116455.670588,138.911682,0.000000,358.039948,39.900001,500.000000,1712606668246480,4,0,0,74612535,114.567650,35.910000,1.538178
8.259309,0,0,0,71.710063,15.393147,0.000000,1036.075834,116455.670588,138.911682,0.000000,358.039948,39.900001,500.000000,1712606668386854,1,0,0,-74364865,-136.844864,35.910000,-1.537621
8.259309,0,0,0,71.710063,15.393147,0.000000,1036.075834,116455.670588,138.911682,0.000000,358.039948,39.900001,500.000000,1712606668386854,2,0,0,-67678025,-36.833012,35.910000,-0.409006
8.259309,0,0,0,71.710063,15.393147,0.000000,1036.075834,116455.670588,138.911682,0.000000,358.039948,39.900001,500.000000,1712606668386854,3,0,0,67938408,27.368975,35.910000,0.409138
8.259309,0,0,0,71.710063,15.393147,0.000000,1036.075834,116455.670588,138.911682,0.000000,358.039948,39.900001,500.000000,1712606668386854,4,0,0,74613609,136.844864,35.910000,1.537906
8.259309,0,0,0,71.710063,15.393147,0.000000,1036.075834,116455.670588,138.911682,0.000000,358.039948,39.900001,500.000000,1712606668538846,1,0,0,-74365943,-139.669830,35.910000,-1.539182
8.259309,0,0,0,71.710063,15.393147,0.000000,1036.075834,116455.670588,138.911682,0.000000,358.039948,39.900001,500.000000,1712606668538846,2,0,0,-67678314,-27.726665,35.910000,-0.410969
8.259309,0,0,0,71.710063,15.393147,0.000000,1036.075834,116455.670588,138.911682,0.000000,358.039948,39.900001,500.000000,1712606668538846,3,0,0,67938697,27.726665,35.910000,0.409060
8.259309,0,0,0,71.710063,15.393147,0.000000,1036.075834,116455.670588,138.911682,0.000000,358.039948,39.900001,500.000000,1712606668538846,4,0,0,74614687,103.910210,35.910000,1.538482
8.259309,0,0,0,71.710063,15.393147,0.000000,1036.075834,116455.670588,138.911682,0.000000,358.039948,39.900001,500.000000,1712606668677169,1,0,0,-74367452,-123.034950,35.910000,-1.537454
8.259309,0,0,0,71.710063,15.393147,0.000000,1036.075834,116455.670588,138.911682,0.000000,358.039948,39.900001,500.000000,1712606668677169,2,0,0,-67678719,-33.083527,35.910000,-0.409033
8.259309,0,0,0,71.710063,15.393147,0.000000,1036.075834,116455.670588,138.911682,0.000000,358.039948,39.900001,500.000000,1712606668677169,3,0,0,67939137,39.342571,35.910000,0.409059
8.259309,0,0,0,71.710063,15.393147,0.000000,1036.075834,116455.670588,138.911682,0.000000,358.039948,39.900001,500.000000,1712606668677169,4,0,0,74616196,123.034950,35.910000,1.538288
8.259309,0,0,0,71.710063,15.393147,0.000000,1036.075834,116455.670588,138.911682,0.000000,358.039948,39.900001,500.000000,1712606668802944,1,0,0,-74368528,-104.200012,35.910000,-1.539607
8.259309,0,0,0,71.710063,15.393147,0.000000,1036.075834,116455.670588,138.911682,0.000000,358.039948,39.900001,500.000000,1712606668802944,2,0,0,-67679009,-28.043953,35.910000,-0.408996
8.259309,0,0,0,71.710063,15.393147,0.000000,1036.075834,116455.670588,138.911682,0.000000,358.039948,39.900001,500.000000,1712606668802944,3,0,0,67939430,37.820744,35.910000,0.409046
8.259309,0,0,0,71.710063,15.393147,0.000000,1036.075834,116455.670588,138.911682,0.000000,358.039948,39.900001,500.000000,1712606668802944,4,0,0,74617272,104.200012,35.910000,1.537778
8.259309,0,0,0,71.710063,15.393147,0.000000,1036.075834,116455.670588,138.911682,0.000000,358.039948,39.900001,500.000000,1712606668939930,1,0,0,-74369613,-105.076813,35.910000,-1.537710
8.259309,0,0,0,71.710063,15.393147,0.000000,1036.075834,116455.670588,138.911682,0.000000,358.039948,39.900001,500.000000,1712606668939930,2,0,0,-67679300,-28.159542,35.910000,-0.409018
8.259309,0,0,0,71.710063,15.393147,0.000000,1036.075834,116455.670588,138.911682,0.000000,358.039948,39.900001,500.000000,1712606668939930,3,0,0,67939718,37.285320,35.910000,0.409032
8.259309,0,0,0,71.710063,15.393147,0.000000,1036.075834,116455.670588,138.911682,0.000000,358.039948,39.900001,500.000000,1712606668939930,4,0,0,74618357,105.076813,35.910000,1.538080
9.561489,0,0,0,70.062735,13.937692,0.000000,1139.940753,116475.869580,138.911682,0.000000,358.039948,39.900001,500.000000,1712606669065378,1,0,0,-74370826,-115.860268,35.910000,-1.538281
9.561489,0,0,0,70.062735,13.937692,0.000000,1139.940753,116475.869580,138.911682,0.000000,358.039948,39.900001,500.000000,1712606669065378,2,0,0,-67679625,-30.867882,35.910000,-0.409031
9.561489,0,0,0,70.062735,13.937692,0.000000,1139.940753,116475.869580,138.911682,0.000000,358.039948,39.900001,500.000000,1712606669065378,3,0,0,67940008,30.867882,35.910000,0.409051
9.561489,0,0,0,70.062735,13.937692,0.000000,1139.940753,116475.869580,138.911682,0.000000,358.039948,39.900001,500.000000,1712606669065378,4,0,0,74619570,115.860268,35.910000,1.538258
9.561489,0,0,0,70.062735,13.937692,0.000000,1139.940753,116475.869580,138.911682,0.000000,358.039948,39.900001,500.000000,1712606669209143,1,0,0,-74372033,-114.335838,35.910000,-1.538775
9.561489,0,0,0,70.062735,13.937692,0.000000,1139.940753,116475.869580,138.911682,0.000000,358.039948,39.900001,500.000000,1712606669209143,2,0,0,-67679948,-30.675468,35.910000,-0.409047
9.561489,0,0,0,70.062735,13.937692,0.000000,1139.940753,116475.869580,138.911682,0.000000,358.039948,39.900001,500.000000,1712606669209143,3,0,0,67940368,38.612480,35.910000,0.409005
9.561489,0,0,0,70.062735,13.937692,0.000000,1139.940753,116475.869580,138.911682,0.000000,358.039948,39.900001,500.000000,1712606669209143,4,0,0,74620777,114.335838,35.910000,1.538482
9.561489,0,0,0,70.062735,13.937692,0.000000,1139.940753,116475.869580,138.911682,0.000000,358.039948,39.900001,500.000000,1712606669358042,1,0,0,-74373256,-123.219917,35.910000,-1.538917
9.561489,0,0,0,70.062735,13.937692,0.000000,1139.940753,116475.869580,138.911682,0.000000,358.039948,39.900001,500.000000,1712606669358042,2,0,0,-67680277,-33.098488,35.910000,-0.409043
9.561489,0,0,0,70.062735,13.937692,0.000000,1139.940753,116475.869580,138.911682,0.000000,358.039948,39.900001,500.000000,1712606669358042,3,0,0,67940660,33.098488,35.910000,0.409072
9.561489,0,0,0,70.062735,13.937692,0.000000,1139.940753,116475.869580,138.911682,0.000000,358.039948,39.900001,500.000000,1712606669358042,4,0,0,74622000,123.219917,35.910000,1.538917
9.561489,0,0,0,70.062735,13.937692,0.000000,1139.940753,116475.869580,138.911682,0.000000,358.039948,39.900001,500.000000,1712606669497013,1,0,0,-74374474,-142.145248,35.910000,-1.537936
9.561489,0,0,0,70.062735,13.937692,0.000000,1139.940753,116475.869580,138.911682,0.000000,358.039948,39.900001,500.000000,1712606669497013,2,0,0,-67680605,-38.440468,35.910000,-0.409059
9.561489,0,0,0,70.062735,13.937692,0.000000,1139.940753,116475.869580,138.911682,0.000000,358.039948,39.900001,500.000000,1712606669497013,3,0,0,67940988,30.625648,35.910000,0.409068
9.561489,0,0,0,70.062735,13.937692,0.000000,1139.940753,116475.869580,138.911682,0.000000,358.039948,39.900001,500.000000,1712606669497013,4,0,0,74623218,142.145248,35.910000,1.539451
9.561489,0,0,0,70.062735,13.937692,0.000000,1139.940753,116475.869580,138.911682,0.000000,358.039948,39.900001,500.000000,1712606669651458,1,0,0,-74375837,-124.135162,35.910000,-1.538392
9.561489,0,0,0,70.062735,13.937692,0.000000,1139.940753,116475.869580,138.911682,0.000000,358.039948,39.900001,500.000000,1712606669651458,2,0,0,-67680971,-33.133247,35.910000,-0.409038
9.561489,0,0,0,70.062735,13.937692,0.000000,1139.940753,116475.869580,138.911682,0.000000,358.039948,39.900001,500.000000,1712606669651458,3,0,0,67941390,38.630009,35.910000,0.409038
9.561489,0,0,0,70.062735,13.937692,0.000000,1139.940753,116475.869580,138.911682,0.000000,358.039948,39.900001,500.000000,1712606669651458,4,0,0,74624581,124.135162,35.910000,1.538645
9.561489,0,0,0,70.062735,13.937692,0.000000,1139.940753,116475.869580,138.911682,0.000000,358.039948,39.900001,500.000000,1712606669777870,1,0,0,-74376927,-116.509262,35.910000,-1.538675
9.561489,0,0,0,70.062735,13.937692,0.000000,1139.940753,116475.869580,138.911682,0.000000,358.039948,39.900001,500.000000,1712606669777870,2,0,0,-67681264,-31.392187,35.910000,-0.409038
9.561489,0,0,0,70.062735,13.937692,0.000000,1139.940753,116475.869580,138.911682,0.000000,358.039948,39.900001,500.000000,1712606669777870,3,0,0,67941684,39.187565,35.910000,0.409111
9.561489,0,0,0,70.062735,13.937692,0.000000,1139.940753,116475.869580,138.911682,0.000000,358.039948,39.900001,500.000000,1712606669777870,4,0,0,74625671,116.509262,35.910000,1.538351
9.561489,0,0,0,70.062735,13.937692,0.000000,1139.940753,116475.869580,138.911682,0.000000,358.039948,39.900001,500.000000,1712606669903176,1,0,0,-74378009,-113.963745,35.910000,-1.539214
9.561489,0,0,0,70.062735,13.937692,0.000000,1139.940753,116475.869580,138.911682,0.000000,358.039948,39.900001,500.000000,1712606669903176,2,0,0,-67681555,-30.560112,35.910000,-0.409041
9.561489,0,0,0,70.062735,13.937692,0.000000,1139.940753,116475.869580,138.911682,0.000000,358.039948,39.900001,500.000000,1712606669903176,3,0,0,67941975,38.412361,35.910000,0.409041
9.561489,0,0,0,70.062735,13.937692,0.000000,1139.940753,116475.869580,138.911682,0.000000,358.039948,39.900001,500.000000,1712606669903176,4,0,0,74626753,113.963745,35.910000,1.538197
9.561489,0,0,0,70.062735,13.937692,0.000000,1139.940753,116475.869580,138.911682,0.000000,358.039948,39.900001,500.000000,1712606670039864,1,0,0,-74379088,-104.801628,35.910000,-1.537296
9.561489,0,0,0,70.062735,13.937692,0.000000,1139.940753,116475.869580,138.911682,0.000000,358.039948,39.900001,500.000000,1712606670039864,2,0,0,-67681879,-37.204578,35.910000,-0.409117
9.561489,0,0,0,70.062735,13.937692,0.000000,1139.940753,116475.869580,138.911682,0.000000,358.039948,39.900001,500.000000,1712606670039864,3,0,0,67942262,37.204578,35.910000,0.408990
9.561489,0,0,0,70.062735,13.937692,0.000000,1139.940753,116475.869580,138.911682,0.000000,358.039948,39.900001,500.000000,1712606670039864,4,0,0,74627832,104.801628,35.910000,1.539445
9.561489,0,0,0,70.062735,13.937692,0.000000,1139.940753,116475.869580,138.911682,0.000000,358.039948,39.900001,500.000000,1712606670164362,1,0,0,-74380164,-103.497841,35.910000,-1.539683
9.561489,0,0,0,70.062735,13.937692,0.000000,1139.940753,116475.869580,138.911682,0.000000,358.039948,39.900001,500.000000,1712606670164362,2,0,0,-67682134,-27.894884,35.910000,-0.409033
9.561489,0,0,0,70.062735,13.937692,0.000000,1139.940753,116475.869580,138.911682,0.000000,358.039948,39.900001,500.000000,1712606670164362,3,0,0,67942517,27.894884,35.910000,0.409038
9.561489,0,0,0,70.062735,13.937692,0.000000,1139.940753,116475.869580,138.911682,0.000000,358.039948,39.900001,500.000000,1712606670164362,4,0,0,74628908,103.497841,35.910000,1.538280
9.561489,0,0,0,70.062735,13.937692,0.000000,1139.940753,116475.869580,138.911682,0.000000,358.039948,39.900001,500.000000,1712606670290057,1,0,0,-74381252,-105.291779,35.910000,-1.538449
9.561489,0,0,0,70.062735,13.937692,0.000000,1139.940753,116475.869580,138.911682,0.000000,358.039948,39.900001,500.000000,1712606670290057,2,0,0,-67682425,-28.217152,35.910000,-0.409057
9.561489,0,0,0,70.062735,13.937692,0.000000,1139.940753,116475.869580,138.911682,0.000000,358.039948,39.900001,500.000000,1712606670290057,3,0,0,67942808,28.217152,35.910000,0.409006
9.561489,0,0,0,70.062735,13.937692,0.000000,1139.940753,116475.869580,138.911682,0.000000,358.039948,39.900001,500.000000,1712606670290057,4,0,0,74629996,105.291779,35.910000,1.538616
10.861635,0,0,0,71.798321,13.918276,0.000000,1239.683929,116493.528107,138.911682,0.000000,358.039948,39.900001,500.000000,1712606670417598,1,0,0,-74382469,-111.710358,35.910000,-1.539128
10.861635,0,0,0,71.798321,13.918276,0.000000,1239.683929,116493.528107,138.911682,0.000000,358.039948,39.900001,500.000000,1712606670417598,2,0,0,-67682753,-30.011738,35.910000,-0.409048
10.861635,0,0,0,71.798321,13.918276,0.000000,1239.683929,116493.528107,138.911682,0.000000,358.039948,39.900001,500.000000,1712606670417598,3,0,0,67943136,30.011738,35.910000,0.409050
10.861635,0,0,0,71.798321,13.918276,0.000000,1239.683929,116493.528107,138.911682,0.000000,358.039948,39.900001,500.000000,1712606670417598,4,0,0,74631213,111.710358,35.910000,1.538496
10.861635,0,0,0,71.798321,13.918276,0.000000,1239.683929,116493.528107,138.911682,0.000000,358.039948,39.900001,500.000000,1712606670545290,1,0,0,-74383554,-114.593246,35.910000,-1.538455
10.861635,0,0,0,71.798321,13.918276,0.000000,1239.683929,116493.528107,138.911682,0.000000,358.039948,39.900001,500.000000,1712606670545290,2,0,0,-67683044,-30.852028,35.910000,-0.409090
10.861635,0,0,0,71.798321,13.918276,0.000000,1239.683929,116493.528107,138.911682,0.000000,358.039948,39.900001,500.000000,1712606670545290,3,0,0,67943427,30.852028,35.910000,0.409046
10.861635,0,0,0,71.798321,13.918276,0.000000,1239.683929,116493.528107,138.911682,0.000000,358.039948,39.900001,500.000000,1712606670545290,4,0,0,74632298,114.593246,35.910000,1.539075
10.861635,0,0,0,71.798321,13.918276,0.000000,1239.683929,116493.528107,138.911682,0.000000,358.039948,39.900001,500.000000,1712606670701589,1,0,0,-74384782,-116.281662,35.910000,-1.537135
10.861635,0,0,0,71.798321,13.918276,0.000000,1239.683929,116493.528107,138.911682,0.000000,358.039948,39.900001,500.000000,1712606670701589,2,0,0,-67683373,-31.201677,35.910000,-0.409028
10.861635,0,0,0,71.798321,13.918276,0.000000,1239.683929,116493.528107,138.911682,0.000000,358.039948,39.900001,500.000000,1712606670701589,3,0,0,67943790,36.998711,35.910000,0.409115
10.861635,0,0,0,71.798321,13.918276,0.000000,1239.683929,116493.528107,138.911682,0.000000,358.039948,39.900001,500.000000,1712606670701589,4,0,0,74633526,116.281662,35.910000,1.538212
10.861635,0,0,0,71.798321,13.918276,0.000000,1239.683929,116493.528107,138.911682,0.000000,358.039948,39.900001,500.000000,1712606670827851,1,0,0,-74386012,-114.989113,35.910000,-1.538666
10.861635,0,0,0,71.798321,13.918276,0.000000,1239.683929,116493.528107,138.911682,0.000000,358.039948,39.900001,500.000000,1712606670827851,2,0,0,-67683702,-30.635784,35.910000,-0.409025
10.861635,0,0,0,71.798321,13.918276,0.000000,1239.683929,116493.528107,138.911682,0.000000,358.039948,39.900001,500.000000,1712606670827851,3,0,0,67944085,30.635784,35.910000,0.409003
10.861635,0,0,0,71.798321,13.918276,0.000000,1239.683929,116493.528107,138.911682,0.000000,358.039948,39.900001,500.000000,1712606670827851,4,0,0,74634756,114.989113,35.910000,1.538180
10.861635,0,0,0,71.798321,13.918276,0.000000,1239.683929,116493.528107,138.911682,0.000000,358.039948,39.900001,500.000000,1712606670953123,1,0,0,-74387083,-114.115471,35.910000,-1.538649
10.861635,0,0,0,71.798321,13.918276,0.000000,1239.683929,116493.528107,138.911682,0.000000,358.039948,39.900001,500.000000,1712606670953123,2,0,0,-67683990,-30.715191,35.910000,-0.409057
10.861635,0,0,0,71.798321,13.918276,0.000000,1239.683929,116493.528107,138.911682,0.000000,358.039948,39.900001,500.000000,1712606670953123,3,0,0,67944373,30.715191,35.910000,0.409021
10.861635,0,0,0,71.798321,13.918276,0.000000,1239.683929,116493.528107,138.911682,0.000000,358.039948,39.900001,500.000000,1712606670953123,4,0,0,74635827,114.115471,35.910000,1.538615
10.861635,0,0,0,71.798321,13.918276,0.000000,1239.683929,116493.528107,138.911682,0.000000,358.039948,39.900001,500.000000,1712606671077894,1,0,0,-74388164,-114.461441,35.910000,-1.538656
10.861635,0,0,0,71.798321,13.918276,0.000000,1239.683929,116493.528107,138.911682,0.000000,358.039948,39.900001,500.000000,1712606671077894,2,0,0,-67684282,-30.750834,35.910000,-0.409017
10.861635,0,0,0,71.798321,13.918276,0.000000,1239.683929,116493.528107,138.911682,0.000000,358.039948,39.900001,500.000000,1712606671077894,3,0,0,67944665,30.750834,35.910000,0.409046
10.861635,0,0,0,71.798321,13.918276,0.000000,1239.683929,116493.528107,138.911682,0.000000,358.039948,39.900001,500.000000,1712606671077894,4,0,0,74636908,114.461441,35.910000,1.538069
10.861635,0,0,0,71.798321,13.918276,0.000000,1239.683929,116493.528107,138.911682,0.000000,358.039948,39.900001,500.000000,1712606671203272,1,0,0,-74389239,-113.868889,35.910000,-1.538957
10.861635,0,0,0,71.798321,13.918276,0.000000,1239.683929,116493.528107,138.911682,0.000000,358.039948,39.900001,500.000000,1712606671203272,2,0,0,-67684571,-30.534674,35.910000,-0.409061
10.861635,0,0,0,71.798321,13.918276,0.000000,1239.683929,116493.528107,138.911682,0.000000,358.039948,39.900001,500.000000,1712606671203272,3,0,0,67944954,30.534674,35.910000,0.409040
10.861635,0,0,0,71.798321,13.918276,0.000000,1239.683929,116493.528107,138.911682,0.000000,358.039948,39.900001,500.000000,1712606671203272,4,0,0,74637983,113.868889,35.910000,1.538674
10.861635,0,0,0,71.798321,13.918276,0.000000,1239.683929,116493.528107,138.911682,0.000000,358.039948,39.900001,500.000000,1712606671342254,1,0,0,-74390319,-136.803360,35.910000,-1.538641
10.861635,0,0,0,71.798321,13.918276,0.000000,1239.683929,116493.528107,138.911682,0.000000,358.039948,39.900001,500.000000,1712606671342254,2,0,0,-67684862,-27.411909,35.910000,-0.409031
10.861635,0,0,0,71.798321,13.918276,0.000000,1239.683929,116493.528107,138.911682,0.000000,358.039948,39.900001,500.000000,1712606671342254,3,0,0,67945245,27.411909,35.910000,0.409048
10.861635,0,0,0,71.798321,13.918276,0.000000,1239.683929,116493.528107,138.911682,0.000000,358.039948,39.900001,500.000000,1712606671342254,4,0,0,74639063,101.705872,35.910000,1.538252
10.861635,0,0,0,71.798321,13.918276,0.000000,1239.683929,116493.528107,138.911682,0.000000,358.039948,39.900001,500.000000,1712606671468993,1,0,0,-74391405,-104.736359,35.910000,-1.538015
10.861635,0,0,0,71.798321,13.918276,0.000000,1239.683929,116493.528107,138.911682,0.000000,358.039948,39.900001,500.000000,1712606671468993,2,0,0,-67685154,-28.118876,35.910000,-0.409126
10.861635,0,0,0,71.798321,13.918276,0.000000,1239.683929,116493.528107,138.911682,0.000000,358.039948,39.900001,500.000000,1712606671468993,3,0,0,67945573,37.405842,35.910000,0.409040
10.861635,0,0,0,71.798321,13.918276,0.000000,1239.683929,116493.528107,138.911682,0.000000,358.039948,39.900001,500.000000,1712606671468993,4,0,0,74640149,104.736359,35.910000,1.539567
10.861635,0,0,0,71.798321,13.918276,0.000000,1239.683929,116493.528107,138.911682,0.000000,358.039948,39.900001,500.000000,1712606671594038,1,0,0,-74392501,-108.417648,35.910000,-1.538549
10.861635,0,0,0,71.798321,13.918276,0.000000,1239.683929,116493.528107,138.911682,0.000000,358.039948,39.900001,500.000000,1712606671594038,2,0,0,-67685449,-29.280678,35.910000,-0.409032
10.861635,0,0,0,71.798321,13.918276,0.000000,1239.683929,116493.528107,138.911682,0.000000,358.039948,39.900001,500.000000,1712606671594038,3,0,0,67945832,29.280678,35.910000,0.409065
10.861635,0,0,0,71.798321,13.918276,0.000000,1239.683929,116493.528107,138.911682,0.000000,358.039948,39.900001,500.000000,1712606671594038,4,0,0,74641245,108.417648,35.910000,1.538275
12.256790,0,0,0,86.542244,12.264662,0.000000,1365.606016,116514.132133,138.911682,0.000000,358.039948,39.900001,500.000000,1712606671748114,1,0,0,-74393997,-142.536865,35.910000,-1.537485
12.256790,0,0,0,86.542244,12.264662,0.000000,1365.606016,116514.132133,138.911682,0.000000,358.039948,39.900001,500.000000,1712606671748114,2,0,0,-67685851,-33.054195,35.910000,-0.409093
12.256790,0,0,0,86.542244,12.264662,0.000000,1365.606016,116514.132133,138.911682,0.000000,358.039948,39.900001,500.000000,1712606671748114,3,0,0,67946234,33.054195,35.910000,0.409026
