CurrentTime,PlatformType,PlatformDirection,PlatformMovementType,PlayerVelocity.x,PlayerVelocity.y,PlayerVelocity.z,PlayerPosition.x,PlayerPosition.y,PlayerPosition.z,PlayerRotation.Pitch,PlayerRotation.Roll,PlayerRotation.Yaw,PlayerCurrentSpeed,UnixTimeStamp [us],ControllerId,MotorFlags,HallPosition,EncoderPosition,MotorVelocity,MotorVoltage,MotorCurrent 
1.372519,0,0,250,136.530029,-7.104976,0.000000,48.083867,9898.363693,138.911659,0.000000,359.650024,357.025000,500.000000,1708347119038350,1,0,0,-28341629,-58.332336,35.910000,-0.844265
1.372519,0,0,250,136.530029,-7.104976,0.000000,48.083867,9898.363693,138.911659,0.000000,359.650024,357.025000,500.000000,1708347119038350,2,0,0,-28081086,-58.332336,35.910000,-0.851824
1.372519,0,0,250,136.530029,-7.104976,0.000000,48.083867,9898.363693,138.911659,0.000000,359.650024,357.025000,500.000000,1708347119038350,3,0,0,28102077,58.332336,35.910000,0.844355
1.372519,0,0,250,136.530029,-7.104976,0.000000,48.083867,9898.363693,138.911659,0.000000,359.650024,357.025000,500.000000,1708347119038350,4,0,0,28365357,58.332336,35.910000,0.851824
1.372519,0,0,250,136.530029,-7.104976,0.000000,48.083867,9898.363693,138.911659,0.000000,359.650024,357.025000,500.000000,1708347119165890,1,0,0,-28342302,-62.608364,35.910000,-0.844213
1.372519,0,0,250,136.530029,-7.104976,0.000000,48.083867,9898.363693,138.911659,0.000000,359.650024,357.025000,500.000000,1708347119165890,2,0,0,-28081759,-62.608364,35.910000,-0.844309
1.372519,0,0,250,136.530029,-7.104976,0.000000,48.083867,9898.363693,138.911659,0.000000,359.650024,357.025000,500.000000,1708347119165890,3,0,0,28102750,62.608364,35.910000,0.844354
1.372519,0,0,250,136.530029,-7.104976,0.000000,48.083867,9898.363693,138.911659,0.000000,359.650024,357.025000,500.000000,1708347119165890,4,0,0,28366030,62.608364,35.910000,0.844309
1.372519,0,0,250,136.530029,-7.104976,0.000000,48.083867,9898.363693,138.911659,0.000000,359.650024,357.025000,500.000000,1708347119303152,1,0,0,-28342971,-66.943077,35.910000,-0.844325
1.372519,0,0,250,136.530029,-7.104976,0.000000,48.083867,9898.363693,138.911659,0.000000,359.650024,357.025000,500.000000,1708347119303152,2,0,0,-28082428,-66.943077,35.910000,-0.844279
1.372519,0,0,250,136.530029,-7.104976,0.000000,48.083867,9898.363693,138.911659,0.000000,359.650024,357.025000,500.000000,1708347119303152,3,0,0,28103419,66.943077,35.910000,0.844236
1.372519,0,0,250,136.530029,-7.104976,0.000000,48.083867,9898.363693,138.911659,0.000000,359.650024,357.025000,500.000000,1708347119303152,4,0,0,28366699,66.943077,35.910000,0.844325
1.372519,0,0,250,136.530029,-7.104976,0.000000,48.083867,9898.363693,138.911659,0.000000,359.650024,357.025000,500.000000,1708347119426909,1,0,0,-28343560,-79.474709,35.910000,-0.844319
1.372519,0,0,250,136.530029,-7.104976,0.000000,48.083867,9898.363693,138.911659,0.000000,359.650024,357.025000,500.000000,1708347119426909,2,0,0,-28083017,-63.536690,35.910000,-0.844282
1.372519,0,0,250,136.530029,-7.104976,0.000000,48.083867,9898.363693,138.911659,0.000000,359.650024,357.025000,500.000000,1708347119426909,3,0,0,28104008,63.536690,35.910000,0.844332
1.372519,0,0,250,136.530029,-7.104976,0.000000,48.083867,9898.363693,138.911659,0.000000,359.650024,357.025000,500.000000,1708347119426909,4,0,0,28367288,63.536690,35.910000,0.844319
1.372519,0,0,250,136.530029,-7.104976,0.000000,48.083867,9898.363693,138.911659,0.000000,359.650024,357.025000,500.000000,1708347119551028,1,0,0,-28344148,-62.998409,35.910000,-0.844626
1.372519,0,0,250,136.530029,-7.104976,0.000000,48.083867,9898.363693,138.911659,0.000000,359.650024,357.025000,500.000000,1708347119551028,2,0,0,-28083605,-62.998409,35.910000,-0.844360
1.372519,0,0,250,136.530029,-7.104976,0.000000,48.083867,9898.363693,138.911659,0.000000,359.650024,357.025000,500.000000,1708347119551028,3,0,0,28104596,62.998409,35.910000,0.844267
1.372519,0,0,250,136.530029,-7.104976,0.000000,48.083867,9898.363693,138.911659,0.000000,359.650024,357.025000,500.000000,1708347119551028,4,0,0,28367876,62.998409,35.910000,0.844626
1.372519,0,0,250,136.530029,-7.104976,0.000000,48.083867,9898.363693,138.911659,0.000000,359.650024,357.025000,500.000000,1708347119674423,1,0,0,-28344741,-77.651756,35.910000,-0.844256
1.372519,0,0,250,136.530029,-7.104976,0.000000,48.083867,9898.363693,138.911659,0.000000,359.650024,357.025000,500.000000,1708347119674423,2,0,0,-28084198,-77.651756,35.910000,-0.844261
1.372519,0,0,250,136.530029,-7.104976,0.000000,48.083867,9898.363693,138.911659,0.000000,359.650024,357.025000,500.000000,1708347119674423,3,0,0,28105189,57.909782,35.910000,0.844291
1.372519,0,0,250,136.530029,-7.104976,0.000000,48.083867,9898.363693,138.911659,0.000000,359.650024,357.025000,500.000000,1708347119674423,4,0,0,28368469,77.651756,35.910000,0.844256
1.372519,0,0,250,136.530029,-7.104976,0.000000,48.083867,9898.363693,138.911659,0.000000,359.650024,357.025000,500.000000,1708347119810610,1,0,0,-28345335,-77.976776,35.910000,-0.844306
1.372519,0,0,250,136.530029,-7.104976,0.000000,48.083867,9898.363693,138.911659,0.000000,359.650024,357.025000,500.000000,1708347119810610,2,0,0,-28084792,-77.976776,35.910000,-0.844262
1.372519,0,0,250,136.530029,-7.104976,0.000000,48.083867,9898.363693,138.911659,0.000000,359.650024,357.025000,500.000000,1708347119810610,3,0,0,28105783,77.976776,35.910000,0.844368
1.372519,0,0,250,136.530029,-7.104976,0.000000,48.083867,9898.363693,138.911659,0.000000,359.650024,357.025000,500.000000,1708347119810610,4,0,0,28369063,77.976776,35.910000,0.844306
1.372519,0,0,250,136.530029,-7.104976,0.000000,48.083867,9898.363693,138.911659,0.000000,359.650024,357.025000,500.000000,1708347119934453,1,0,0,-28345924,-77.513611,35.910000,-0.844324
1.372519,0,0,250,136.530029,-7.104976,0.000000,48.083867,9898.363693,138.911659,0.000000,359.650024,357.025000,500.000000,1708347119934453,2,0,0,-28085381,-77.513611,35.910000,-0.844410
1.372519,0,0,250,136.530029,-7.104976,0.000000,48.083867,9898.363693,138.911659,0.000000,359.650024,357.025000,500.000000,1708347119934453,3,0,0,28106372,77.513611,35.910000,0.844226
1.372519,0,0,250,136.530029,-7.104976,0.000000,48.083867,9898.363693,138.911659,0.000000,359.650024,357.025000,500.000000,1708347119934453,4,0,0,28369652,77.513611,35.910000,0.844324
1.372519,0,0,250,136.530029,-7.104976,0.000000,48.083867,9898.363693,138.911659,0.000000,359.650024,357.025000,500.000000,1708347120034643,1,0,0,-28346369,-72.624474,35.910000,-0.852278
1.372519,0,0,250,136.530029,-7.104976,0.000000,48.083867,9898.363693,138.911659,0.000000,359.650024,357.025000,500.000000,1708347120034643,2,0,0,-28085826,-72.624474,35.910000,-0.844343
1.372519,0,0,250,136.530029,-7.104976,0.000000,48.083867,9898.363693,138.911659,0.000000,359.650024,357.025000,500.000000,1708347120034643,3,0,0,28106817,72.624474,35.910000,0.844326
1.372519,0,0,250,136.530029,-7.104976,0.000000,48.083867,9898.363693,138.911659,0.000000,359.650024,357.025000,500.000000,1708347120034643,4,0,0,28370097,72.624474,35.910000,0.852278
1.372519,0,0,250,136.530029,-7.104976,0.000000,48.083867,9898.363693,138.911659,0.000000,359.650024,357.025000,500.000000,1708347120171275,1,0,0,-28347114,-79.543610,35.910000,-0.844312
1.372519,0,0,250,136.530029,-7.104976,0.000000,48.083867,9898.363693,138.911659,0.000000,359.650024,357.025000,500.000000,1708347120171275,2,0,0,-28086571,-63.463364,35.910000,-0.844000
1.372519,0,0,250,136.530029,-7.104976,0.000000,48.083867,9898.363693,138.911659,0.000000,359.650024,357.025000,500.000000,1708347120171275,3,0,0,28107562,63.463364,35.910000,0.844597
1.372519,0,0,250,136.530029,-7.104976,0.000000,48.083867,9898.363693,138.911659,0.000000,359.650024,357.025000,500.000000,1708347120171275,4,0,0,28370842,79.543610,35.910000,0.844312
2.722532,0,0,0,699.218439,-33.069237,0.000000,941.374674,9931.955758,139.112754,0.000000,359.650024,357.025000,700.000000,1708347120311026,1,0,0,-28347704,-79.299316,35.910000,-0.844279
2.722532,0,0,0,699.218439,-33.069237,0.000000,941.374674,9931.955758,139.112754,0.000000,359.650024,357.025000,700.000000,1708347120311026,2,0,0,-28087161,-63.353260,35.910000,-0.852285
2.722532,0,0,0,699.218439,-33.069237,0.000000,941.374674,9931.955758,139.112754,0.000000,359.650024,357.025000,700.000000,1708347120311026,3,0,0,28108152,63.353260,35.910000,0.844270
2.722532,0,0,0,699.218439,-33.069237,0.000000,941.374674,9931.955758,139.112754,0.000000,359.650024,357.025000,700.000000,1708347120311026,4,0,0,28371432,79.299316,35.910000,0.844279
2.722532,0,0,0,699.218439,-33.069237,0.000000,941.374674,9931.955758,139.112754,0.000000,359.650024,357.025000,700.000000,1708347120435371,1,0,0,-28348367,-77.978645,35.910000,-0.844812
2.722532,0,0,0,699.218439,-33.069237,0.000000,941.374674,9931.955758,139.112754,0.000000,359.650024,357.025000,700.000000,1708347120435371,2,0,0,-28087824,-62.425526,35.910000,-0.844199
2.722532,0,0,0,699.218439,-33.069237,0.000000,941.374674,9931.955758,139.112754,0.000000,359.650024,357.025000,700.000000,1708347120435371,3,0,0,28108815,62.425526,35.910000,0.844394
2.722532,0,0,0,699.218439,-33.069237,0.000000,941.374674,9931.955758,139.112754,0.000000,359.650024,357.025000,700.000000,1708347120435371,4,0,0,28372095,77.978645,35.910000,0.844812
2.722532,0,0,0,699.218439,-33.069237,0.000000,941.374674,9931.955758,139.112754,0.000000,359.650024,357.025000,700.000000,1708347120572089,1,0,0,-28348965,-77.973495,35.910000,-0.844339
2.722532,0,0,0,699.218439,-33.069237,0.000000,941.374674,9931.955758,139.112754,0.000000,359.650024,357.025000,700.000000,1708347120572089,2,0,0,-28088422,-77.973495,35.910000,-0.844236
2.722532,0,0,0,699.218439,-33.069237,0.000000,941.374674,9931.955758,139.112754,0.000000,359.650024,357.025000,700.000000,1708347120572089,3,0,0,28109413,77.973495,35.910000,0.844384
2.722532,0,0,0,699.218439,-33.069237,0.000000,941.374674,9931.955758,139.112754,0.000000,359.650024,357.025000,700.000000,1708347120572089,4,0,0,28372693,77.973495,35.910000,0.844339
2.722532,0,0,0,699.218439,-33.069237,0.000000,941.374674,9931.955758,139.112754,0.000000,359.650024,357.025000,700.000000,1708347120714003,1,0,0,-28349552,-77.619728,35.910000,-0.844339
2.722532,0,0,0,699.218439,-33.069237,0.000000,941.374674,9931.955758,139.112754,0.000000,359.650024,357.025000,700.000000,1708347120714003,2,0,0,-28089009,-77.619728,35.910000,-0.844289
2.722532,0,0,0,699.218439,-33.069237,0.000000,941.374674,9931.955758,139.112754,0.000000,359.650024,357.025000,700.000000,1708347120714003,3,0,0,28110000,77.619728,35.910000,0.844307
2.722532,0,0,0,699.218439,-33.069237,0.000000,941.374674,9931.955758,139.112754,0.000000,359.650024,357.025000,700.000000,1708347120714003,4,0,0,28373280,77.619728,35.910000,0.844339
2.722532,0,0,0,699.218439,-33.069237,0.000000,941.374674,9931.955758,139.112754,0.000000,359.650024,357.025000,700.000000,1708347120837524,1,0,0,-28350289,-78.945114,35.910000,-0.844279
2.722532,0,0,0,699.218439,-33.069237,0.000000,941.374674,9931.955758,139.112754,0.000000,359.650024,357.025000,700.000000,1708347120837524,2,0,0,-28089746,-63.284805,35.910000,-0.844387
2.722532,0,0,0,699.218439,-33.069237,0.000000,941.374674,9931.955758,139.112754,0.000000,359.650024,357.025000,700.000000,1708347120837524,3,0,0,28110737,63.284805,35.910000,0.844204
2.722532,0,0,0,699.218439,-33.069237,0.000000,941.374674,9931.955758,139.112754,0.000000,359.650024,357.025000,700.000000,1708347120837524,4,0,0,28374017,78.945114,35.910000,0.844279
2.722532,0,0,0,699.218439,-33.069237,0.000000,941.374674,9931.955758,139.112754,0.000000,359.650024,357.025000,700.000000,1708347120961264,1,0,0,-28350877,-77.585526,35.910000,-0.844196
2.722532,0,0,0,699.218439,-33.069237,0.000000,941.374674,9931.955758,139.112754,0.000000,359.650024,357.025000,700.000000,1708347120961264,2,0,0,-28090334,-77.585526,35.910000,-0.844274
2.722532,0,0,0,699.218439,-33.069237,0.000000,941.374674,9931.955758,139.112754,0.000000,359.650024,357.025000,700.000000,1708347120961264,3,0,0,28111325,77.585526,35.910000,0.844404
2.722532,0,0,0,699.218439,-33.069237,0.000000,941.374674,9931.955758,139.112754,0.000000,359.650024,357.025000,700.000000,1708347120961264,4,0,0,28374605,77.585526,35.910000,0.844196
2.722532,0,0,0,699.218439,-33.069237,0.000000,941.374674,9931.955758,139.112754,0.000000,359.650024,357.025000,700.000000,1708347121085577,1,0,0,-28351468,-77.777313,35.910000,-0.844390
2.722532,0,0,0,699.218439,-33.069237,0.000000,941.374674,9931.955758,139.112754,0.000000,359.650024,357.025000,700.000000,1708347121085577,2,0,0,-28090925,-77.777313,35.910000,-0.844323
2.722532,0,0,0,699.218439,-33.069237,0.000000,941.374674,9931.955758,139.112754,0.000000,359.650024,357.025000,700.000000,1708347121085577,3,0,0,28111916,77.777313,35.910000,0.844289
2.722532,0,0,0,699.218439,-33.069237,0.000000,941.374674,9931.955758,139.112754,0.000000,359.650024,357.025000,700.000000,1708347121085577,4,0,0,28375196,77.777313,35.910000,0.844390
2.722532,0,0,0,699.218439,-33.069237,0.000000,941.374674,9931.955758,139.112754,0.000000,359.650024,357.025000,700.000000,1708347121221038,1,0,0,-28352059,-77.988419,35.910000,-0.844517
2.722532,0,0,0,699.218439,-33.069237,0.000000,941.374674,9931.955758,139.112754,0.000000,359.650024,357.025000,700.000000,1708347121221038,2,0,0,-28091516,-77.988419,35.910000,-0.844292
2.722532,0,0,0,699.218439,-33.069237,0.000000,941.374674,9931.955758,139.112754,0.000000,359.650024,357.025000,700.000000,1708347121221038,3,0,0,28112507,77.988419,35.910000,0.844279
2.722532,0,0,0,699.218439,-33.069237,0.000000,941.374674,9931.955758,139.112754,0.000000,359.650024,357.025000,700.000000,1708347121221038,4,0,0,28375787,77.988419,35.910000,0.844782
2.722532,0,0,0,699.218439,-33.069237,0.000000,941.374674,9931.955758,139.112754,0.000000,359.650024,357.025000,700.000000,1708347121344938,1,0,0,-28352652,-63.666416,35.910000,-0.844331
2.722532,0,0,0,699.218439,-33.069237,0.000000,941.374674,9931.955758,139.112754,0.000000,359.650024,357.025000,700.000000,1708347121344938,2,0,0,-28092183,-79.583015,35.910000,-0.844323
2.722532,0,0,0,699.218439,-33.069237,0.000000,941.374674,9931.955758,139.112754,0.000000,359.650024,357.025000,700.000000,1708347121344938,3,0,0,28113174,79.583015,35.910000,0.844323
2.722532,0,0,0,699.218439,-33.069237,0.000000,941.374674,9931.955758,139.112754,0.000000,359.650024,357.025000,700.000000,1708347121344938,4,0,0,28376454,79.583015,35.910000,0.844319
2.722532,0,0,0,699.218439,-33.069237,0.000000,941.374674,9931.955758,139.112754,0.000000,359.650024,357.025000,700.000000,1708347121469069,1,0,0,-28353243,-63.456211,35.910000,-0.844387
2.722532,0,0,0,699.218439,-33.069237,0.000000,941.374674,9931.955758,139.112754,0.000000,359.650024,357.025000,700.000000,1708347121469069,2,0,0,-28092774,-79.320267,35.910000,-0.844309
2.722532,0,0,0,699.218439,-33.069237,0.000000,941.374674,9931.955758,139.112754,0.000000,359.650024,357.025000,700.000000,1708347121469069,3,0,0,28113765,79.320267,35.910000,0.844309
2.722532,0,0,0,699.218439,-33.069237,0.000000,941.374674,9931.955758,139.112754,0.000000,359.650024,357.025000,700.000000,1708347121469069,4,0,0,28377045,79.320267,35.910000,0.844378
3.989211,0,0,0,699.056595,-36.330116,0.000000,1780.297974,9889.306144,139.112746,0.000000,359.650024,357.025000,700.000000,1708347121593117,1,0,0,-28353831,-63.253899,35.910000,-0.844421
3.989211,0,0,0,699.056595,-36.330116,0.000000,1780.297974,9889.306144,139.112746,0.000000,359.650024,357.025000,700.000000,1708347121593117,2,0,0,-28093363,-79.445175,35.910000,-0.844256
3.989211,0,0,0,699.056595,-36.330116,0.000000,1780.297974,9889.306144,139.112746,0.000000,359.650024,357.025000,700.000000,1708347121593117,3,0,0,28114354,79.445175,35.910000,0.844256
3.989211,0,0,0,699.056595,-36.330116,0.000000,1780.297974,9889.306144,139.112746,0.000000,359.650024,357.025000,700.000000,1708347121593117,4,0,0,28377634,79.445175,35.910000,0.844344
3.989211,0,0,0,699.056595,-36.330116,0.000000,1780.297974,9889.306144,139.112746,0.000000,359.650024,357.025000,700.000000,1708347121738624,1,0,0,-28354573,-72.943680,35.910000,-0.844580
3.989211,0,0,0,699.056595,-36.330116,0.000000,1780.297974,9889.306144,139.112746,0.000000,359.650024,357.025000,700.000000,1708347121738624,2,0,0,-28094030,-72.943680,35.910000,-0.844315
3.989211,0,0,0,699.056595,-36.330116,0.000000,1780.297974,9889.306144,139.112746,0.000000,359.650024,357.025000,700.000000,1708347121738624,3,0,0,28115021,72.943680,35.910000,0.844567
3.989211,0,0,0,699.056595,-36.330116,0.000000,1780.297974,9889.306144,139.112746,0.000000,359.650024,357.025000,700.000000,1708347121738624,4,0,0,28378301,72.943680,35.910000,0.844580
3.989211,0,0,0,699.056595,-36.330116,0.000000,1780.297974,9889.306144,139.112746,0.000000,359.650024,357.025000,700.000000,1708347121863229,1,0,0,-28355171,-77.847374,35.910000,-0.844434
3.989211,0,0,0,699.056595,-36.330116,0.000000,1780.297974,9889.306144,139.112746,0.000000,359.650024,357.025000,700.000000,1708347121863229,2,0,0,-28094628,-77.847374,35.910000,-0.844278
3.989211,0,0,0,699.056595,-36.330116,0.000000,1780.297974,9889.306144,139.112746,0.000000,359.650024,357.025000,700.000000,1708347121863229,3,0,0,28115619,77.847374,35.910000,0.844236
3.989211,0,0,0,699.056595,-36.330116,0.000000,1780.297974,9889.306144,139.112746,0.000000,359.650024,357.025000,700.000000,1708347121863229,4,0,0,28378899,77.847374,35.910000,0.844434
3.989211,0,0,0,699.056595,-36.330116,0.000000,1780.297974,9889.306144,139.112746,0.000000,359.650024,357.025000,700.000000,1708347122000102,1,0,0,-28355764,-77.282608,35.910000,-0.844305
3.989211,0,0,0,699.056595,-36.330116,0.000000,1780.297974,9889.306144,139.112746,0.000000,359.650024,357.025000,700.000000,1708347122000102,2,0,0,-28095221,-77.282608,35.910000,-0.844306
3.989211,0,0,0,699.056595,-36.330116,0.000000,1780.297974,9889.306144,139.112746,0.000000,359.650024,357.025000,700.000000,1708347122000102,3,0,0,28116212,77.282608,35.910000,0.844424
3.989211,0,0,0,699.056595,-36.330116,0.000000,1780.297974,9889.306144,139.112746,0.000000,359.650024,357.025000,700.000000,1708347122000102,4,0,0,28379492,77.282608,35.910000,0.844305
3.989211,0,0,0,699.056595,-36.330116,0.000000,1780.297974,9889.306144,139.112746,0.000000,359.650024,357.025000,700.000000,1708347122124217,1,0,0,-28356356,-77.643555,35.910000,-0.844265
3.989211,0,0,0,699.056595,-36.330116,0.000000,1780.297974,9889.306144,139.112746,0.000000,359.650024,357.025000,700.000000,1708347122124217,2,0,0,-28095813,-77.643555,35.910000,-0.844044
3.989211,0,0,0,699.056595,-36.330116,0.000000,1780.297974,9889.306144,139.112746,0.000000,359.650024,357.025000,700.000000,1708347122124217,3,0,0,28116804,77.643555,35.910000,0.844531
3.989211,0,0,0,699.056595,-36.330116,0.000000,1780.297974,9889.306144,139.112746,0.000000,359.650024,357.025000,700.000000,1708347122124217,4,0,0,28380084,77.643555,35.910000,0.844265
3.989211,0,0,0,699.056595,-36.330116,0.000000,1780.297974,9889.306144,139.112746,0.000000,359.650024,357.025000,700.000000,1708347122248055,1,0,0,-28357022,-79.648422,35.910000,-0.844539
3.989211,0,0,0,699.056595,-36.330116,0.000000,1780.297974,9889.306144,139.112746,0.000000,359.650024,357.025000,700.000000,1708347122248055,2,0,0,-28096479,-79.648422,35.910000,-0.844278
3.989211,0,0,0,699.056595,-36.330116,0.000000,1780.297974,9889.306144,139.112746,0.000000,359.650024,357.025000,700.000000,1708347122248055,3,0,0,28117470,79.648422,35.910000,0.844278
3.989211,0,0,0,699.056595,-36.330116,0.000000,1780.297974,9889.306144,139.112746,0.000000,359.650024,357.025000,700.000000,1708347122248055,4,0,0,28380750,79.648422,35.910000,0.844123
3.989211,0,0,0,699.056595,-36.330116,0.000000,1780.297974,9889.306144,139.112746,0.000000,359.650024,357.025000,700.000000,1708347122372815,1,0,0,-28357614,-79.313499,35.910000,-0.844389
3.989211,0,0,0,699.056595,-36.330116,0.000000,1780.297974,9889.306144,139.112746,0.000000,359.650024,357.025000,700.000000,1708347122372815,2,0,0,-28097071,-79.313499,35.910000,-0.844310
3.989211,0,0,0,699.056595,-36.330116,0.000000,1780.297974,9889.306144,139.112746,0.000000,359.650024,357.025000,700.000000,1708347122372815,3,0,0,28118062,79.313499,35.910000,0.844310
3.989211,0,0,0,699.056595,-36.330116,0.000000,1780.297974,9889.306144,139.112746,0.000000,359.650024,357.025000,700.000000,1708347122372815,4,0,0,28381342,79.313499,35.910000,0.844407
3.989211,0,0,0,699.056595,-36.330116,0.000000,1780.297974,9889.306144,139.112746,0.000000,359.650024,357.025000,700.000000,1708347122496711,1,0,0,-28358205,-79.337875,35.910000,-0.844321
3.989211,0,0,0,699.056595,-36.330116,0.000000,1780.297974,9889.306144,139.112746,0.000000,359.650024,357.025000,700.000000,1708347122496711,2,0,0,-28097662,-79.337875,35.910000,-0.844256
3.989211,0,0,0,699.056595,-36.330116,0.000000,1780.297974,9889.306144,139.112746,0.000000,359.650024,357.025000,700.000000,1708347122496711,3,0,0,28118653,79.337875,35.910000,0.844256
3.989211,0,0,0,699.056595,-36.330116,0.000000,1780.297974,9889.306144,139.112746,0.000000,359.650024,357.025000,700.000000,1708347122496711,4,0,0,28381933,79.337875,35.910000,0.844435
3.989211,0,0,0,699.056595,-36.330116,0.000000,1780.297974,9889.306144,139.112746,0.000000,359.650024,357.025000,700.000000,1708347122620764,1,0,0,-28358794,-78.866188,35.910000,-0.844173
3.989211,0,0,0,699.056595,-36.330116,0.000000,1780.297974,9889.306144,139.112746,0.000000,359.650024,357.025000,700.000000,1708347122620764,2,0,0,-28098251,-78.866188,35.910000,-0.844145
3.989211,0,0,0,699.056595,-36.330116,0.000000,1780.297974,9889.306144,139.112746,0.000000,359.650024,357.025000,700.000000,1708347122620764,3,0,0,28119242,78.866188,35.910000,0.844145
3.989211,0,0,0,699.056595,-36.330116,0.000000,1780.297974,9889.306144,139.112746,0.000000,359.650024,357.025000,700.000000,1708347122620764,4,0,0,28382522,78.866188,35.910000,0.844561
3.989211,0,0,0,699.056595,-36.330116,0.000000,1780.297974,9889.306144,139.112746,0.000000,359.650024,357.025000,700.000000,1708347122757435,1,0,0,-28359387,-77.552414,35.910000,-0.844277
3.989211,0,0,0,699.056595,-36.330116,0.000000,1780.297974,9889.306144,139.112746,0.000000,359.650024,357.025000,700.000000,1708347122757435,2,0,0,-28098844,-77.552414,35.910000,-0.844362
3.989211,0,0,0,699.056595,-36.330116,0.000000,1780.297974,9889.306144,139.112746,0.000000,359.650024,357.025000,700.000000,1708347122757435,3,0,0,28119835,77.552414,35.910000,0.844362
3.989211,0,0,0,699.056595,-36.330116,0.000000,1780.297974,9889.306144,139.112746,0.000000,359.650024,357.025000,700.000000,1708347122757435,4,0,0,28383115,77.552414,35.910000,0.844179
5.389227,0,0,0,699.873712,-13.296147,0.000000,2743.510227,9931.899401,139.112742,0.000000,359.650024,357.025000,700.000000,1708347122895324,1,0,0,-28359977,-77.258308,35.910000,-0.844099
5.389227,0,0,0,699.873712,-13.296147,0.000000,2743.510227,9931.899401,139.112742,0.000000,359.650024,357.025000,700.000000,1708347122895324,2,0,0,-28099434,-77.258308,35.910000,-0.844363
5.389227,0,0,0,699.873712,-13.296147,0.000000,2743.510227,9931.899401,139.112742,0.000000,359.650024,357.025000,700.000000,1708347122895324,3,0,0,28120425,77.258308,35.910000,0.844363
5.389227,0,0,0,699.873712,-13.296147,0.000000,2743.510227,9931.899401,139.112742,0.000000,359.650024,357.025000,700.000000,1708347122895324,4,0,0,28383705,77.258308,35.910000,0.844854
5.389227,0,0,0,699.873712,-13.296147,0.000000,2743.510227,9931.899401,139.112742,0.000000,359.650024,357.025000,700.000000,1708347123019063,1,0,0,-28360577,-58.220299,35.910000,-0.844348
5.389227,0,0,0,699.873712,-13.296147,0.000000,2743.510227,9931.899401,139.112742,0.000000,359.650024,357.025000,700.000000,1708347123019063,2,0,0,-28100108,-77.714874,35.910000,-0.844303
5.389227,0,0,0,699.873712,-13.296147,0.000000,2743.510227,9931.899401,139.112742,0.000000,359.650024,357.025000,700.000000,1708347123019063,3,0,0,28121099,77.714874,35.910000,0.844303
5.389227,0,0,0,699.873712,-13.296147,0.000000,2743.510227,9931.899401,139.112742,0.000000,359.650024,357.025000,700.000000,1708347123019063,4,0,0,28384305,58.220299,35.910000,0.844357
5.389227,0,0,0,699.873712,-13.296147,0.000000,2743.510227,9931.899401,139.112742,0.000000,359.650024,357.025000,700.000000,1708347123144653,1,0,0,-28361245,-63.188076,35.910000,-0.844492
5.389227,0,0,0,699.873712,-13.296147,0.000000,2743.510227,9931.899401,139.112742,0.000000,359.650024,357.025000,700.000000,1708347123144653,2,0,0,-28100702,-63.188076,35.910000,-0.844214
5.389227,0,0,0,699.873712,-13.296147,0.000000,2743.510227,9931.899401,139.112742,0.000000,359.650024,357.025000,700.000000,1708347123144653,3,0,0,28121693,63.188076,35.910000,0.844661
5.389227,0,0,0,699.873712,-13.296147,0.000000,2743.510227,9931.899401,139.112742,0.000000,359.650024,357.025000,700.000000,1708347123144653,4,0,0,28384972,63.188076,35.910000,0.844214
5.389227,0,0,0,699.873712,-13.296147,0.000000,2743.510227,9931.899401,139.112742,0.000000,359.650024,357.025000,700.000000,1708347123267989,1,0,0,-28361837,-58.317024,35.910000,-0.844879
5.389227,0,0,0,699.873712,-13.296147,0.000000,2743.510227,9931.899401,139.112742,0.000000,359.650024,357.025000,700.000000,1708347123267989,2,0,0,-28101294,-58.317024,35.910000,-0.844325
5.389227,0,0,0,699.873712,-13.296147,0.000000,2743.510227,9931.899401,139.112742,0.000000,359.650024,357.025000,700.000000,1708347123267989,3,0,0,28122285,58.317024,35.910000,0.844282
5.389227,0,0,0,699.873712,-13.296147,0.000000,2743.510227,9931.899401,139.112742,0.000000,359.650024,357.025000,700.000000,1708347123267989,4,0,0,28385564,58.317024,35.910000,0.844325
5.389227,0,0,0,699.873712,-13.296147,0.000000,2743.510227,9931.899401,139.112742,0.000000,359.650024,357.025000,700.000000,1708347123425018,1,0,0,-28362510,-71.181747,35.910000,-0.844372
5.389227,0,0,0,699.873712,-13.296147,0.000000,2743.510227,9931.899401,139.112742,0.000000,359.650024,357.025000,700.000000,1708347123425018,2,0,0,-28102042,-71.373093,35.910000,-0.844291
5.389227,0,0,0,699.873712,-13.296147,0.000000,2743.510227,9931.899401,139.112742,0.000000,359.650024,357.025000,700.000000,1708347123425018,3,0,0,28123032,71.181747,35.910000,0.844291
5.389227,0,0,0,699.873712,-13.296147,0.000000,2743.510227,9931.899401,139.112742,0.000000,359.650024,357.025000,700.000000,1708347123425018,4,0,0,28386237,57.021935,35.910000,0.844318
5.389227,0,0,0,699.873712,-13.296147,0.000000,2743.510227,9931.899401,139.112742,0.000000,359.650024,357.025000,700.000000,1708347123611576,1,0,0,-28363394,-64.935585,35.910000,-0.844094
5.389227,0,0,0,699.873712,-13.296147,0.000000,2743.510227,9931.899401,139.112742,0.000000,359.650024,357.025000,700.000000,1708347123611576,2,0,0,-28102923,-73.978836,35.910000,-0.844479
5.389227,0,0,0,699.873712,-13.296147,0.000000,2743.510227,9931.899401,139.112742,0.000000,359.650024,357.025000,700.000000,1708347123611576,3,0,0,28123914,73.978836,35.910000,0.844560
5.389227,0,0,0,699.873712,-13.296147,0.000000,2743.510227,9931.899401,139.112742,0.000000,359.650024,357.025000,700.000000,1708347123611576,4,0,0,28387121,64.935585,35.910000,0.844479
5.389227,0,0,0,699.873712,-13.296147,0.000000,2743.510227,9931.899401,139.112742,0.000000,359.650024,357.025000,700.000000,1708347123766362,1,0,0,-28364143,-59.637424,35.910000,-0.844277
5.389227,0,0,0,699.873712,-13.296147,0.000000,2743.510227,9931.899401,139.112742,0.000000,359.650024,357.025000,700.000000,1708347123766362,2,0,0,-28103600,-59.637424,35.910000,-0.844275
5.389227,0,0,0,699.873712,-13.296147,0.000000,2743.510227,9931.899401,139.112742,0.000000,359.650024,357.025000,700.000000,1708347123766362,3,0,0,28124665,74.299118,35.910000,0.844269
5.389227,0,0,0,699.873712,-13.296147,0.000000,2743.510227,9931.899401,139.112742,0.000000,359.650024,357.025000,700.000000,1708347123766362,4,0,0,28387870,59.637424,35.910000,0.844275
5.389227,0,0,0,699.873712,-13.296147,0.000000,2743.510227,9931.899401,139.112742,0.000000,359.650024,357.025000,700.000000,1708347123890822,1,0,0,-28364732,-57.819496,35.910000,-0.844348
5.389227,0,0,0,699.873712,-13.296147,0.000000,2743.510227,9931.899401,139.112742,0.000000,359.650024,357.025000,700.000000,1708347123890822,2,0,0,-28104189,-57.819496,35.910000,-0.844391
5.389227,0,0,0,699.873712,-13.296147,0.000000,2743.510227,9931.899401,139.112742,0.000000,359.650024,357.025000,700.000000,1708347123890822,3,0,0,28125254,77.267868,35.910000,0.844309
5.389227,0,0,0,699.873712,-13.296147,0.000000,2743.510227,9931.899401,139.112742,0.000000,359.650024,357.025000,700.000000,1708347123890822,4,0,0,28388459,57.819496,35.910000,0.844391
5.389227,0,0,0,699.873712,-13.296147,0.000000,2743.510227,9931.899401,139.112742,0.000000,359.650024,357.025000,700.000000,1708347124014300,1,0,0,-28365397,-64.089157,35.910000,-0.844427
5.389227,0,0,0,699.873712,-13.296147,0.000000,2743.510227,9931.899401,139.112742,0.000000,359.650024,357.025000,700.000000,1708347124014300,2,0,0,-28104853,-64.089157,35.910000,-0.844271
5.389227,0,0,0,699.873712,-13.296147,0.000000,2743.510227,9931.899401,139.112742,0.000000,359.650024,357.025000,700.000000,1708347124014300,3,0,0,28125844,64.089157,35.910000,0.844274
5.389227,0,0,0,699.873712,-13.296147,0.000000,2743.510227,9931.899401,139.112742,0.000000,359.650024,357.025000,700.000000,1708347124014300,4,0,0,28389124,64.089157,35.910000,0.844271
5.389227,0,0,0,699.873712,-13.296147,0.000000,2743.510227,9931.899401,139.112742,0.000000,359.650024,357.025000,700.000000,1708347124137670,1,0,0,-28365983,-77.115250,35.910000,-0.844376
5.389227,0,0,0,699.873712,-13.296147,0.000000,2743.510227,9931.899401,139.112742,0.000000,359.650024,357.025000,700.000000,1708347124137670,2,0,0,-28105439,-57.572342,35.910000,-0.844328
5.389227,0,0,0,699.873712,-13.296147,0.000000,2743.510227,9931.899401,139.112742,0.000000,359.650024,357.025000,700.000000,1708347124137670,3,0,0,28126430,57.572342,35.910000,0.844260
5.389227,0,0,0,699.873712,-13.296147,0.000000,2743.510227,9931.899401,139.112742,0.000000,359.650024,357.025000,700.000000,1708347124137670,4,0,0,28389710,57.572342,35.910000,0.844328
6.689285,0,0,0,699.052600,-36.406892,0.000000,3652.394913,9886.343846,139.112742,0.000000,359.650024,357.025000,700.000000,1708347124275132,1,0,0,-28366576,-77.408890,35.910000,-0.844486
6.689285,0,0,0,699.052600,-36.406892,0.000000,3652.394913,9886.343846,139.112742,0.000000,359.650024,357.025000,700.000000,1708347124275132,2,0,0,-28106032,-58.186546,35.910000,-0.844285
6.689285,0,0,0,699.052600,-36.406892,0.000000,3652.394913,9886.343846,139.112742,0.000000,359.650024,357.025000,700.000000,1708347124275132,3,0,0,28127023,58.186546,35.910000,0.844425
6.689285,0,0,0,699.052600,-36.406892,0.000000,3652.394913,9886.343846,139.112742,0.000000,359.650024,357.025000,700.000000,1708347124275132,4,0,0,28390303,58.186546,35.910000,0.844285
6.689285,0,0,0,699.052600,-36.406892,0.000000,3652.394913,9886.343846,139.112742,0.000000,359.650024,357.025000,700.000000,1708347124421341,1,0,0,-28367316,-62.647377,35.910000,-0.844669
6.689285,0,0,0,699.052600,-36.406892,0.000000,3652.394913,9886.343846,139.112742,0.000000,359.650024,357.025000,700.000000,1708347124421341,2,0,0,-28106772,-62.647377,35.910000,-0.844316
6.689285,0,0,0,699.052600,-36.406892,0.000000,3652.394913,9886.343846,139.112742,0.000000,359.650024,357.025000,700.000000,1708347124421341,3,0,0,28127840,79.167404,35.910000,0.844267
6.689285,0,0,0,699.052600,-36.406892,0.000000,3652.394913,9886.343846,139.112742,0.000000,359.650024,357.025000,700.000000,1708347124421341,4,0,0,28391043,62.647377,35.910000,0.844316
6.689285,0,0,0,699.052600,-36.406892,0.000000,3652.394913,9886.343846,139.112742,0.000000,359.650024,357.025000,700.000000,1708347124545358,1,0,0,-28367909,-63.380581,35.910000,-0.844191
6.689285,0,0,0,699.052600,-36.406892,0.000000,3652.394913,9886.343846,139.112742,0.000000,359.650024,357.025000,700.000000,1708347124545358,2,0,0,-28107437,-78.902351,35.910000,-0.844345
6.689285,0,0,0,699.052600,-36.406892,0.000000,3652.394913,9886.343846,139.112742,0.000000,359.650024,357.025000,700.000000,1708347124545358,3,0,0,28128428,78.902351,35.910000,0.844345
6.689285,0,0,0,699.052600,-36.406892,0.000000,3652.394913,9886.343846,139.112742,0.000000,359.650024,357.025000,700.000000,1708347124545358,4,0,0,28391636,63.380581,35.910000,0.844230
6.689285,0,0,0,699.052600,-36.406892,0.000000,3652.394913,9886.343846,139.112742,0.000000,359.650024,357.025000,700.000000,1708347124681091,1,0,0,-28368501,-63.148552,35.910000,-0.844447
6.689285,0,0,0,699.052600,-36.406892,0.000000,3652.394913,9886.343846,139.112742,0.000000,359.650024,357.025000,700.000000,1708347124681091,2,0,0,-28107957,-63.148552,35.910000,-0.844517
6.689285,0,0,0,699.052600,-36.406892,0.000000,3652.394913,9886.343846,139.112742,0.000000,359.650024,357.025000,700.000000,1708347124681091,3,0,0,28129023,79.149033,35.910000,0.844345
6.689285,0,0,0,699.052600,-36.406892,0.000000,3652.394913,9886.343846,139.112742,0.000000,359.650024,357.025000,700.000000,1708347124681091,4,0,0,28392228,63.148552,35.910000,0.844300
6.689285,0,0,0,699.052600,-36.406892,0.000000,3652.394913,9886.343846,139.112742,0.000000,359.650024,357.025000,700.000000,1708347124817628,1,0,0,-28369168,-63.090977,35.910000,-0.844554
6.689285,0,0,0,699.052600,-36.406892,0.000000,3652.394913,9886.343846,139.112742,0.000000,359.650024,357.025000,700.000000,1708347124817628,2,0,0,-28108624,-63.090977,35.910000,-0.844309
6.689285,0,0,0,699.052600,-36.406892,0.000000,3652.394913,9886.343846,139.112742,0.000000,359.650024,357.025000,700.000000,1708347124817628,3,0,0,28129615,63.090977,35.910000,0.844308
6.689285,0,0,0,699.052600,-36.406892,0.000000,3652.394913,9886.343846,139.112742,0.000000,359.650024,357.025000,700.000000,1708347124817628,4,0,0,28392895,63.090977,35.910000,0.844554
6.689285,0,0,0,699.052600,-36.406892,0.000000,3652.394913,9886.343846,139.112742,0.000000,359.650024,357.025000,700.000000,1708347124952701,1,0,0,-28369762,-65.223053,35.910000,-0.852015
6.689285,0,0,0,699.052600,-36.406892,0.000000,3652.394913,9886.343846,139.112742,0.000000,359.650024,357.025000,700.000000,1708347124952701,2,0,0,-28109218,-48.696945,35.910000,-0.851965
6.689285,0,0,0,699.052600,-36.406892,0.000000,3652.394913,9886.343846,139.112742,0.000000,359.650024,357.025000,700.000000,1708347124952701,3,0,0,28130209,48.696945,35.910000,0.851890
6.689285,0,0,0,699.052600,-36.406892,0.000000,3652.394913,9886.343846,139.112742,0.000000,359.650024,357.025000,700.000000,1708347124952701,4,0,0,28393489,65.223053,35.910000,0.851965
6.689285,0,0,0,699.052600,-36.406892,0.000000,3652.394913,9886.343846,139.112742,0.000000,359.650024,357.025000,700.000000,1708347125076259,1,0,0,-28370425,-77.570518,35.910000,-0.844292
6.689285,0,0,0,699.052600,-36.406892,0.000000,3652.394913,9886.343846,139.112742,0.000000,359.650024,357.025000,700.000000,1708347125076259,2,0,0,-28109881,-77.570518,35.910000,-0.844314
6.689285,0,0,0,699.052600,-36.406892,0.000000,3652.394913,9886.343846,139.112742,0.000000,359.650024,357.025000,700.000000,1708347125076259,3,0,0,28130872,77.570518,35.910000,0.844117
6.689285,0,0,0,699.052600,-36.406892,0.000000,3652.394913,9886.343846,139.112742,0.000000,359.650024,357.025000,700.000000,1708347125076259,4,0,0,28394152,77.570518,35.910000,0.844208
6.689285,0,0,0,699.052600,-36.406892,0.000000,3652.394913,9886.343846,139.112742,0.000000,359.650024,357.025000,700.000000,1708347125200272,1,0,0,-28371018,-77.424683,35.910000,-0.844769
6.689285,0,0,0,699.052600,-36.406892,0.000000,3652.394913,9886.343846,139.112742,0.000000,359.650024,357.025000,700.000000,1708347125200272,2,0,0,-28110474,-77.424683,35.910000,-0.844294
6.689285,0,0,0,699.052600,-36.406892,0.000000,3652.394913,9886.343846,139.112742,0.000000,359.650024,357.025000,700.000000,1708347125200272,3,0,0,28131465,77.424683,35.910000,0.844305
6.689285,0,0,0,699.052600,-36.406892,0.000000,3652.394913,9886.343846,139.112742,0.000000,359.650024,357.025000,700.000000,1708347125200272,4,0,0,28394745,77.424683,35.910000,0.844259
6.689285,0,0,0,699.052600,-36.406892,0.000000,3652.394913,9886.343846,139.112742,0.000000,359.650024,357.025000,700.000000,1708347125323237,1,0,0,-28371677,-78.928619,35.910000,-0.844276
6.689285,0,0,0,699.052600,-36.406892,0.000000,3652.394913,9886.343846,139.112742,0.000000,359.650024,357.025000,700.000000,1708347125323237,2,0,0,-28111133,-78.928619,35.910000,-0.844433
6.689285,0,0,0,699.052600,-36.406892,0.000000,3652.394913,9886.343846,139.112742,0.000000,359.650024,357.025000,700.000000,1708347125323237,3,0,0,28132124,78.928619,35.910000,0.844433
6.689285,0,0,0,699.052600,-36.406892,0.000000,3652.394913,9886.343846,139.112742,0.000000,359.650024,357.025000,700.000000,1708347125323237,4,0,0,28395404,78.928619,35.910000,0.844179
6.689285,0,0,0,699.052600,-36.406892,0.000000,3652.394913,9886.343846,139.112742,0.000000,359.650024,357.025000,700.000000,1708347125446773,1,0,0,-28372196,-64.647240,35.910000,-0.844455
6.689285,0,0,0,699.052600,-36.406892,0.000000,3652.394913,9886.343846,139.112742,0.000000,359.650024,357.025000,700.000000,1708347125446773,2,0,0,-28111727,-80.863106,35.910000,-0.844282
6.689285,0,0,0,699.052600,-36.406892,0.000000,3652.394913,9886.343846,139.112742,0.000000,359.650024,357.025000,700.000000,1708347125446773,3,0,0,28132718,80.863106,35.910000,0.844282
6.689285,0,0,0,699.052600,-36.406892,0.000000,3652.394913,9886.343846,139.112742,0.000000,359.650024,357.025000,700.000000,1708347125446773,4,0,0,28395923,64.647240,35.910000,0.844358
7.972634,0,0,0,698.679915,-42.969489,0.000000,4548.086648,9928.163231,139.107799,0.000000,359.650024,357.025000,700.000000,1708347125570125,1,0,0,-28372782,-62.837212,35.910000,-0.844356
7.972634,0,0,0,698.679915,-42.969489,0.000000,4548.086648,9928.163231,139.107799,0.000000,359.650024,357.025000,700.000000,1708347125570125,2,0,0,-28112312,-78.871536,35.910000,-0.844337
7.972634,0,0,0,698.679915,-42.969489,0.000000,4548.086648,9928.163231,139.107799,0.000000,359.650024,357.025000,700.000000,1708347125570125,3,0,0,28133303,78.871536,35.910000,0.844337
7.972634,0,0,0,698.679915,-42.969489,0.000000,4548.086648,9928.163231,139.107799,0.000000,359.650024,357.025000,700.000000,1708347125570125,4,0,0,28396509,62.837212,35.910000,0.844409
7.972634,0,0,0,698.679915,-42.969489,0.000000,4548.086648,9928.163231,139.107799,0.000000,359.650024,357.025000,700.000000,1708347125723022,1,0,0,-28373373,-63.474182,35.910000,-0.844354
7.972634,0,0,0,698.679915,-42.969489,0.000000,4548.086648,9928.163231,139.107799,0.000000,359.650024,357.025000,700.000000,1708347125723022,2,0,0,-28112903,-79.450676,35.910000,-0.851803
7.972634,0,0,0,698.679915,-42.969489,0.000000,4548.086648,9928.163231,139.107799,0.000000,359.650024,357.025000,700.000000,1708347125723022,3,0,0,28133894,79.450676,35.910000,0.851803
7.972634,0,0,0,698.679915,-42.969489,0.000000,4548.086648,9928.163231,139.107799,0.000000,359.650024,357.025000,700.000000,1708347125723022,4,0,0,28397100,63.474182,35.910000,0.844326
7.972634,0,0,0,698.679915,-42.969489,0.000000,4548.086648,9928.163231,139.107799,0.000000,359.650024,357.025000,700.000000,1708347125847227,1,0,0,-28374111,-63.132004,35.910000,-0.844425
7.972634,0,0,0,698.679915,-42.969489,0.000000,4548.086648,9928.163231,139.107799,0.000000,359.650024,357.025000,700.000000,1708347125847227,2,0,0,-28113567,-63.132004,35.910000,-0.844172
7.972634,0,0,0,698.679915,-42.969489,0.000000,4548.086648,9928.163231,139.107799,0.000000,359.650024,357.025000,700.000000,1708347125847227,3,0,0,28134633,79.128288,35.910000,0.844347
7.972634,0,0,0,698.679915,-42.969489,0.000000,4548.086648,9928.163231,139.107799,0.000000,359.650024,357.025000,700.000000,1708347125847227,4,0,0,28397838,63.132004,35.910000,0.844172
7.972634,0,0,0,698.679915,-42.969489,0.000000,4548.086648,9928.163231,139.107799,0.000000,359.650024,357.025000,700.000000,1708347125990105,1,0,0,-28374703,-63.655239,35.910000,-0.852477
7.972634,0,0,0,698.679915,-42.969489,0.000000,4548.086648,9928.163231,139.107799,0.000000,359.650024,357.025000,700.000000,1708347125990105,2,0,0,-28114312,-96.337288,35.910000,-0.844380
7.972634,0,0,0,698.679915,-42.969489,0.000000,4548.086648,9928.163231,139.107799,0.000000,359.650024,357.025000,700.000000,1708347125990105,3,0,0,28135303,96.337288,35.910000,0.844380
7.972634,0,0,0,698.679915,-42.969489,0.000000,4548.086648,9928.163231,139.107799,0.000000,359.650024,357.025000,700.000000,1708347125990105,4,0,0,28398430,63.655239,35.910000,0.844383
7.972634,0,0,0,698.679915,-42.969489,0.000000,4548.086648,9928.163231,139.107799,0.000000,359.650024,357.025000,700.000000,1708347126113887,1,0,0,-28375373,-63.912102,35.910000,-0.844152
7.972634,0,0,0,698.679915,-42.969489,0.000000,4548.086648,9928.163231,139.107799,0.000000,359.650024,357.025000,700.000000,1708347126113887,2,0,0,-28114901,-79.458290,35.910000,-0.844334
7.972634,0,0,0,698.679915,-42.969489,0.000000,4548.086648,9928.163231,139.107799,0.000000,359.650024,357.025000,700.000000,1708347126113887,3,0,0,28135892,79.458290,35.910000,0.844334
7.972634,0,0,0,698.679915,-42.969489,0.000000,4548.086648,9928.163231,139.107799,0.000000,359.650024,357.025000,700.000000,1708347126113887,4,0,0,28399100,63.912102,35.910000,0.844377
7.972634,0,0,0,698.679915,-42.969489,0.000000,4548.086648,9928.163231,139.107799,0.000000,359.650024,357.025000,700.000000,1708347126250063,1,0,0,-28375961,-58.043213,35.910000,-0.844326
7.972634,0,0,0,698.679915,-42.969489,0.000000,4548.086648,9928.163231,139.107799,0.000000,359.650024,357.025000,700.000000,1708347126250063,2,0,0,-28115491,-77.655991,35.910000,-0.844253
7.972634,0,0,0,698.679915,-42.969489,0.000000,4548.086648,9928.163231,139.107799,0.000000,359.650024,357.025000,700.000000,1708347126250063,3,0,0,28136482,77.655991,35.910000,0.844253
7.972634,0,0,0,698.679915,-42.969489,0.000000,4548.086648,9928.163231,139.107799,0.000000,359.650024,357.025000,700.000000,1708347126250063,4,0,0,28399688,58.043213,35.910000,0.844335
7.972634,0,0,0,698.679915,-42.969489,0.000000,4548.086648,9928.163231,139.107799,0.000000,359.650024,357.025000,700.000000,1708347126385113,1,0,0,-28376626,-65.128616,35.910000,-0.844797
7.972634,0,0,0,698.679915,-42.969489,0.000000,4548.086648,9928.163231,139.107799,0.000000,359.650024,357.025000,700.000000,1708347126385113,2,0,0,-28116082,-65.128616,35.910000,-0.844325
7.972634,0,0,0,698.679915,-42.969489,0.000000,4548.086648,9928.163231,139.107799,0.000000,359.650024,357.025000,700.000000,1708347126385113,3,0,0,28137073,65.128616,35.910000,0.844562
7.972634,0,0,0,698.679915,-42.969489,0.000000,4548.086648,9928.163231,139.107799,0.000000,359.650024,357.025000,700.000000,1708347126385113,4,0,0,28400353,65.128616,35.910000,0.844797
7.972634,0,0,0,698.679915,-42.969489,0.000000,4548.086648,9928.163231,139.107799,0.000000,359.650024,357.025000,700.000000,1708347126508942,1,0,0,-28377223,-77.750114,35.910000,-0.844314
7.972634,0,0,0,698.679915,-42.969489,0.000000,4548.086648,9928.163231,139.107799,0.000000,359.650024,357.025000,700.000000,1708347126508942,2,0,0,-28116679,-57.983135,35.910000,-0.844310
7.972634,0,0,0,698.679915,-42.969489,0.000000,4548.086648,9928.163231,139.107799,0.000000,359.650024,357.025000,700.000000,1708347126508942,3,0,0,28137670,57.983135,35.910000,0.844303
7.972634,0,0,0,698.679915,-42.969489,0.000000,4548.086648,9928.163231,139.107799,0.000000,359.650024,357.025000,700.000000,1708347126508942,4,0,0,28400950,77.750114,35.910000,0.844314
7.972634,0,0,0,698.679915,-42.969489,0.000000,4548.086648,9928.163231,139.107799,0.000000,359.650024,357.025000,700.000000,1708347126633982,1,0,0,-28377888,-78.457825,35.910000,-0.844264
7.972634,0,0,0,698.679915,-42.969489,0.000000,4548.086648,9928.163231,139.107799,0.000000,359.650024,357.025000,700.000000,1708347126633982,2,0,0,-28117344,-62.511112,35.910000,-0.844346
7.972634,0,0,0,698.679915,-42.969489,0.000000,4548.086648,9928.163231,139.107799,0.000000,359.650024,357.025000,700.000000,1708347126633982,3,0,0,28138335,62.511112,35.910000,0.844348
7.972634,0,0,0,698.679915,-42.969489,0.000000,4548.086648,9928.163231,139.107799,0.000000,359.650024,357.025000,700.000000,1708347126633982,4,0,0,28401615,78.457825,35.910000,0.844264
7.972634,0,0,0,698.679915,-42.969489,0.000000,4548.086648,9928.163231,139.107799,0.000000,359.650024,357.025000,700.000000,1708347126757588,1,0,0,-28378474,-78.530746,35.910000,-0.844502
7.972634,0,0,0,698.679915,-42.969489,0.000000,4548.086648,9928.163231,139.107799,0.000000,359.650024,357.025000,700.000000,1708347126757588,2,0,0,-28117930,-63.039753,35.910000,-0.844350
7.972634,0,0,0,698.679915,-42.969489,0.000000,4548.086648,9928.163231,139.107799,0.000000,359.650024,357.025000,700.000000,1708347126757588,3,0,0,28138921,63.039753,35.910000,0.844326
7.972634,0,0,0,698.679915,-42.969489,0.000000,4548.086648,9928.163231,139.107799,0.000000,359.650024,357.025000,700.000000,1708347126757588,4,0,0,28402201,63.039753,35.910000,0.844502
9.356072,0,0,0,699.382180,-29.403500,0.000000,5513.645307,9960.288386,139.112753,0.000000,359.650024,357.025000,700.000000,1708347126930702,1,0,0,-28379143,-78.936623,35.910000,-0.852118
9.356072,0,0,0,699.382180,-29.403500,0.000000,5513.645307,9960.288386,139.112753,0.000000,359.650024,357.025000,700.000000,1708347126930702,2,0,0,-28118599,-52.151386,35.910000,-0.844529
9.356072,0,0,0,699.382180,-29.403500,0.000000,5513.645307,9960.288386,139.112753,0.000000,359.650024,357.025000,700.000000,1708347126930702,3,0,0,28139590,52.151386,35.910000,0.844384
9.356072,0,0,0,699.382180,-29.403500,0.000000,5513.645307,9960.288386,139.112753,0.000000,359.650024,357.025000,700.000000,1708347126930702,4,0,0,28402870,78.936623,35.910000,0.844529
9.356072,0,0,0,699.382180,-29.403500,0.000000,5513.645307,9960.288386,139.112753,0.000000,359.650024,357.025000,700.000000,1708347127089693,1,0,0,-28379889,-64.982941,35.910000,-0.844293
9.356072,0,0,0,699.382180,-29.403500,0.000000,5513.645307,9960.288386,139.112753,0.000000,359.650024,357.025000,700.000000,1708347127089693,2,0,0,-28119345,-64.982941,35.910000,-0.844306
9.356072,0,0,0,699.382180,-29.403500,0.000000,5513.645307,9960.288386,139.112753,0.000000,359.650024,357.025000,700.000000,1708347127089693,3,0,0,28140336,64.982941,35.910000,0.852413
9.356072,0,0,0,699.382180,-29.403500,0.000000,5513.645307,9960.288386,139.112753,0.000000,359.650024,357.025000,700.000000,1708347127089693,4,0,0,28403616,64.982941,35.910000,0.844610
9.356072,0,0,0,699.382180,-29.403500,0.000000,5513.645307,9960.288386,139.112753,0.000000,359.650024,357.025000,700.000000,1708347127266121,1,0,0,-28380712,-60.835590,35.910000,-0.844450
9.356072,0,0,0,699.382180,-29.403500,0.000000,5513.645307,9960.288386,139.112753,0.000000,359.650024,357.025000,700.000000,1708347127266121,2,0,0,-28120243,-72.906143,35.910000,-0.844286
9.356072,0,0,0,699.382180,-29.403500,0.000000,5513.645307,9960.288386,139.112753,0.000000,359.650024,357.025000,700.000000,1708347127266121,3,0,0,28141234,72.906143,35.910000,0.844286
9.356072,0,0,0,699.382180,-29.403500,0.000000,5513.645307,9960.288386,139.112753,0.000000,359.650024,357.025000,700.000000,1708347127266121,4,0,0,28404514,72.906143,35.910000,0.844273
9.356072,0,0,0,699.382180,-29.403500,0.000000,5513.645307,9960.288386,139.112753,0.000000,359.650024,357.025000,700.000000,1708347127414375,1,0,0,-28381457,-63.758255,35.910000,-0.844419
9.356072,0,0,0,699.382180,-29.403500,0.000000,5513.645307,9960.288386,139.112753,0.000000,359.650024,357.025000,700.000000,1708347127414375,2,0,0,-28120988,-79.697815,35.910000,-0.844692
9.356072,0,0,0,699.382180,-29.403500,0.000000,5513.645307,9960.288386,139.112753,0.000000,359.650024,357.025000,700.000000,1708347127414375,3,0,0,28141979,79.697815,35.910000,0.852475
9.356072,0,0,0,699.382180,-29.403500,0.000000,5513.645307,9960.288386,139.112753,0.000000,359.650024,357.025000,700.000000,1708347127414375,4,0,0,28405184,63.758255,35.910000,0.844122
9.356072,0,0,0,699.382180,-29.403500,0.000000,5513.645307,9960.288386,139.112753,0.000000,359.650024,357.025000,700.000000,1708347127557202,1,0,0,-28382202,-77.822304,35.910000,-0.844282
9.356072,0,0,0,699.382180,-29.403500,0.000000,5513.645307,9960.288386,139.112753,0.000000,359.650024,357.025000,700.000000,1708347127557202,2,0,0,-28121658,-77.822304,35.910000,-0.844288
9.356072,0,0,0,699.382180,-29.403500,0.000000,5513.645307,9960.288386,139.112753,0.000000,359.650024,357.025000,700.000000,1708347127557202,3,0,0,28142649,77.822304,35.910000,0.852079
9.356072,0,0,0,699.382180,-29.403500,0.000000,5513.645307,9960.288386,139.112753,0.000000,359.650024,357.025000,700.000000,1708347127557202,4,0,0,28405929,77.822304,35.910000,0.844282
9.356072,0,0,0,699.382180,-29.403500,0.000000,5513.645307,9960.288386,139.112753,0.000000,359.650024,357.025000,700.000000,1708347127660483,1,0,0,-28382574,-62.123005,35.910000,-0.844544
9.356072,0,0,0,699.382180,-29.403500,0.000000,5513.645307,9960.288386,139.112753,0.000000,359.650024,357.025000,700.000000,1708347127660483,2,0,0,-28122106,-74.814804,35.910000,-0.844456
9.356072,0,0,0,699.382180,-29.403500,0.000000,5513.645307,9960.288386,139.112753,0.000000,359.650024,357.025000,700.000000,1708347127660483,3,0,0,28143097,74.814804,35.910000,0.844456
9.356072,0,0,0,699.382180,-29.403500,0.000000,5513.645307,9960.288386,139.112753,0.000000,359.650024,357.025000,700.000000,1708347127660483,4,0,0,28406301,62.123005,35.910000,0.844080
9.356072,0,0,0,699.382180,-29.403500,0.000000,5513.645307,9960.288386,139.112753,0.000000,359.650024,357.025000,700.000000,1708347127796996,1,0,0,-28383324,-63.359222,35.910000,-0.844468
9.356072,0,0,0,699.382180,-29.403500,0.000000,5513.645307,9960.288386,139.112753,0.000000,359.650024,357.025000,700.000000,1708347127796996,2,0,0,-28122856,-79.682274,35.910000,-0.844278
9.356072,0,0,0,699.382180,-29.403500,0.000000,5513.645307,9960.288386,139.112753,0.000000,359.650024,357.025000,700.000000,1708347127796996,3,0,0,28143847,79.682274,35.910000,0.844278
9.356072,0,0,0,699.382180,-29.403500,0.000000,5513.645307,9960.288386,139.112753,0.000000,359.650024,357.025000,700.000000,1708347127796996,4,0,0,28407127,79.682274,35.910000,0.844233
9.356072,0,0,0,699.382180,-29.403500,0.000000,5513.645307,9960.288386,139.112753,0.000000,359.650024,357.025000,700.000000,1708347127921420,1,0,0,-28383991,-63.182693,35.910000,-0.844459
9.356072,0,0,0,699.382180,-29.403500,0.000000,5513.645307,9960.288386,139.112753,0.000000,359.650024,357.025000,700.000000,1708347127921420,2,0,0,-28123447,-63.182693,35.910000,-0.844302
9.356072,0,0,0,699.382180,-29.403500,0.000000,5513.645307,9960.288386,139.112753,0.000000,359.650024,357.025000,700.000000,1708347127921420,3,0,0,28144513,79.191818,35.910000,0.844323
9.356072,0,0,0,699.382180,-29.403500,0.000000,5513.645307,9960.288386,139.112753,0.000000,359.650024,357.025000,700.000000,1708347127921420,4,0,0,28407718,63.182693,35.910000,0.844302
9.356072,0,0,0,699.382180,-29.403500,0.000000,5513.645307,9960.288386,139.112753,0.000000,359.650024,357.025000,700.000000,1708347128045961,1,0,0,-28384590,-64.772064,35.910000,-0.844460
9.356072,0,0,0,699.382180,-29.403500,0.000000,5513.645307,9960.288386,139.112753,0.000000,359.650024,357.025000,700.000000,1708347128045961,2,0,0,-28124046,-64.772064,35.910000,-0.844496
9.356072,0,0,0,699.382180,-29.403500,0.000000,5513.645307,9960.288386,139.112753,0.000000,359.650024,357.025000,700.000000,1708347128045961,3,0,0,28145037,64.772064,35.910000,0.844298
9.356072,0,0,0,699.382180,-29.403500,0.000000,5513.645307,9960.288386,139.112753,0.000000,359.650024,357.025000,700.000000,1708347128045961,4,0,0,28408317,64.772064,35.910000,0.844496
9.356072,0,0,0,699.382180,-29.403500,0.000000,5513.645307,9960.288386,139.112753,0.000000,359.650024,357.025000,700.000000,1708347128170227,1,0,0,-28385184,-63.186718,35.910000,-0.844463
9.356072,0,0,0,699.382180,-29.403500,0.000000,5513.645307,9960.288386,139.112753,0.000000,359.650024,357.025000,700.000000,1708347128170227,2,0,0,-28124639,-62.972527,35.910000,-0.844217
9.356072,0,0,0,699.382180,-29.403500,0.000000,5513.645307,9960.288386,139.112753,0.000000,359.650024,357.025000,700.000000,1708347128170227,3,0,0,28145630,62.972527,35.910000,0.844467
9.356072,0,0,0,699.382180,-29.403500,0.000000,5513.645307,9960.288386,139.112753,0.000000,359.650024,357.025000,700.000000,1708347128170227,4,0,0,28408911,63.186718,35.910000,0.844217
10.739422,40,0,0,617.274300,-330.109737,0.000000,6463.968494,9801.857991,139.967931,0.000000,0.490054,288.774999,700.000000,1708347128293321,1,0,0,-28385770,-62.629959,35.910000,-0.844645
10.739422,40,0,0,617.274300,-330.109737,0.000000,6463.968494,9801.857991,139.967931,0.000000,0.490054,288.774999,700.000000,1708347128293321,2,0,0,-28125226,-62.629959,35.910000,-0.844304
10.739422,40,0,0,617.274300,-330.109737,0.000000,6463.968494,9801.857991,139.967931,0.000000,0.490054,288.774999,700.000000,1708347128293321,3,0,0,28146217,62.629959,35.910000,0.844178
10.739422,40,0,0,617.274300,-330.109737,0.000000,6463.968494,9801.857991,139.967931,0.000000,0.490054,288.774999,700.000000,1708347128293321,4,0,0,28409497,62.629959,35.910000,0.844304
10.739422,40,0,0,617.274300,-330.109737,0.000000,6463.968494,9801.857991,139.967931,0.000000,0.490054,288.774999,700.000000,1708347128441533,1,0,0,-28386361,-57.707882,35.910000,-0.844328
10.739422,40,0,0,617.274300,-330.109737,0.000000,6463.968494,9801.857991,139.967931,0.000000,0.490054,288.774999,700.000000,1708347128441533,2,0,0,-28125817,-57.707882,35.910000,-0.844456
10.739422,40,0,0,617.274300,-330.109737,0.000000,6463.968494,9801.857991,139.967931,0.000000,0.490054,288.774999,700.000000,1708347128441533,3,0,0,28146808,57.707882,35.910000,0.844179
10.739422,40,0,0,617.274300,-330.109737,0.000000,6463.968494,9801.857991,139.967931,0.000000,0.490054,288.774999,700.000000,1708347128441533,4,0,0,28410088,57.707882,35.910000,0.844456
10.739422,40,0,0,617.274300,-330.109737,0.000000,6463.968494,9801.857991,139.967931,0.000000,0.490054,288.774999,700.000000,1708347128566029,1,0,0,-28387030,-78.376640,35.910000,-0.844303
10.739422,40,0,0,617.274300,-330.109737,0.000000,6463.968494,9801.857991,139.967931,0.000000,0.490054,288.774999,700.000000,1708347128566029,2,0,0,-28126486,-78.376640,35.910000,-0.844351
10.739422,40,0,0,617.274300,-330.109737,0.000000,6463.968494,9801.857991,139.967931,0.000000,0.490054,288.774999,700.000000,1708347128566029,3,0,0,28147477,57.998714,35.910000,0.844257
10.739422,40,0,0,617.274300,-330.109737,0.000000,6463.968494,9801.857991,139.967931,0.000000,0.490054,288.774999,700.000000,1708347128566029,4,0,0,28410757,78.376640,35.910000,0.844303
10.739422,40,0,0,617.274300,-330.109737,0.000000,6463.968494,9801.857991,139.967931,0.000000,0.490054,288.774999,700.000000,1708347128701314,1,0,0,-28387623,-77.854614,35.910000,-0.844181
10.739422,40,0,0,617.274300,-330.109737,0.000000,6463.968494,9801.857991,139.967931,0.000000,0.490054,288.774999,700.000000,1708347128701314,2,0,0,-28127079,-77.854614,35.910000,-0.851845
10.739422,40,0,0,617.274300,-330.109737,0.000000,6463.968494,9801.857991,139.967931,0.000000,0.490054,288.774999,700.000000,1708347128701314,3,0,0,28148070,58.194359,35.910000,0.851845
10.739422,40,0,0,617.274300,-330.109737,0.000000,6463.968494,9801.857991,139.967931,0.000000,0.490054,288.774999,700.000000,1708347128701314,4,0,0,28411350,77.854614,35.910000,0.844181
10.739422,40,0,0,617.274300,-330.109737,0.000000,6463.968494,9801.857991,139.967931,0.000000,0.490054,288.774999,700.000000,1708347128858263,1,0,0,-28388362,-83.504707,35.910000,-0.844642
10.739422,40,0,0,617.274300,-330.109737,0.000000,6463.968494,9801.857991,139.967931,0.000000,0.490054,288.774999,700.000000,1708347128858263,2,0,0,-28127818,-83.504707,35.910000,-0.860511
10.739422,40,0,0,617.274300,-330.109737,0.000000,6463.968494,9801.857991,139.967931,0.000000,0.490054,288.774999,700.000000,1708347128858263,3,0,0,28148809,83.504707,35.910000,0.860511
10.739422,40,0,0,617.274300,-330.109737,0.000000,6463.968494,9801.857991,139.967931,0.000000,0.490054,288.774999,700.000000,1708347128858263,4,0,0,28412089,83.504707,35.910000,0.844642
10.739422,40,0,0,617.274300,-330.109737,0.000000,6463.968494,9801.857991,139.967931,0.000000,0.490054,288.774999,700.000000,1708347128981310,1,0,0,-28389043,-66.204971,35.910000,-0.844464
10.739422,40,0,0,617.274300,-330.109737,0.000000,6463.968494,9801.857991,139.967931,0.000000,0.490054,288.774999,700.000000,1708347128981310,2,0,0,-28128499,-66.204971,35.910000,-0.844293
10.739422,40,0,0,617.274300,-330.109737,0.000000,6463.968494,9801.857991,139.967931,0.000000,0.490054,288.774999,700.000000,1708347128981310,3,0,0,28149490,66.204971,35.910000,0.844243
10.739422,40,0,0,617.274300,-330.109737,0.000000,6463.968494,9801.857991,139.967931,0.000000,0.490054,288.774999,700.000000,1708347128981310,4,0,0,28412770,66.204971,35.910000,0.844293
10.739422,40,0,0,617.274300,-330.109737,0.000000,6463.968494,9801.857991,139.967931,0.000000,0.490054,288.774999,700.000000,1708347129117367,1,0,0,-28389636,-58.386635,35.910000,-0.844215
10.739422,40,0,0,617.274300,-330.109737,0.000000,6463.968494,9801.857991,139.967931,0.000000,0.490054,288.774999,700.000000,1708347129117367,2,0,0,-28129092,-58.386635,35.910000,-0.844279
10.739422,40,0,0,617.274300,-330.109737,0.000000,6463.968494,9801.857991,139.967931,0.000000,0.490054,288.774999,700.000000,1708347129117367,3,0,0,28150083,58.386635,35.910000,0.844183
10.739422,40,0,0,617.274300,-330.109737,0.000000,6463.968494,9801.857991,139.967931,0.000000,0.490054,288.774999,700.000000,1708347129117367,4,0,0,28413363,58.386635,35.910000,0.844279
10.739422,40,0,0,617.274300,-330.109737,0.000000,6463.968494,9801.857991,139.967931,0.000000,0.490054,288.774999,700.000000,1708347129253726,1,0,0,-28390377,-67.169022,35.910000,-0.844253
10.739422,40,0,0,617.274300,-330.109737,0.000000,6463.968494,9801.857991,139.967931,0.000000,0.490054,288.774999,700.000000,1708347129253726,2,0,0,-28129833,-67.169022,35.910000,-0.844857
10.739422,40,0,0,617.274300,-330.109737,0.000000,6463.968494,9801.857991,139.967931,0.000000,0.490054,288.774999,700.000000,1708347129253726,3,0,0,28150824,67.169022,35.910000,0.844231
10.739422,40,0,0,617.274300,-330.109737,0.000000,6463.968494,9801.857991,139.967931,0.000000,0.490054,288.774999,700.000000,1708347129253726,4,0,0,28414104,67.169022,35.910000,0.844253
10.739422,40,0,0,617.274300,-330.109737,0.000000,6463.968494,9801.857991,139.967931,0.000000,0.490054,288.774999,700.000000,1708347129397424,1,0,0,-28390969,-79.344353,35.910000,-0.851731
10.739422,40,0,0,617.274300,-330.109737,0.000000,6463.968494,9801.857991,139.967931,0.000000,0.490054,288.774999,700.000000,1708347129397424,2,0,0,-28130425,-79.344353,35.910000,-0.851853
10.739422,40,0,0,617.274300,-330.109737,0.000000,6463.968494,9801.857991,139.967931,0.000000,0.490054,288.774999,700.000000,1708347129397424,3,0,0,28151416,63.561962,35.910000,0.844233
10.739422,40,0,0,617.274300,-330.109737,0.000000,6463.968494,9801.857991,139.967931,0.000000,0.490054,288.774999,700.000000,1708347129397424,4,0,0,28414696,79.344353,35.910000,0.844418
10.739422,40,0,0,617.274300,-330.109737,0.000000,6463.968494,9801.857991,139.967931,0.000000,0.490054,288.774999,700.000000,1708347129521777,1,0,0,-28391633,-63.705647,35.910000,-0.844437
10.739422,40,0,0,617.274300,-330.109737,0.000000,6463.968494,9801.857991,139.967931,0.000000,0.490054,288.774999,700.000000,1708347129521777,2,0,0,-28131089,-63.705647,35.910000,-0.844287
10.739422,40,0,0,617.274300,-330.109737,0.000000,6463.968494,9801.857991,139.967931,0.000000,0.490054,288.774999,700.000000,1708347129521777,3,0,0,28152080,63.705647,35.910000,0.844388
10.739422,40,0,0,617.274300,-330.109737,0.000000,6463.968494,9801.857991,139.967931,0.000000,0.490054,288.774999,700.000000,1708347129521777,4,0,0,28415360,63.705647,35.910000,0.844437
12.072772,30,250,0,390.949472,-580.653520,0.000000,6735.981271,8967.831507,139.967931,0.000000,0.840070,350.200001,700.000000,1708347129645331,1,0,0,-28392223,-64.070732,35.910000,-0.844354
