CurrentTime,PlatformType,PlatformDirection,PlatformMovementType,PlayerVelocity.x,PlayerVelocity.y,PlayerVelocity.z,PlayerPosition.x,PlayerPosition.y,PlayerPosition.z,PlayerRotation.Pitch,PlayerRotation.Roll,PlayerRotation.Yaw,PlayerCurrentSpeed,UnixTimeStamp [us],ControllerId,MotorFlags,HallPosition,EncoderPosition,MotorVelocity,MotorVoltage,MotorCurrent 
1.570606,0,0,250,0.000000,0.000000,0.000000,0.000000,9900.000000,138.911649,0.000000,0.000000,0.000000,500.000000,1708346259104547,1,0,0,-12630633,0.000000,35.910000,0.000178
1.570606,0,0,250,0.000000,0.000000,0.000000,0.000000,9900.000000,138.911649,0.000000,0.000000,0.000000,500.000000,1708346259104547,2,0,0,-10650530,0.000000,35.910000,0.000196
1.570606,0,0,250,0.000000,0.000000,0.000000,0.000000,9900.000000,138.911649,0.000000,0.000000,0.000000,500.000000,1708346259104547,3,0,0,10655666,0.000000,35.910000,-0.000191
1.570606,0,0,250,0.000000,0.000000,0.000000,0.000000,9900.000000,138.911649,0.000000,0.000000,0.000000,500.000000,1708346259104547,4,0,0,12637711,0.000000,35.910000,-0.000176
1.570606,0,0,250,0.000000,0.000000,0.000000,0.000000,9900.000000,138.911649,0.000000,0.000000,0.000000,500.000000,1708346259230512,1,0,0,-12630633,0.000000,35.910000,0.000178
1.570606,0,0,250,0.000000,0.000000,0.000000,0.000000,9900.000000,138.911649,0.000000,0.000000,0.000000,500.000000,1708346259230512,2,0,0,-10650530,0.000000,35.910000,0.000196
1.570606,0,0,250,0.000000,0.000000,0.000000,0.000000,9900.000000,138.911649,0.000000,0.000000,0.000000,500.000000,1708346259230512,3,0,0,10655666,0.000000,35.910000,-0.000191
1.570606,0,0,250,0.000000,0.000000,0.000000,0.000000,9900.000000,138.911649,0.000000,0.000000,0.000000,500.000000,1708346259230512,4,0,0,12637711,0.000000,35.910000,-0.000176
1.570606,0,0,250,0.000000,0.000000,0.000000,0.000000,9900.000000,138.911649,0.000000,0.000000,0.000000,500.000000,1708346259356441,1,0,0,-12630633,0.000000,35.910000,0.000178
1.570606,0,0,250,0.000000,0.000000,0.000000,0.000000,9900.000000,138.911649,0.000000,0.000000,0.000000,500.000000,1708346259356441,2,0,0,-10650530,0.000000,35.910000,0.000196
1.570606,0,0,250,0.000000,0.000000,0.000000,0.000000,9900.000000,138.911649,0.000000,0.000000,0.000000,500.000000,1708346259356441,3,0,0,10655666,0.000000,35.910000,-0.000191
1.570606,0,0,250,0.000000,0.000000,0.000000,0.000000,9900.000000,138.911649,0.000000,0.000000,0.000000,500.000000,1708346259356441,4,0,0,12637711,0.000000,35.910000,-0.000176
1.570606,0,0,250,0.000000,0.000000,0.000000,0.000000,9900.000000,138.911649,0.000000,0.000000,0.000000,500.000000,1708346259508447,1,0,0,-12630633,0.000000,35.910000,0.000178
1.570606,0,0,250,0.000000,0.000000,0.000000,0.000000,9900.000000,138.911649,0.000000,0.000000,0.000000,500.000000,1708346259508447,2,0,0,-10650530,0.000000,35.910000,0.000196
1.570606,0,0,250,0.000000,0.000000,0.000000,0.000000,9900.000000,138.911649,0.000000,0.000000,0.000000,500.000000,1708346259508447,3,0,0,10655666,0.000000,35.910000,-0.000191
1.570606,0,0,250,0.000000,0.000000,0.000000,0.000000,9900.000000,138.911649,0.000000,0.000000,0.000000,500.000000,1708346259508447,4,0,0,12637711,0.000000,35.910000,-0.000176
1.570606,0,0,250,0.000000,0.000000,0.000000,0.000000,9900.000000,138.911649,0.000000,0.000000,0.000000,500.000000,1708346259655694,1,0,0,-12630633,0.000000,35.910000,0.000178
1.570606,0,0,250,0.000000,0.000000,0.000000,0.000000,9900.000000,138.911649,0.000000,0.000000,0.000000,500.000000,1708346259655694,2,0,0,-10650530,0.000000,35.910000,0.000196
1.570606,0,0,250,0.000000,0.000000,0.000000,0.000000,9900.000000,138.911649,0.000000,0.000000,0.000000,500.000000,1708346259655694,3,0,0,10655666,0.000000,35.910000,-0.000191
1.570606,0,0,250,0.000000,0.000000,0.000000,0.000000,9900.000000,138.911649,0.000000,0.000000,0.000000,500.000000,1708346259655694,4,0,0,12637711,0.000000,35.910000,-0.000176
1.570606,0,0,250,0.000000,0.000000,0.000000,0.000000,9900.000000,138.911649,0.000000,0.000000,0.000000,500.000000,1708346259813426,1,0,0,-12630633,0.000000,35.910000,0.000178
1.570606,0,0,250,0.000000,0.000000,0.000000,0.000000,9900.000000,138.911649,0.000000,0.000000,0.000000,500.000000,1708346259813426,2,0,0,-10650530,0.000000,35.910000,0.000196
1.570606,0,0,250,0.000000,0.000000,0.000000,0.000000,9900.000000,138.911649,0.000000,0.000000,0.000000,500.000000,1708346259813426,3,0,0,10655666,0.000000,35.910000,-0.000191
1.570606,0,0,250,0.000000,0.000000,0.000000,0.000000,9900.000000,138.911649,0.000000,0.000000,0.000000,500.000000,1708346259813426,4,0,0,12637711,0.000000,35.910000,-0.000176
1.570606,0,0,250,0.000000,0.000000,0.000000,0.000000,9900.000000,138.911649,0.000000,0.000000,0.000000,500.000000,1708346259937864,1,0,0,-12630633,0.000000,35.910000,0.000178
1.570606,0,0,250,0.000000,0.000000,0.000000,0.000000,9900.000000,138.911649,0.000000,0.000000,0.000000,500.000000,1708346259937864,2,0,0,-10650530,0.000000,35.910000,0.000196
1.570606,0,0,250,0.000000,0.000000,0.000000,0.000000,9900.000000,138.911649,0.000000,0.000000,0.000000,500.000000,1708346259937864,3,0,0,10655666,0.000000,35.910000,-0.000191
1.570606,0,0,250,0.000000,0.000000,0.000000,0.000000,9900.000000,138.911649,0.000000,0.000000,0.000000,500.000000,1708346259937864,4,0,0,12637711,0.000000,35.910000,-0.000176
1.570606,0,0,250,0.000000,0.000000,0.000000,0.000000,9900.000000,138.911649,0.000000,0.000000,0.000000,500.000000,1708346260060658,1,0,0,-12630633,0.000000,35.910000,0.000178
1.570606,0,0,250,0.000000,0.000000,0.000000,0.000000,9900.000000,138.911649,0.000000,0.000000,0.000000,500.000000,1708346260060658,2,0,0,-10650530,0.000000,35.910000,0.000196
1.570606,0,0,250,0.000000,0.000000,0.000000,0.000000,9900.000000,138.911649,0.000000,0.000000,0.000000,500.000000,1708346260060658,3,0,0,10655666,0.000000,35.910000,-0.000191
1.570606,0,0,250,0.000000,0.000000,0.000000,0.000000,9900.000000,138.911649,0.000000,0.000000,0.000000,500.000000,1708346260060658,4,0,0,12637711,0.000000,35.910000,-0.000176
1.570606,0,0,250,0.000000,0.000000,0.000000,0.000000,9900.000000,138.911649,0.000000,0.000000,0.000000,500.000000,1708346260206149,1,0,0,-12630633,0.000000,35.910000,0.000178
1.570606,0,0,250,0.000000,0.000000,0.000000,0.000000,9900.000000,138.911649,0.000000,0.000000,0.000000,500.000000,1708346260206149,2,0,0,-10650530,0.000000,35.910000,0.000196
1.570606,0,0,250,0.000000,0.000000,0.000000,0.000000,9900.000000,138.911649,0.000000,0.000000,0.000000,500.000000,1708346260206149,3,0,0,10655666,0.000000,35.910000,-0.000191
1.570606,0,0,250,0.000000,0.000000,0.000000,0.000000,9900.000000,138.911649,0.000000,0.000000,0.000000,500.000000,1708346260206149,4,0,0,12637711,0.000000,35.910000,-0.000176
1.570606,0,0,250,0.000000,0.000000,0.000000,0.000000,9900.000000,138.911649,0.000000,0.000000,0.000000,500.000000,1708346260328951,1,0,0,-12630633,0.000000,35.910000,0.000178
1.570606,0,0,250,0.000000,0.000000,0.000000,0.000000,9900.000000,138.911649,0.000000,0.000000,0.000000,500.000000,1708346260328951,2,0,0,-10650530,0.000000,35.910000,0.000196
1.570606,0,0,250,0.000000,0.000000,0.000000,0.000000,9900.000000,138.911649,0.000000,0.000000,0.000000,500.000000,1708346260328951,3,0,0,10655666,0.000000,35.910000,-0.000191
1.570606,0,0,250,0.000000,0.000000,0.000000,0.000000,9900.000000,138.911649,0.000000,0.000000,0.000000,500.000000,1708346260328951,4,0,0,12637711,0.000000,35.910000,-0.000176
3.087284,0,0,250,0.000000,0.000000,0.000000,0.000000,9900.000000,138.911649,0.000000,0.000000,0.000000,500.000000,1708346260454810,1,0,0,-12630633,0.000000,35.910000,0.000178
3.087284,0,0,250,0.000000,0.000000,0.000000,0.000000,9900.000000,138.911649,0.000000,0.000000,0.000000,500.000000,1708346260454810,2,0,0,-10650530,0.000000,35.910000,0.000196
3.087284,0,0,250,0.000000,0.000000,0.000000,0.000000,9900.000000,138.911649,0.000000,0.000000,0.000000,500.000000,1708346260454810,3,0,0,10655666,0.000000,35.910000,-0.000191
3.087284,0,0,250,0.000000,0.000000,0.000000,0.000000,9900.000000,138.911649,0.000000,0.000000,0.000000,500.000000,1708346260454810,4,0,0,12637711,0.000000,35.910000,-0.000176
3.087284,0,0,250,0.000000,0.000000,0.000000,0.000000,9900.000000,138.911649,0.000000,0.000000,0.000000,500.000000,1708346260614228,1,0,0,-12630633,0.000000,35.910000,0.000178
3.087284,0,0,250,0.000000,0.000000,0.000000,0.000000,9900.000000,138.911649,0.000000,0.000000,0.000000,500.000000,1708346260614228,2,0,0,-10650530,0.000000,35.910000,0.000196
3.087284,0,0,250,0.000000,0.000000,0.000000,0.000000,9900.000000,138.911649,0.000000,0.000000,0.000000,500.000000,1708346260614228,3,0,0,10655666,0.000000,35.910000,-0.000191
3.087284,0,0,250,0.000000,0.000000,0.000000,0.000000,9900.000000,138.911649,0.000000,0.000000,0.000000,500.000000,1708346260614228,4,0,0,12637711,0.000000,35.910000,-0.000176
3.087284,0,0,250,0.000000,0.000000,0.000000,0.000000,9900.000000,138.911649,0.000000,0.000000,0.000000,500.000000,1708346260738636,1,0,0,-12630633,0.000000,35.910000,0.000178
3.087284,0,0,250,0.000000,0.000000,0.000000,0.000000,9900.000000,138.911649,0.000000,0.000000,0.000000,500.000000,1708346260738636,2,0,0,-10650530,0.000000,35.910000,0.000196
3.087284,0,0,250,0.000000,0.000000,0.000000,0.000000,9900.000000,138.911649,0.000000,0.000000,0.000000,500.000000,1708346260738636,3,0,0,10655666,0.000000,35.910000,-0.000191
3.087284,0,0,250,0.000000,0.000000,0.000000,0.000000,9900.000000,138.911649,0.000000,0.000000,0.000000,500.000000,1708346260738636,4,0,0,12637711,0.000000,35.910000,-0.000176
3.087284,0,0,250,0.000000,0.000000,0.000000,0.000000,9900.000000,138.911649,0.000000,0.000000,0.000000,500.000000,1708346260886888,1,0,0,-12630633,0.000000,35.910000,0.000178
3.087284,0,0,250,0.000000,0.000000,0.000000,0.000000,9900.000000,138.911649,0.000000,0.000000,0.000000,500.000000,1708346260886888,2,0,0,-10650530,0.000000,35.910000,0.000196
3.087284,0,0,250,0.000000,0.000000,0.000000,0.000000,9900.000000,138.911649,0.000000,0.000000,0.000000,500.000000,1708346260886888,3,0,0,10655666,0.000000,35.910000,-0.000191
3.087284,0,0,250,0.000000,0.000000,0.000000,0.000000,9900.000000,138.911649,0.000000,0.000000,0.000000,500.000000,1708346260886888,4,0,0,12637711,0.000000,35.910000,-0.000176
3.087284,0,0,250,0.000000,0.000000,0.000000,0.000000,9900.000000,138.911649,0.000000,0.000000,0.000000,500.000000,1708346261028496,1,0,0,-12630633,0.000000,35.910000,0.000178
3.087284,0,0,250,0.000000,0.000000,0.000000,0.000000,9900.000000,138.911649,0.000000,0.000000,0.000000,500.000000,1708346261028496,2,0,0,-10650530,0.000000,35.910000,0.000196
3.087284,0,0,250,0.000000,0.000000,0.000000,0.000000,9900.000000,138.911649,0.000000,0.000000,0.000000,500.000000,1708346261028496,3,0,0,10655666,0.000000,35.910000,-0.000191
3.087284,0,0,250,0.000000,0.000000,0.000000,0.000000,9900.000000,138.911649,0.000000,0.000000,0.000000,500.000000,1708346261028496,4,0,0,12637711,0.000000,35.910000,-0.000176
3.087284,0,0,250,0.000000,0.000000,0.000000,0.000000,9900.000000,138.911649,0.000000,0.000000,0.000000,500.000000,1708346261152599,1,0,0,-12630633,0.000000,35.910000,0.000178
3.087284,0,0,250,0.000000,0.000000,0.000000,0.000000,9900.000000,138.911649,0.000000,0.000000,0.000000,500.000000,1708346261152599,2,0,0,-10650530,0.000000,35.910000,0.000196
3.087284,0,0,250,0.000000,0.000000,0.000000,0.000000,9900.000000,138.911649,0.000000,0.000000,0.000000,500.000000,1708346261152599,3,0,0,10655666,0.000000,35.910000,-0.000191
3.087284,0,0,250,0.000000,0.000000,0.000000,0.000000,9900.000000,138.911649,0.000000,0.000000,0.000000,500.000000,1708346261152599,4,0,0,12637711,0.000000,35.910000,-0.000176
3.087284,0,0,250,0.000000,0.000000,0.000000,0.000000,9900.000000,138.911649,0.000000,0.000000,0.000000,500.000000,1708346261275447,1,0,0,-12630633,0.000000,35.910000,0.000178
3.087284,0,0,250,0.000000,0.000000,0.000000,0.000000,9900.000000,138.911649,0.000000,0.000000,0.000000,500.000000,1708346261275447,2,0,0,-10650530,0.000000,35.910000,0.000196
3.087284,0,0,250,0.000000,0.000000,0.000000,0.000000,9900.000000,138.911649,0.000000,0.000000,0.000000,500.000000,1708346261275447,3,0,0,10655666,0.000000,35.910000,-0.000191
3.087284,0,0,250,0.000000,0.000000,0.000000,0.000000,9900.000000,138.911649,0.000000,0.000000,0.000000,500.000000,1708346261275447,4,0,0,12637711,0.000000,35.910000,-0.000176
3.087284,0,0,250,0.000000,0.000000,0.000000,0.000000,9900.000000,138.911649,0.000000,0.000000,0.000000,500.000000,1708346261417824,1,0,0,-12630633,0.000000,35.910000,0.000178
3.087284,0,0,250,0.000000,0.000000,0.000000,0.000000,9900.000000,138.911649,0.000000,0.000000,0.000000,500.000000,1708346261417824,2,0,0,-10650530,0.000000,35.910000,0.000196
3.087284,0,0,250,0.000000,0.000000,0.000000,0.000000,9900.000000,138.911649,0.000000,0.000000,0.000000,500.000000,1708346261417824,3,0,0,10655666,0.000000,35.910000,-0.000191
3.087284,0,0,250,0.000000,0.000000,0.000000,0.000000,9900.000000,138.911649,0.000000,0.000000,0.000000,500.000000,1708346261417824,4,0,0,12637711,0.000000,35.910000,-0.000176
3.087284,0,0,250,0.000000,0.000000,0.000000,0.000000,9900.000000,138.911649,0.000000,0.000000,0.000000,500.000000,1708346261554935,1,0,0,-12630633,0.000000,35.910000,0.000178
3.087284,0,0,250,0.000000,0.000000,0.000000,0.000000,9900.000000,138.911649,0.000000,0.000000,0.000000,500.000000,1708346261554935,2,0,0,-10650530,0.000000,35.910000,0.000196
3.087284,0,0,250,0.000000,0.000000,0.000000,0.000000,9900.000000,138.911649,0.000000,0.000000,0.000000,500.000000,1708346261554935,3,0,0,10655666,0.000000,35.910000,-0.000191
3.087284,0,0,250,0.000000,0.000000,0.000000,0.000000,9900.000000,138.911649,0.000000,0.000000,0.000000,500.000000,1708346261554935,4,0,0,12637711,0.000000,35.910000,-0.000176
3.087284,0,0,250,0.000000,0.000000,0.000000,0.000000,9900.000000,138.911649,0.000000,0.000000,0.000000,500.000000,1708346261698025,1,0,0,-12630633,0.000000,35.910000,0.000178
3.087284,0,0,250,0.000000,0.000000,0.000000,0.000000,9900.000000,138.911649,0.000000,0.000000,0.000000,500.000000,1708346261698025,2,0,0,-10650530,0.000000,35.910000,0.000196
3.087284,0,0,250,0.000000,0.000000,0.000000,0.000000,9900.000000,138.911649,0.000000,0.000000,0.000000,500.000000,1708346261698025,3,0,0,10655666,0.000000,35.910000,-0.000191
3.087284,0,0,250,0.000000,0.000000,0.000000,0.000000,9900.000000,138.911649,0.000000,0.000000,0.000000,500.000000,1708346261698025,4,0,0,12637711,0.000000,35.910000,-0.000176
3.087284,0,0,250,0.000000,0.000000,0.000000,0.000000,9900.000000,138.911649,0.000000,0.000000,0.000000,500.000000,1708346261831839,1,0,0,-12630633,0.000000,35.910000,0.000178
3.087284,0,0,250,0.000000,0.000000,0.000000,0.000000,9900.000000,138.911649,0.000000,0.000000,0.000000,500.000000,1708346261831839,2,0,0,-10650530,0.000000,35.910000,0.000196
3.087284,0,0,250,0.000000,0.000000,0.000000,0.000000,9900.000000,138.911649,0.000000,0.000000,0.000000,500.000000,1708346261831839,3,0,0,10655666,0.000000,35.910000,-0.000191
3.087284,0,0,250,0.000000,0.000000,0.000000,0.000000,9900.000000,138.911649,0.000000,0.000000,0.000000,500.000000,1708346261831839,4,0,0,12637711,0.000000,35.910000,-0.000176
4.420640,0,0,250,0.000000,0.000000,0.000000,0.000000,9900.000000,138.911649,0.000000,0.000000,0.000000,500.000000,1708346261955116,1,0,0,-12630633,0.000000,35.910000,0.000178
4.420640,0,0,250,0.000000,0.000000,0.000000,0.000000,9900.000000,138.911649,0.000000,0.000000,0.000000,500.000000,1708346261955116,2,0,0,-10650530,0.000000,35.910000,0.000196
4.420640,0,0,250,0.000000,0.000000,0.000000,0.000000,9900.000000,138.911649,0.000000,0.000000,0.000000,500.000000,1708346261955116,3,0,0,10655666,0.000000,35.910000,-0.000191
4.420640,0,0,250,0.000000,0.000000,0.000000,0.000000,9900.000000,138.911649,0.000000,0.000000,0.000000,500.000000,1708346261955116,4,0,0,12637711,0.000000,35.910000,-0.000176
4.420640,0,0,250,0.000000,0.000000,0.000000,0.000000,9900.000000,138.911649,0.000000,0.000000,0.000000,500.000000,1708346262078903,1,0,0,-12630633,0.000000,35.910000,0.000178
4.420640,0,0,250,0.000000,0.000000,0.000000,0.000000,9900.000000,138.911649,0.000000,0.000000,0.000000,500.000000,1708346262078903,2,0,0,-10650530,0.000000,35.910000,0.000196
4.420640,0,0,250,0.000000,0.000000,0.000000,0.000000,9900.000000,138.911649,0.000000,0.000000,0.000000,500.000000,1708346262078903,3,0,0,10655666,0.000000,35.910000,-0.000191
4.420640,0,0,250,0.000000,0.000000,0.000000,0.000000,9900.000000,138.911649,0.000000,0.000000,0.000000,500.000000,1708346262078903,4,0,0,12637711,0.000000,35.910000,-0.000176
4.420640,0,0,250,0.000000,0.000000,0.000000,0.000000,9900.000000,138.911649,0.000000,0.000000,0.000000,500.000000,1708346262207277,1,0,0,-12630633,0.000000,35.910000,0.000178
4.420640,0,0,250,0.000000,0.000000,0.000000,0.000000,9900.000000,138.911649,0.000000,0.000000,0.000000,500.000000,1708346262207277,2,0,0,-10650530,0.000000,35.910000,0.000196
4.420640,0,0,250,0.000000,0.000000,0.000000,0.000000,9900.000000,138.911649,0.000000,0.000000,0.000000,500.000000,1708346262207277,3,0,0,10655666,0.000000,35.910000,-0.000191
4.420640,0,0,250,0.000000,0.000000,0.000000,0.000000,9900.000000,138.911649,0.000000,0.000000,0.000000,500.000000,1708346262207277,4,0,0,12637711,0.000000,35.910000,-0.000176
4.420640,0,0,250,0.000000,0.000000,0.000000,0.000000,9900.000000,138.911649,0.000000,0.000000,0.000000,500.000000,1708346262319677,1,0,0,-12630633,0.000000,35.910000,0.000178
4.420640,0,0,250,0.000000,0.000000,0.000000,0.000000,9900.000000,138.911649,0.000000,0.000000,0.000000,500.000000,1708346262319677,2,0,0,-10650530,0.000000,35.910000,0.000196
4.420640,0,0,250,0.000000,0.000000,0.000000,0.000000,9900.000000,138.911649,0.000000,0.000000,0.000000,500.000000,1708346262319677,3,0,0,10655666,0.000000,35.910000,-0.000191
4.420640,0,0,250,0.000000,0.000000,0.000000,0.000000,9900.000000,138.911649,0.000000,0.000000,0.000000,500.000000,1708346262319677,4,0,0,12637711,0.000000,35.910000,-0.000176
4.420640,0,0,250,0.000000,0.000000,0.000000,0.000000,9900.000000,138.911649,0.000000,0.000000,0.000000,500.000000,1708346262454881,1,0,0,-12630633,0.000000,35.910000,0.000178
4.420640,0,0,250,0.000000,0.000000,0.000000,0.000000,9900.000000,138.911649,0.000000,0.000000,0.000000,500.000000,1708346262454881,2,0,0,-10650530,0.000000,35.910000,0.000196
4.420640,0,0,250,0.000000,0.000000,0.000000,0.000000,9900.000000,138.911649,0.000000,0.000000,0.000000,500.000000,1708346262454881,3,0,0,10655666,0.000000,35.910000,-0.000191
4.420640,0,0,250,0.000000,0.000000,0.000000,0.000000,9900.000000,138.911649,0.000000,0.000000,0.000000,500.000000,1708346262454881,4,0,0,12637711,0.000000,35.910000,-0.000176
4.420640,0,0,250,0.000000,0.000000,0.000000,0.000000,9900.000000,138.911649,0.000000,0.000000,0.000000,500.000000,1708346262585929,1,0,0,-12630633,0.000000,35.910000,0.000178
4.420640,0,0,250,0.000000,0.000000,0.000000,0.000000,9900.000000,138.911649,0.000000,0.000000,0.000000,500.000000,1708346262585929,2,0,0,-10650530,0.000000,35.910000,0.000196
4.420640,0,0,250,0.000000,0.000000,0.000000,0.000000,9900.000000,138.911649,0.000000,0.000000,0.000000,500.000000,1708346262585929,3,0,0,10655666,0.000000,35.910000,-0.000191
4.420640,0,0,250,0.000000,0.000000,0.000000,0.000000,9900.000000,138.911649,0.000000,0.000000,0.000000,500.000000,1708346262585929,4,0,0,12637711,0.000000,35.910000,-0.000176
4.420640,0,0,250,0.000000,0.000000,0.000000,0.000000,9900.000000,138.911649,0.000000,0.000000,0.000000,500.000000,1708346262751790,1,0,0,-12630633,0.000000,35.910000,0.000178
4.420640,0,0,250,0.000000,0.000000,0.000000,0.000000,9900.000000,138.911649,0.000000,0.000000,0.000000,500.000000,1708346262751790,2,0,0,-10650530,0.000000,35.910000,0.000196
4.420640,0,0,250,0.000000,0.000000,0.000000,0.000000,9900.000000,138.911649,0.000000,0.000000,0.000000,500.000000,1708346262751790,3,0,0,10655666,0.000000,35.910000,-0.000191
4.420640,0,0,250,0.000000,0.000000,0.000000,0.000000,9900.000000,138.911649,0.000000,0.000000,0.000000,500.000000,1708346262751790,4,0,0,12637711,0.000000,35.910000,-0.000176
4.420640,0,0,250,0.000000,0.000000,0.000000,0.000000,9900.000000,138.911649,0.000000,0.000000,0.000000,500.000000,1708346262898308,1,0,0,-12630633,0.000000,35.910000,0.000178
4.420640,0,0,250,0.000000,0.000000,0.000000,0.000000,9900.000000,138.911649,0.000000,0.000000,0.000000,500.000000,1708346262898308,2,0,0,-10650530,0.000000,35.910000,0.000196
4.420640,0,0,250,0.000000,0.000000,0.000000,0.000000,9900.000000,138.911649,0.000000,0.000000,0.000000,500.000000,1708346262898308,3,0,0,10655666,0.000000,35.910000,-0.000191
4.420640,0,0,250,0.000000,0.000000,0.000000,0.000000,9900.000000,138.911649,0.000000,0.000000,0.000000,500.000000,1708346262898308,4,0,0,12637711,0.000000,35.910000,-0.000176
4.420640,0,0,250,0.000000,0.000000,0.000000,0.000000,9900.000000,138.911649,0.000000,0.000000,0.000000,500.000000,1708346263028176,1,0,0,-12630633,0.000000,35.910000,0.000178
4.420640,0,0,250,0.000000,0.000000,0.000000,0.000000,9900.000000,138.911649,0.000000,0.000000,0.000000,500.000000,1708346263028176,2,0,0,-10650530,0.000000,35.910000,0.000196
4.420640,0,0,250,0.000000,0.000000,0.000000,0.000000,9900.000000,138.911649,0.000000,0.000000,0.000000,500.000000,1708346263028176,3,0,0,10655666,0.000000,35.910000,-0.000191
4.420640,0,0,250,0.000000,0.000000,0.000000,0.000000,9900.000000,138.911649,0.000000,0.000000,0.000000,500.000000,1708346263028176,4,0,0,12637711,0.000000,35.910000,-0.000176
4.420640,0,0,250,0.000000,0.000000,0.000000,0.000000,9900.000000,138.911649,0.000000,0.000000,0.000000,500.000000,1708346263153294,1,0,0,-12630633,0.000000,35.910000,0.000178
4.420640,0,0,250,0.000000,0.000000,0.000000,0.000000,9900.000000,138.911649,0.000000,0.000000,0.000000,500.000000,1708346263153294,2,0,0,-10650530,0.000000,35.910000,0.000196
4.420640,0,0,250,0.000000,0.000000,0.000000,0.000000,9900.000000,138.911649,0.000000,0.000000,0.000000,500.000000,1708346263153294,3,0,0,10655666,0.000000,35.910000,-0.000191
4.420640,0,0,250,0.000000,0.000000,0.000000,0.000000,9900.000000,138.911649,0.000000,0.000000,0.000000,500.000000,1708346263153294,4,0,0,12637711,0.000000,35.910000,-0.000176
5.754922,0,0,250,0.000000,0.000000,0.000000,0.000000,9900.000000,138.911649,0.000000,0.000000,0.000000,500.000000,1708346263276921,1,0,0,-12630633,0.000000,35.910000,0.000178
5.754922,0,0,250,0.000000,0.000000,0.000000,0.000000,9900.000000,138.911649,0.000000,0.000000,0.000000,500.000000,1708346263276921,2,0,0,-10650530,0.000000,35.910000,0.000196
5.754922,0,0,250,0.000000,0.000000,0.000000,0.000000,9900.000000,138.911649,0.000000,0.000000,0.000000,500.000000,1708346263276921,3,0,0,10655666,0.000000,35.910000,-0.000191
5.754922,0,0,250,0.000000,0.000000,0.000000,0.000000,9900.000000,138.911649,0.000000,0.000000,0.000000,500.000000,1708346263276921,4,0,0,12637711,0.000000,35.910000,-0.000176
5.754922,0,0,250,0.000000,0.000000,0.000000,0.000000,9900.000000,138.911649,0.000000,0.000000,0.000000,500.000000,1708346263425287,1,0,0,-12630633,0.000000,35.910000,0.000178
5.754922,0,0,250,0.000000,0.000000,0.000000,0.000000,9900.000000,138.911649,0.000000,0.000000,0.000000,500.000000,1708346263425287,2,0,0,-10650530,0.000000,35.910000,0.000196
5.754922,0,0,250,0.000000,0.000000,0.000000,0.000000,9900.000000,138.911649,0.000000,0.000000,0.000000,500.000000,1708346263425287,3,0,0,10655666,0.000000,35.910000,-0.000191
5.754922,0,0,250,0.000000,0.000000,0.000000,0.000000,9900.000000,138.911649,0.000000,0.000000,0.000000,500.000000,1708346263425287,4,0,0,12637711,0.000000,35.910000,-0.000176
5.754922,0,0,250,0.000000,0.000000,0.000000,0.000000,9900.000000,138.911649,0.000000,0.000000,0.000000,500.000000,1708346263562479,1,0,0,-12630633,0.000000,35.910000,0.000178
5.754922,0,0,250,0.000000,0.000000,0.000000,0.000000,9900.000000,138.911649,0.000000,0.000000,0.000000,500.000000,1708346263562479,2,0,0,-10650530,0.000000,35.910000,0.000196
5.754922,0,0,250,0.000000,0.000000,0.000000,0.000000,9900.000000,138.911649,0.000000,0.000000,0.000000,500.000000,1708346263562479,3,0,0,10655666,0.000000,35.910000,-0.000191
5.754922,0,0,250,0.000000,0.000000,0.000000,0.000000,9900.000000,138.911649,0.000000,0.000000,0.000000,500.000000,1708346263562479,4,0,0,12637711,0.000000,35.910000,-0.000176
5.754922,0,0,250,0.000000,0.000000,0.000000,0.000000,9900.000000,138.911649,0.000000,0.000000,0.000000,500.000000,1708346263686791,1,0,0,-12630633,0.000000,35.910000,0.000178
5.754922,0,0,250,0.000000,0.000000,0.000000,0.000000,9900.000000,138.911649,0.000000,0.000000,0.000000,500.000000,1708346263686791,2,0,0,-10650530,0.000000,35.910000,0.000196
5.754922,0,0,250,0.000000,0.000000,0.000000,0.000000,9900.000000,138.911649,0.000000,0.000000,0.000000,500.000000,1708346263686791,3,0,0,10655666,0.000000,35.910000,-0.000191
5.754922,0,0,250,0.000000,0.000000,0.000000,0.000000,9900.000000,138.911649,0.000000,0.000000,0.000000,500.000000,1708346263686791,4,0,0,12637711,0.000000,35.910000,-0.000176
5.754922,0,0,250,0.000000,0.000000,0.000000,0.000000,9900.000000,138.911649,0.000000,0.000000,0.000000,500.000000,1708346263810156,1,0,0,-12630633,0.000000,35.910000,0.000178
5.754922,0,0,250,0.000000,0.000000,0.000000,0.000000,9900.000000,138.911649,0.000000,0.000000,0.000000,500.000000,1708346263810156,2,0,0,-10650530,0.000000,35.910000,0.000196
5.754922,0,0,250,0.000000,0.000000,0.000000,0.000000,9900.000000,138.911649,0.000000,0.000000,0.000000,500.000000,1708346263810156,3,0,0,10655666,0.000000,35.910000,-0.000191
5.754922,0,0,250,0.000000,0.000000,0.000000,0.000000,9900.000000,138.911649,0.000000,0.000000,0.000000,500.000000,1708346263810156,4,0,0,12637711,0.000000,35.910000,-0.000176
5.754922,0,0,250,0.000000,0.000000,0.000000,0.000000,9900.000000,138.911649,0.000000,0.000000,0.000000,500.000000,1708346263933553,1,0,0,-12630633,0.000000,35.910000,0.000178
5.754922,0,0,250,0.000000,0.000000,0.000000,0.000000,9900.000000,138.911649,0.000000,0.000000,0.000000,500.000000,1708346263933553,2,0,0,-10650530,0.000000,35.910000,0.000196
5.754922,0,0,250,0.000000,0.000000,0.000000,0.000000,9900.000000,138.911649,0.000000,0.000000,0.000000,500.000000,1708346263933553,3,0,0,10655666,0.000000,35.910000,-0.000191
5.754922,0,0,250,0.000000,0.000000,0.000000,0.000000,9900.000000,138.911649,0.000000,0.000000,0.000000,500.000000,1708346263933553,4,0,0,12637711,0.000000,35.910000,-0.000176
5.754922,0,0,250,0.000000,0.000000,0.000000,0.000000,9900.000000,138.911649,0.000000,0.000000,0.000000,500.000000,1708346264083802,1,0,0,-12630634,-0.175385,35.910000,-4.670087
5.754922,0,0,250,0.000000,0.000000,0.000000,0.000000,9900.000000,138.911649,0.000000,0.000000,0.000000,500.000000,1708346264083802,2,0,0,-10650530,0.000000,35.910000,-4.639352
5.754922,0,0,250,0.000000,0.000000,0.000000,0.000000,9900.000000,138.911649,0.000000,0.000000,0.000000,500.000000,1708346264083802,3,0,0,10655666,0.000000,35.910000,6.020424
5.754922,0,0,250,0.000000,0.000000,0.000000,0.000000,9900.000000,138.911649,0.000000,0.000000,0.000000,500.000000,1708346264083802,4,0,0,12637711,0.000000,35.910000,6.195426
5.754922,0,0,250,0.000000,0.000000,0.000000,0.000000,9900.000000,138.911649,0.000000,0.000000,0.000000,500.000000,1708346264208560,1,0,0,-12630873,-38.555893,35.910000,-4.995923
5.754922,0,0,250,0.000000,0.000000,0.000000,0.000000,9900.000000,138.911649,0.000000,0.000000,0.000000,500.000000,1708346264208560,2,0,0,-10650760,-37.502453,35.910000,-4.908273
5.754922,0,0,250,0.000000,0.000000,0.000000,0.000000,9900.000000,138.911649,0.000000,0.000000,0.000000,500.000000,1708346264208560,3,0,0,10655952,46.983410,35.910000,5.186616
5.754922,0,0,250,0.000000,0.000000,0.000000,0.000000,9900.000000,138.911649,0.000000,0.000000,0.000000,500.000000,1708346264208560,4,0,0,12638012,48.458229,35.910000,5.380971
5.754922,0,0,250,0.000000,0.000000,0.000000,0.000000,9900.000000,138.911649,0.000000,0.000000,0.000000,500.000000,1708346264351360,1,0,0,-12631509,-70.723816,35.910000,-4.810280
5.754922,0,0,250,0.000000,0.000000,0.000000,0.000000,9900.000000,138.911649,0.000000,0.000000,0.000000,500.000000,1708346264351360,2,0,0,-10651385,-69.426132,35.910000,-4.744876
5.754922,0,0,250,0.000000,0.000000,0.000000,0.000000,9900.000000,138.911649,0.000000,0.000000,0.000000,500.000000,1708346264351360,3,0,0,10656667,77.861076,35.910000,4.584385
5.754922,0,0,250,0.000000,0.000000,0.000000,0.000000,9900.000000,138.911649,0.000000,0.000000,0.000000,500.000000,1708346264351360,4,0,0,12638736,78.726204,35.910000,4.581557
5.754922,0,0,250,0.000000,0.000000,0.000000,0.000000,9900.000000,138.911649,0.000000,0.000000,0.000000,500.000000,1708346264473102,1,0,0,-12632359,-100.069595,35.910000,-4.267018
5.754922,0,0,250,0.000000,0.000000,0.000000,0.000000,9900.000000,138.911649,0.000000,0.000000,0.000000,500.000000,1708346264473102,2,0,0,-10652227,-99.193718,35.910000,-4.363250
5.754922,0,0,250,0.000000,0.000000,0.000000,0.000000,9900.000000,138.911649,0.000000,0.000000,0.000000,500.000000,1708346264473102,3,0,0,10657574,105.981804,35.910000,4.200627
5.754922,0,0,250,0.000000,0.000000,0.000000,0.000000,9900.000000,138.911649,0.000000,0.000000,0.000000,500.000000,1708346264473102,4,0,0,12639651,106.857689,35.910000,4.228775
7.173561,0,0,250,184.849960,-19.389576,0.000000,155.248026,9871.248542,138.911649,0.000000,358.390015,358.250000,500.000000,1708346264633021,1,0,0,-12633429,-148.391159,35.910000,-6.437256
7.173561,0,0,250,184.849960,-19.389576,0.000000,155.248026,9871.248542,138.911649,0.000000,358.390015,358.250000,500.000000,1708346264633021,2,0,0,-10653292,-112.554298,35.910000,-6.028205
7.173561,0,0,250,184.849960,-19.389576,0.000000,155.248026,9871.248542,138.911649,0.000000,358.390015,358.250000,500.000000,1708346264633021,3,0,0,10658687,116.801628,35.910000,3.682905
7.173561,0,0,250,184.849960,-19.389576,0.000000,155.248026,9871.248542,138.911649,0.000000,358.390015,358.250000,500.000000,1708346264633021,4,0,0,12640770,154.762161,35.910000,5.772561
7.173561,0,0,250,184.849960,-19.389576,0.000000,155.248026,9871.248542,138.911649,0.000000,358.390015,358.250000,500.000000,1708346264768764,1,0,0,-12635000,-128.321808,35.910000,-3.525602
7.173561,0,0,250,184.849960,-19.389576,0.000000,155.248026,9871.248542,138.911649,0.000000,358.390015,358.250000,500.000000,1708346264768764,2,0,0,-10654856,-127.526421,35.910000,-3.529096
7.173561,0,0,250,184.849960,-19.389576,0.000000,155.248026,9871.248542,138.911649,0.000000,358.390015,358.250000,500.000000,1708346264768764,3,0,0,10660297,130.707947,35.910000,3.448642
7.173561,0,0,250,184.849960,-19.389576,0.000000,155.248026,9871.248542,138.911649,0.000000,358.390015,358.250000,500.000000,1708346264768764,4,0,0,12642387,131.238205,35.910000,3.457418
7.173561,0,0,250,184.849960,-19.389576,0.000000,155.248026,9871.248542,138.911649,0.000000,358.390015,358.250000,500.000000,1708346264891891,1,0,0,-12636358,-138.393036,35.910000,-3.335794
7.173561,0,0,250,184.849960,-19.389576,0.000000,155.248026,9871.248542,138.911649,0.000000,358.390015,358.250000,500.000000,1708346264891891,2,0,0,-10656209,-138.127396,35.910000,-3.285620
7.173561,0,0,250,184.849960,-19.389576,0.000000,155.248026,9871.248542,138.911649,0.000000,358.390015,358.250000,500.000000,1708346264891891,3,0,0,10661679,140.783691,35.910000,3.247756
7.173561,0,0,250,184.849960,-19.389576,0.000000,155.248026,9871.248542,138.911649,0.000000,358.390015,358.250000,500.000000,1708346264891891,4,0,0,12643770,140.783691,35.910000,3.232240
7.173561,0,0,250,184.849960,-19.389576,0.000000,155.248026,9871.248542,138.911649,0.000000,358.390015,358.250000,500.000000,1708346265016110,1,0,0,-12638011,-159.318817,35.910000,-3.171779
7.173561,0,0,250,184.849960,-19.389576,0.000000,155.248026,9871.248542,138.911649,0.000000,358.390015,358.250000,500.000000,1708346265016110,2,0,0,-10657860,-159.318817,35.910000,-3.129001
7.173561,0,0,250,184.849960,-19.389576,0.000000,155.248026,9871.248542,138.911649,0.000000,358.390015,358.250000,500.000000,1708346265016110,3,0,0,10663355,161.451599,35.910000,3.077299
7.173561,0,0,250,184.849960,-19.389576,0.000000,155.248026,9871.248542,138.911649,0.000000,358.390015,358.250000,500.000000,1708346265016110,4,0,0,12645448,161.664871,35.910000,3.131787
7.173561,0,0,250,184.849960,-19.389576,0.000000,155.248026,9871.248542,138.911649,0.000000,358.390015,358.250000,500.000000,1708346265153373,1,0,0,-12639752,-204.484589,35.910000,-2.999460
7.173561,0,0,250,184.849960,-19.389576,0.000000,155.248026,9871.248542,138.911649,0.000000,358.390015,358.250000,500.000000,1708346265153373,2,0,0,-10659599,-164.846039,35.910000,-2.979050
7.173561,0,0,250,184.849960,-19.389576,0.000000,155.248026,9871.248542,138.911649,0.000000,358.390015,358.250000,500.000000,1708346265153373,3,0,0,10665112,166.314133,35.910000,2.954195
7.173561,0,0,250,184.849960,-19.389576,0.000000,155.248026,9871.248542,138.911649,0.000000,358.390015,358.250000,500.000000,1708346265153373,4,0,0,12647206,206.372147,35.910000,2.971052
7.173561,0,0,250,184.849960,-19.389576,0.000000,155.248026,9871.248542,138.911649,0.000000,358.390015,358.250000,500.000000,1708346265307276,1,0,0,-12641350,-211.531860,35.910000,-2.934920
7.173561,0,0,250,184.849960,-19.389576,0.000000,155.248026,9871.248542,138.911649,0.000000,358.390015,358.250000,500.000000,1708346265307276,2,0,0,-10661197,-211.531860,35.910000,-2.901680
7.173561,0,0,250,184.849960,-19.389576,0.000000,155.248026,9871.248542,138.911649,0.000000,358.390015,358.250000,500.000000,1708346265307276,3,0,0,10666722,160.021637,35.910000,2.876869
7.173561,0,0,250,184.849960,-19.389576,0.000000,155.248026,9871.248542,138.911649,0.000000,358.390015,358.250000,500.000000,1708346265307276,4,0,0,12648818,213.362167,35.910000,2.911127
7.173561,0,0,250,184.849960,-19.389576,0.000000,155.248026,9871.248542,138.911649,0.000000,358.390015,358.250000,500.000000,1708346265432210,1,0,0,-12643409,-219.533356,35.910000,-2.839907
7.173561,0,0,250,184.849960,-19.389576,0.000000,155.248026,9871.248542,138.911649,0.000000,358.390015,358.250000,500.000000,1708346265432210,2,0,0,-10663255,-176.905518,35.910000,-2.813889
7.173561,0,0,250,184.849960,-19.389576,0.000000,155.248026,9871.248542,138.911649,0.000000,358.390015,358.250000,500.000000,1708346265432210,3,0,0,10668792,177.758072,35.910000,2.797328
7.173561,0,0,250,184.849960,-19.389576,0.000000,155.248026,9871.248542,138.911649,0.000000,358.390015,358.250000,500.000000,1708346265432210,4,0,0,12650889,220.599045,35.910000,2.822595
7.173561,0,0,250,184.849960,-19.389576,0.000000,155.248026,9871.248542,138.911649,0.000000,358.390015,358.250000,500.000000,1708346265577716,1,0,0,-12645333,-209.806198,35.910000,-2.758719
7.173561,0,0,250,184.849960,-19.389576,0.000000,155.248026,9871.248542,138.911649,0.000000,358.390015,358.250000,500.000000,1708346265577716,2,0,0,-10665178,-175.056030,35.910000,-2.754238
7.173561,0,0,250,184.849960,-19.389576,0.000000,155.248026,9871.248542,138.911649,0.000000,358.390015,358.250000,500.000000,1708346265577716,3,0,0,10670723,175.708618,35.910000,2.733049
7.173561,0,0,250,184.849960,-19.389576,0.000000,155.248026,9871.248542,138.911649,0.000000,358.390015,358.250000,500.000000,1708346265577716,4,0,0,12652821,210.621933,35.910000,2.741231
7.173561,0,0,250,184.849960,-19.389576,0.000000,155.248026,9871.248542,138.911649,0.000000,358.390015,358.250000,500.000000,1708346265737801,1,0,0,-12647034,-224.718643,35.910000,-2.715947
7.173561,0,0,250,184.849960,-19.389576,0.000000,155.248026,9871.248542,138.911649,0.000000,358.390015,358.250000,500.000000,1708346265737801,2,0,0,-10666878,-168.802734,35.910000,-2.709226
7.173561,0,0,250,184.849960,-19.389576,0.000000,155.248026,9871.248542,138.911649,0.000000,358.390015,358.250000,500.000000,1708346265737801,3,0,0,10672429,169.330246,35.910000,2.706630
7.173561,0,0,250,184.849960,-19.389576,0.000000,155.248026,9871.248542,138.911649,0.000000,358.390015,358.250000,500.000000,1708346265737801,4,0,0,12654527,169.330246,35.910000,2.699528
7.173561,0,0,250,184.849960,-19.389576,0.000000,155.248026,9871.248542,138.911649,0.000000,358.390015,358.250000,500.000000,1708346265861761,1,0,0,-12649195,-186.805771,35.910000,-2.680324
7.173561,0,0,250,184.849960,-19.389576,0.000000,155.248026,9871.248542,138.911649,0.000000,358.390015,358.250000,500.000000,1708346265861761,2,0,0,-10669254,-233.130142,35.910000,-2.695940
7.173561,0,0,250,184.849960,-19.389576,0.000000,155.248026,9871.248542,138.911649,0.000000,358.390015,358.250000,500.000000,1708346265861761,3,0,0,10674811,233.776535,35.910000,2.670111
7.173561,0,0,250,184.849960,-19.389576,0.000000,155.248026,9871.248542,138.911649,0.000000,358.390015,358.250000,500.000000,1708346265861761,4,0,0,12656694,187.452148,35.910000,2.687737
8.490242,0,0,0,699.683425,-21.050065,0.000000,550.289237,9878.028113,139.112748,0.000000,358.390015,358.250000,700.000000,1708346266003371,1,0,0,-12650949,-187.416031,35.910000,-2.864559
8.490242,0,0,0,699.683425,-21.050065,0.000000,550.289237,9878.028113,139.112748,0.000000,358.390015,358.250000,700.000000,1708346266003371,2,0,0,-10671239,-283.493683,35.910000,-2.654008
8.490242,0,0,0,699.683425,-21.050065,0.000000,550.289237,9878.028113,139.112748,0.000000,358.390015,358.250000,700.000000,1708346266003371,3,0,0,10676799,283.709106,35.910000,2.649199
8.490242,0,0,0,699.683425,-21.050065,0.000000,550.289237,9878.028113,139.112748,0.000000,358.390015,358.250000,700.000000,1708346266003371,4,0,0,12658451,187.631454,35.910000,2.646208
8.490242,0,0,0,699.683425,-21.050065,0.000000,550.289237,9878.028113,139.112748,0.000000,358.390015,358.250000,700.000000,1708346266126718,1,0,0,-12652914,-188.933060,35.910000,-2.640590
8.490242,0,0,0,699.683425,-21.050065,0.000000,550.289237,9878.028113,139.112748,0.000000,358.390015,358.250000,700.000000,1708346266126718,2,0,0,-10672978,-236.382004,35.910000,-2.638425
8.490242,0,0,0,699.683425,-21.050065,0.000000,550.289237,9878.028113,139.112748,0.000000,358.390015,358.250000,700.000000,1708346266126718,3,0,0,10678539,236.382004,35.910000,2.634691
8.490242,0,0,0,699.683425,-21.050065,0.000000,550.289237,9878.028113,139.112748,0.000000,358.390015,358.250000,700.000000,1708346266126718,4,0,0,12660418,188.933060,35.910000,2.634549
8.490242,0,0,0,699.683425,-21.050065,0.000000,550.289237,9878.028113,139.112748,0.000000,358.390015,358.250000,700.000000,1708346266264272,1,0,0,-12654670,-188.471130,35.910000,-2.625809
8.490242,0,0,0,699.683425,-21.050065,0.000000,550.289237,9878.028113,139.112748,0.000000,358.390015,358.250000,700.000000,1708346266264272,2,0,0,-10674731,-234.841003,35.910000,-2.626585
8.490242,0,0,0,699.683425,-21.050065,0.000000,550.289237,9878.028113,139.112748,0.000000,358.390015,358.250000,700.000000,1708346266264272,3,0,0,10680294,235.268372,35.910000,2.623681
8.490242,0,0,0,699.683425,-21.050065,0.000000,550.289237,9878.028113,139.112748,0.000000,358.390015,358.250000,700.000000,1708346266264272,4,0,0,12662393,235.268372,35.910000,2.628121
8.490242,0,0,0,699.683425,-21.050065,0.000000,550.289237,9878.028113,139.112748,0.000000,358.390015,358.250000,700.000000,1708346266387153,1,0,0,-12656439,-173.113815,35.910000,-2.616879
8.490242,0,0,0,699.683425,-21.050065,0.000000,550.289237,9878.028113,139.112748,0.000000,358.390015,358.250000,700.000000,1708346266387153,2,0,0,-10676503,-231.170288,35.910000,-2.616593
8.490242,0,0,0,699.683425,-21.050065,0.000000,550.289237,9878.028113,139.112748,0.000000,358.390015,358.250000,700.000000,1708346266387153,3,0,0,10682066,231.170288,35.910000,2.618793
8.490242,0,0,0,699.683425,-21.050065,0.000000,550.289237,9878.028113,139.112748,0.000000,358.390015,358.250000,700.000000,1708346266387153,4,0,0,12663945,173.113815,35.910000,2.614064
8.490242,0,0,0,699.683425,-21.050065,0.000000,550.289237,9878.028113,139.112748,0.000000,358.390015,358.250000,700.000000,1708346266511697,1,0,0,-12658213,-171.562180,35.910000,-2.614227
8.490242,0,0,0,699.683425,-21.050065,0.000000,550.289237,9878.028113,139.112748,0.000000,358.390015,358.250000,700.000000,1708346266511697,2,0,0,-10678057,-171.562180,35.910000,-2.606435
8.490242,0,0,0,699.683425,-21.050065,0.000000,550.289237,9878.028113,139.112748,0.000000,358.390015,358.250000,700.000000,1708346266511697,3,0,0,10683850,231.530716,35.910000,2.607377
8.490242,0,0,0,699.683425,-21.050065,0.000000,550.289237,9878.028113,139.112748,0.000000,358.390015,358.250000,700.000000,1708346266511697,4,0,0,12665719,171.562180,35.910000,2.604561
8.490242,0,0,0,699.683425,-21.050065,0.000000,550.289237,9878.028113,139.112748,0.000000,358.390015,358.250000,700.000000,1708346266635847,1,0,0,-12659992,-175.107346,35.910000,-2.602774
8.490242,0,0,0,699.683425,-21.050065,0.000000,550.289237,9878.028113,139.112748,0.000000,358.390015,358.250000,700.000000,1708346266635847,2,0,0,-10679836,-175.107346,35.910000,-2.603827
8.490242,0,0,0,699.683425,-21.050065,0.000000,550.289237,9878.028113,139.112748,0.000000,358.390015,358.250000,700.000000,1708346266635847,3,0,0,10685620,232.777435,35.910000,2.599218
8.490242,0,0,0,699.683425,-21.050065,0.000000,550.289237,9878.028113,139.112748,0.000000,358.390015,358.250000,700.000000,1708346266635847,4,0,0,12667499,175.107346,35.910000,2.602303
8.490242,0,0,0,699.683425,-21.050065,0.000000,550.289237,9878.028113,139.112748,0.000000,358.390015,358.250000,700.000000,1708346266784679,1,0,0,-12662431,-212.710464,35.910000,-2.598259
8.490242,0,0,0,699.683425,-21.050065,0.000000,550.289237,9878.028113,139.112748,0.000000,358.390015,358.250000,700.000000,1708346266784679,2,0,0,-10682275,-212.710464,35.910000,-2.596570
8.490242,0,0,0,699.683425,-21.050065,0.000000,550.289237,9878.028113,139.112748,0.000000,358.390015,358.250000,700.000000,1708346266784679,3,0,0,10687840,212.710464,35.910000,2.595631
8.490242,0,0,0,699.683425,-21.050065,0.000000,550.289237,9878.028113,139.112748,0.000000,358.390015,358.250000,700.000000,1708346266784679,4,0,0,12669939,212.710464,35.910000,2.597037
8.490242,0,0,0,699.683425,-21.050065,0.000000,550.289237,9878.028113,139.112748,0.000000,358.390015,358.250000,700.000000,1708346266920952,1,0,0,-12664208,-233.203217,35.910000,-2.595072
8.490242,0,0,0,699.683425,-21.050065,0.000000,550.289237,9878.028113,139.112748,0.000000,358.390015,358.250000,700.000000,1708346266920952,2,0,0,-10684052,-233.203217,35.910000,-2.594326
8.490242,0,0,0,699.683425,-21.050065,0.000000,550.289237,9878.028113,139.112748,0.000000,358.390015,358.250000,700.000000,1708346266920952,3,0,0,10689617,233.203217,35.910000,2.593589
8.490242,0,0,0,699.683425,-21.050065,0.000000,550.289237,9878.028113,139.112748,0.000000,358.390015,358.250000,700.000000,1708346266920952,4,0,0,12671716,233.203217,35.910000,2.594069
8.490242,0,0,0,699.683425,-21.050065,0.000000,550.289237,9878.028113,139.112748,0.000000,358.390015,358.250000,700.000000,1708346267045042,1,0,0,-12665979,-234.193970,35.910000,-2.592175
8.490242,0,0,0,699.683425,-21.050065,0.000000,550.289237,9878.028113,139.112748,0.000000,358.390015,358.250000,700.000000,1708346267045042,2,0,0,-10685823,-234.193970,35.910000,-2.591454
8.490242,0,0,0,699.683425,-21.050065,0.000000,550.289237,9878.028113,139.112748,0.000000,358.390015,358.250000,700.000000,1708346267045042,3,0,0,10691389,234.193970,35.910000,2.590889
8.490242,0,0,0,699.683425,-21.050065,0.000000,550.289237,9878.028113,139.112748,0.000000,358.390015,358.250000,700.000000,1708346267045042,4,0,0,12673488,234.193970,35.910000,2.591794
8.490242,0,0,0,699.683425,-21.050065,0.000000,550.289237,9878.028113,139.112748,0.000000,358.390015,358.250000,700.000000,1708346267167970,1,0,0,-12667743,-239.553192,35.910000,-2.594645
8.490242,0,0,0,699.683425,-21.050065,0.000000,550.289237,9878.028113,139.112748,0.000000,358.390015,358.250000,700.000000,1708346267167970,2,0,0,-10687587,-239.553192,35.910000,-2.590848
8.490242,0,0,0,699.683425,-21.050065,0.000000,550.289237,9878.028113,139.112748,0.000000,358.390015,358.250000,700.000000,1708346267167970,3,0,0,10693389,291.135803,35.910000,2.588779
8.490242,0,0,0,699.683425,-21.050065,0.000000,550.289237,9878.028113,139.112748,0.000000,358.390015,358.250000,700.000000,1708346267167970,4,0,0,12675252,239.553192,35.910000,2.590349
9.790256,0,0,0,699.705937,-20.287984,0.000000,1452.368397,9909.130810,139.112748,0.000000,358.390015,358.250000,700.000000,1708346267291635,1,0,0,-12669543,-191.155472,35.910000,-2.587065
9.790256,0,0,0,699.705937,-20.287984,0.000000,1452.368397,9909.130810,139.112748,0.000000,358.390015,358.250000,700.000000,1708346267291635,2,0,0,-10689387,-191.155472,35.910000,-2.587681
9.790256,0,0,0,699.705937,-20.287984,0.000000,1452.368397,9909.130810,139.112748,0.000000,358.390015,358.250000,700.000000,1708346267291635,3,0,0,10695171,237.977829,35.910000,2.590692
9.790256,0,0,0,699.705937,-20.287984,0.000000,1452.368397,9909.130810,139.112748,0.000000,358.390015,358.250000,700.000000,1708346267291635,4,0,0,12677052,191.155472,35.910000,2.587309
9.790256,0,0,0,699.705937,-20.287984,0.000000,1452.368397,9909.130810,139.112748,0.000000,358.390015,358.250000,700.000000,1708346267441921,1,0,0,-12671766,-207.414200,35.910000,-2.586792
9.790256,0,0,0,699.705937,-20.287984,0.000000,1452.368397,9909.130810,139.112748,0.000000,358.390015,358.250000,700.000000,1708346267441921,2,0,0,-10691610,-207.414200,35.910000,-2.585792
9.790256,0,0,0,699.705937,-20.287984,0.000000,1452.368397,9909.130810,139.112748,0.000000,358.390015,358.250000,700.000000,1708346267441921,3,0,0,10697176,207.414200,35.910000,2.587151
9.790256,0,0,0,699.705937,-20.287984,0.000000,1452.368397,9909.130810,139.112748,0.000000,358.390015,358.250000,700.000000,1708346267441921,4,0,0,12679275,207.414200,35.910000,2.586542
9.790256,0,0,0,699.705937,-20.287984,0.000000,1452.368397,9909.130810,139.112748,0.000000,358.390015,358.250000,700.000000,1708346267566024,1,0,0,-12673541,-237.198135,35.910000,-2.585171
9.790256,0,0,0,699.705937,-20.287984,0.000000,1452.368397,9909.130810,139.112748,0.000000,358.390015,358.250000,700.000000,1708346267566024,2,0,0,-10693385,-189.972198,35.910000,-2.586027
9.790256,0,0,0,699.705937,-20.287984,0.000000,1452.368397,9909.130810,139.112748,0.000000,358.390015,358.250000,700.000000,1708346267566024,3,0,0,10698951,189.972198,35.910000,2.586705
9.790256,0,0,0,699.705937,-20.287984,0.000000,1452.368397,9909.130810,139.112748,0.000000,358.390015,358.250000,700.000000,1708346267566024,4,0,0,12681050,189.972198,35.910000,2.584982
9.790256,0,0,0,699.705937,-20.287984,0.000000,1452.368397,9909.130810,139.112748,0.000000,358.390015,358.250000,700.000000,1708346267714640,1,0,0,-12675545,-244.119095,35.910000,-2.584262
9.790256,0,0,0,699.705937,-20.287984,0.000000,1452.368397,9909.130810,139.112748,0.000000,358.390015,358.250000,700.000000,1708346267714640,2,0,0,-10695389,-244.119095,35.910000,-2.587115
9.790256,0,0,0,699.705937,-20.287984,0.000000,1452.368397,9909.130810,139.112748,0.000000,358.390015,358.250000,700.000000,1708346267714640,3,0,0,10700955,195.076340,35.910000,2.586968
9.790256,0,0,0,699.705937,-20.287984,0.000000,1452.368397,9909.130810,139.112748,0.000000,358.390015,358.250000,700.000000,1708346267714640,4,0,0,12683054,244.119095,35.910000,2.584974
9.790256,0,0,0,699.705937,-20.287984,0.000000,1452.368397,9909.130810,139.112748,0.000000,358.390015,358.250000,700.000000,1708346267861650,1,0,0,-12677790,-217.931030,35.910000,-2.585289
9.790256,0,0,0,699.705937,-20.287984,0.000000,1452.368397,9909.130810,139.112748,0.000000,358.390015,358.250000,700.000000,1708346267861650,2,0,0,-10697634,-217.931030,35.910000,-2.586705
9.790256,0,0,0,699.705937,-20.287984,0.000000,1452.368397,9909.130810,139.112748,0.000000,358.390015,358.250000,700.000000,1708346267861650,3,0,0,10703200,217.931030,35.910000,2.584532
9.790256,0,0,0,699.705937,-20.287984,0.000000,1452.368397,9909.130810,139.112748,0.000000,358.390015,358.250000,700.000000,1708346267861650,4,0,0,12685299,217.931030,35.910000,2.585183
9.790256,0,0,0,699.705937,-20.287984,0.000000,1452.368397,9909.130810,139.112748,0.000000,358.390015,358.250000,700.000000,1708346267985076,1,0,0,-12679570,-238.372940,35.910000,-2.584934
9.790256,0,0,0,699.705937,-20.287984,0.000000,1452.368397,9909.130810,139.112748,0.000000,358.390015,358.250000,700.000000,1708346267985076,2,0,0,-10699414,-192.424118,35.910000,-2.582968
9.790256,0,0,0,699.705937,-20.287984,0.000000,1452.368397,9909.130810,139.112748,0.000000,358.390015,358.250000,700.000000,1708346267985076,3,0,0,10704980,192.424118,35.910000,2.583978
9.790256,0,0,0,699.705937,-20.287984,0.000000,1452.368397,9909.130810,139.112748,0.000000,358.390015,358.250000,700.000000,1708346267985076,4,0,0,12687079,192.424118,35.910000,2.584852
9.790256,0,0,0,699.705937,-20.287984,0.000000,1452.368397,9909.130810,139.112748,0.000000,358.390015,358.250000,700.000000,1708346268108200,1,0,0,-12681330,-232.039230,35.910000,-2.583678
9.790256,0,0,0,699.705937,-20.287984,0.000000,1452.368397,9909.130810,139.112748,0.000000,358.390015,358.250000,700.000000,1708346268108200,2,0,0,-10701174,-232.039230,35.910000,-2.583822
9.790256,0,0,0,699.705937,-20.287984,0.000000,1452.368397,9909.130810,139.112748,0.000000,358.390015,358.250000,700.000000,1708346268108200,3,0,0,10706740,232.039230,35.910000,2.584506
9.790256,0,0,0,699.705937,-20.287984,0.000000,1452.368397,9909.130810,139.112748,0.000000,358.390015,358.250000,700.000000,1708346268108200,4,0,0,12688839,232.039230,35.910000,2.583616
9.790256,0,0,0,699.705937,-20.287984,0.000000,1452.368397,9909.130810,139.112748,0.000000,358.390015,358.250000,700.000000,1708346268290789,1,0,0,-12683105,-231.845581,35.910000,-2.586329
9.790256,0,0,0,699.705937,-20.287984,0.000000,1452.368397,9909.130810,139.112748,0.000000,358.390015,358.250000,700.000000,1708346268290789,2,0,0,-10702949,-231.845581,35.910000,-2.659360
9.790256,0,0,0,699.705937,-20.287984,0.000000,1452.368397,9909.130810,139.112748,0.000000,358.390015,358.250000,700.000000,1708346268290789,3,0,0,10708515,231.845581,35.910000,2.649843
9.790256,0,0,0,699.705937,-20.287984,0.000000,1452.368397,9909.130810,139.112748,0.000000,358.390015,358.250000,700.000000,1708346268290789,4,0,0,12690614,231.845581,35.910000,2.659213
9.790256,0,0,0,699.705937,-20.287984,0.000000,1452.368397,9909.130810,139.112748,0.000000,358.390015,358.250000,700.000000,1708346268415768,1,0,0,-12685796,-238.365021,35.910000,-2.585093
9.790256,0,0,0,699.705937,-20.287984,0.000000,1452.368397,9909.130810,139.112748,0.000000,358.390015,358.250000,700.000000,1708346268415768,2,0,0,-10705640,-238.365021,35.910000,-2.585629
9.790256,0,0,0,699.705937,-20.287984,0.000000,1452.368397,9909.130810,139.112748,0.000000,358.390015,358.250000,700.000000,1708346268415768,3,0,0,10711206,238.365021,35.910000,2.585595
9.790256,0,0,0,699.705937,-20.287984,0.000000,1452.368397,9909.130810,139.112748,0.000000,358.390015,358.250000,700.000000,1708346268415768,4,0,0,12693305,238.365021,35.910000,2.581712
9.790256,0,0,0,699.705937,-20.287984,0.000000,1452.368397,9909.130810,139.112748,0.000000,358.390015,358.250000,700.000000,1708346268538638,1,0,0,-12687358,-176.792908,35.910000,-2.587442
9.790256,0,0,0,699.705937,-20.287984,0.000000,1452.368397,9909.130810,139.112748,0.000000,358.390015,358.250000,700.000000,1708346268538638,2,0,0,-10707437,-239.362686,35.910000,-2.582699
9.790256,0,0,0,699.705937,-20.287984,0.000000,1452.368397,9909.130810,139.112748,0.000000,358.390015,358.250000,700.000000,1708346268538638,3,0,0,10713003,239.362686,35.910000,2.582675
9.790256,0,0,0,699.705937,-20.287984,0.000000,1452.368397,9909.130810,139.112748,0.000000,358.390015,358.250000,700.000000,1708346268538638,4,0,0,12694867,176.792908,35.910000,2.583150
11.073636,0,0,0,688.376510,127.034565,0.000000,2356.711791,9925.817059,139.112749,0.000000,358.390015,358.250000,700.000000,1708346268674790,1,0,0,-12689133,-174.667084,35.910000,-2.584127
11.073636,0,0,0,688.376510,127.034565,0.000000,2356.711791,9925.817059,139.112749,0.000000,358.390015,358.250000,700.000000,1708346268674790,2,0,0,-10709201,-233.858337,35.910000,-2.583009
11.073636,0,0,0,688.376510,127.034565,0.000000,2356.711791,9925.817059,139.112749,0.000000,358.390015,358.250000,700.000000,1708346268674790,3,0,0,10714767,233.858337,35.910000,2.582990
11.073636,0,0,0,688.376510,127.034565,0.000000,2356.711791,9925.817059,139.112749,0.000000,358.390015,358.250000,700.000000,1708346268674790,4,0,0,12696642,174.667084,35.910000,2.584018
11.073636,0,0,0,688.376510,127.034565,0.000000,2356.711791,9925.817059,139.112749,0.000000,358.390015,358.250000,700.000000,1708346268798234,1,0,0,-12690909,-173.589691,35.910000,-2.584884
11.073636,0,0,0,688.376510,127.034565,0.000000,2356.711791,9925.817059,139.112749,0.000000,358.390015,358.250000,700.000000,1708346268798234,2,0,0,-10710980,-233.475494,35.910000,-2.583857
11.073636,0,0,0,688.376510,127.034565,0.000000,2356.711791,9925.817059,139.112749,0.000000,358.390015,358.250000,700.000000,1708346268798234,3,0,0,10716546,233.475494,35.910000,2.587765
11.073636,0,0,0,688.376510,127.034565,0.000000,2356.711791,9925.817059,139.112749,0.000000,358.390015,358.250000,700.000000,1708346268798234,4,0,0,12698418,173.589691,35.910000,2.583840
11.073636,0,0,0,688.376510,127.034565,0.000000,2356.711791,9925.817059,139.112749,0.000000,358.390015,358.250000,700.000000,1708346268921314,1,0,0,-12692923,-190.292618,35.910000,-2.581393
11.073636,0,0,0,688.376510,127.034565,0.000000,2356.711791,9925.817059,139.112749,0.000000,358.390015,358.250000,700.000000,1708346268921314,2,0,0,-10712767,-190.292618,35.910000,-2.583032
11.073636,0,0,0,688.376510,127.034565,0.000000,2356.711791,9925.817059,139.112749,0.000000,358.390015,358.250000,700.000000,1708346268921314,3,0,0,10718333,190.292618,35.910000,2.583802
11.073636,0,0,0,688.376510,127.034565,0.000000,2356.711791,9925.817059,139.112749,0.000000,358.390015,358.250000,700.000000,1708346268921314,4,0,0,12700432,190.292618,35.910000,2.583020
11.073636,0,0,0,688.376510,127.034565,0.000000,2356.711791,9925.817059,139.112749,0.000000,358.390015,358.250000,700.000000,1708346269045444,1,0,0,-12694696,-190.836777,35.910000,-2.582182
11.073636,0,0,0,688.376510,127.034565,0.000000,2356.711791,9925.817059,139.112749,0.000000,358.390015,358.250000,700.000000,1708346269045444,2,0,0,-10714540,-190.836777,35.910000,-2.583056
11.073636,0,0,0,688.376510,127.034565,0.000000,2356.711791,9925.817059,139.112749,0.000000,358.390015,358.250000,700.000000,1708346269045444,3,0,0,10720106,190.836777,35.910000,2.583485
11.073636,0,0,0,688.376510,127.034565,0.000000,2356.711791,9925.817059,139.112749,0.000000,358.390015,358.250000,700.000000,1708346269045444,4,0,0,12702205,190.836777,35.910000,2.583047
11.073636,0,0,0,688.376510,127.034565,0.000000,2356.711791,9925.817059,139.112749,0.000000,358.390015,358.250000,700.000000,1708346269168409,1,0,0,-12696465,-190.230759,35.910000,-2.582547
11.073636,0,0,0,688.376510,127.034565,0.000000,2356.711791,9925.817059,139.112749,0.000000,358.390015,358.250000,700.000000,1708346269168409,2,0,0,-10716309,-190.230759,35.910000,-2.583054
11.073636,0,0,0,688.376510,127.034565,0.000000,2356.711791,9925.817059,139.112749,0.000000,358.390015,358.250000,700.000000,1708346269168409,3,0,0,10721875,190.230759,35.910000,2.582091
11.073636,0,0,0,688.376510,127.034565,0.000000,2356.711791,9925.817059,139.112749,0.000000,358.390015,358.250000,700.000000,1708346269168409,4,0,0,12703974,190.230759,35.910000,2.583046
11.073636,0,0,0,688.376510,127.034565,0.000000,2356.711791,9925.817059,139.112749,0.000000,358.390015,358.250000,700.000000,1708346269291395,1,0,0,-12698246,-194.320358,35.910000,-2.584642
11.073636,0,0,0,688.376510,127.034565,0.000000,2356.711791,9925.817059,139.112749,0.000000,358.390015,358.250000,700.000000,1708346269291395,2,0,0,-10718090,-194.320358,35.910000,-2.583293
11.073636,0,0,0,688.376510,127.034565,0.000000,2356.711791,9925.817059,139.112749,0.000000,358.390015,358.250000,700.000000,1708346269291395,3,0,0,10723656,194.320358,35.910000,2.581938
11.073636,0,0,0,688.376510,127.034565,0.000000,2356.711791,9925.817059,139.112749,0.000000,358.390015,358.250000,700.000000,1708346269291395,4,0,0,12705755,194.320358,35.910000,2.584636
11.073636,0,0,0,688.376510,127.034565,0.000000,2356.711791,9925.817059,139.112749,0.000000,358.390015,358.250000,700.000000,1708346269428566,1,0,0,-12700024,-233.898743,35.910000,-2.584086
11.073636,0,0,0,688.376510,127.034565,0.000000,2356.711791,9925.817059,139.112749,0.000000,358.390015,358.250000,700.000000,1708346269428566,2,0,0,-10719868,-175.097382,35.910000,-2.583948
11.073636,0,0,0,688.376510,127.034565,0.000000,2356.711791,9925.817059,139.112749,0.000000,358.390015,358.250000,700.000000,1708346269428566,3,0,0,10725434,175.097382,35.910000,2.580825
11.073636,0,0,0,688.376510,127.034565,0.000000,2356.711791,9925.817059,139.112749,0.000000,358.390015,358.250000,700.000000,1708346269428566,4,0,0,12707533,233.898743,35.910000,2.584082
11.073636,0,0,0,688.376510,127.034565,0.000000,2356.711791,9925.817059,139.112749,0.000000,358.390015,358.250000,700.000000,1708346269552294,1,0,0,-12701805,-233.351624,35.910000,-2.582673
11.073636,0,0,0,688.376510,127.034565,0.000000,2356.711791,9925.817059,139.112749,0.000000,358.390015,358.250000,700.000000,1708346269552294,2,0,0,-10721649,-173.699799,35.910000,-2.582895
11.073636,0,0,0,688.376510,127.034565,0.000000,2356.711791,9925.817059,139.112749,0.000000,358.390015,358.250000,700.000000,1708346269552294,3,0,0,10727215,173.699799,35.910000,2.582373
11.073636,0,0,0,688.376510,127.034565,0.000000,2356.711791,9925.817059,139.112749,0.000000,358.390015,358.250000,700.000000,1708346269552294,4,0,0,12709314,233.351624,35.910000,2.582670
11.073636,0,0,0,688.376510,127.034565,0.000000,2356.711791,9925.817059,139.112749,0.000000,358.390015,358.250000,700.000000,1708346269675956,1,0,0,-12703577,-234.666840,35.910000,-2.583048
11.073636,0,0,0,688.376510,127.034565,0.000000,2356.711791,9925.817059,139.112749,0.000000,358.390015,358.250000,700.000000,1708346269675956,2,0,0,-10723421,-176.858032,35.910000,-2.582854
11.073636,0,0,0,688.376510,127.034565,0.000000,2356.711791,9925.817059,139.112749,0.000000,358.390015,358.250000,700.000000,1708346269675956,3,0,0,10728987,176.858032,35.910000,2.582852
11.073636,0,0,0,688.376510,127.034565,0.000000,2356.711791,9925.817059,139.112749,0.000000,358.390015,358.250000,700.000000,1708346269675956,4,0,0,12711086,176.858032,35.910000,2.583045
11.073636,0,0,0,688.376510,127.034565,0.000000,2356.711791,9925.817059,139.112749,0.000000,358.390015,358.250000,700.000000,1708346269809883,1,0,0,-12705582,-210.282135,35.910000,-2.580749
11.073636,0,0,0,688.376510,127.034565,0.000000,2356.711791,9925.817059,139.112749,0.000000,358.390015,358.250000,700.000000,1708346269809883,2,0,0,-10725640,-208.220551,35.910000,-2.581983
11.073636,0,0,0,688.376510,127.034565,0.000000,2356.711791,9925.817059,139.112749,0.000000,358.390015,358.250000,700.000000,1708346269809883,3,0,0,10731206,208.220551,35.910000,2.581981
11.073636,0,0,0,688.376510,127.034565,0.000000,2356.711791,9925.817059,139.112749,0.000000,358.390015,358.250000,700.000000,1708346269809883,4,0,0,12713305,250.389435,35.910000,2.584925
12.440412,0,0,0,699.886247,-12.619084,0.000000,3336.380935,9918.284434,139.112752,0.000000,358.390015,358.250000,700.000000,1708346269934178,1,0,0,-12707359,-189.671677,35.910000,-2.585820
12.440412,0,0,0,699.886247,-12.619084,0.000000,3336.380935,9918.284434,139.112752,0.000000,358.390015,358.250000,700.000000,1708346269934178,2,0,0,-10727434,-238.790695,35.910000,-2.582314
12.440412,0,0,0,699.886247,-12.619084,0.000000,3336.380935,9918.284434,139.112752,0.000000,358.390015,358.250000,700.000000,1708346269934178,3,0,0,10733000,238.790695,35.910000,2.582312
12.440412,0,0,0,699.886247,-12.619084,0.000000,3336.380935,9918.284434,139.112752,0.000000,358.390015,358.250000,700.000000,1708346269934178,4,0,0,12714868,189.671677,35.910000,2.581377
12.440412,0,0,0,699.886247,-12.619084,0.000000,3336.380935,9918.284434,139.112752,0.000000,358.390015,358.250000,700.000000,1708346270057090,1,0,0,-12709124,-190.692963,35.910000,-2.583352
