CurrentTime,PlatformType,PlatformDirection,PlatformMovementType,PlayerVelocity.x,PlayerVelocity.y,PlayerVelocity.z,PlayerPosition.x,PlayerPosition.y,PlayerPosition.z,PlayerRotation.Pitch,PlayerRotation.Roll,PlayerRotation.Yaw,PlayerCurrentSpeed,UnixTimeStamp [us],ControllerId,MotorFlags,HallPosition,EncoderPosition,MotorVelocity,MotorVoltage,MotorCurrent 
1.588492,0,0,250,71.064720,0.230504,0.000000,57.861888,9897.607704,138.911646,0.000000,1.400009,1.225000,500.000000,1708343568781395,1,0,0,-1984847,-78.788223,35.910000,-0.844844
1.588492,0,0,250,71.064720,0.230504,0.000000,57.861888,9897.607704,138.911646,0.000000,1.400009,1.225000,500.000000,1708343568781395,2,0,0,-2125262,-63.620438,35.910000,-0.844236
1.588492,0,0,250,71.064720,0.230504,0.000000,57.861888,9897.607704,138.911646,0.000000,1.400009,1.225000,500.000000,1708343568781395,3,0,0,2125262,63.620438,35.910000,0.844658
1.588492,0,0,250,71.064720,0.230504,0.000000,57.861888,9897.607704,138.911646,0.000000,1.400009,1.225000,500.000000,1708343568781395,4,0,0,1985040,63.620438,35.910000,0.844844
1.588492,0,0,250,71.064720,0.230504,0.000000,57.861888,9897.607704,138.911646,0.000000,1.400009,1.225000,500.000000,1708343568931214,1,0,0,-1985532,-63.314098,35.910000,-0.844581
1.588492,0,0,250,71.064720,0.230504,0.000000,57.861888,9897.607704,138.911646,0.000000,1.400009,1.225000,500.000000,1708343568931214,2,0,0,-2125947,-63.314098,35.910000,-0.844328
1.588492,0,0,250,71.064720,0.230504,0.000000,57.861888,9897.607704,138.911646,0.000000,1.400009,1.225000,500.000000,1708343568931214,3,0,0,2125947,63.314098,35.910000,0.844501
1.588492,0,0,250,71.064720,0.230504,0.000000,57.861888,9897.607704,138.911646,0.000000,1.400009,1.225000,500.000000,1708343568931214,4,0,0,1985725,63.314098,35.910000,0.844328
1.588492,0,0,250,71.064720,0.230504,0.000000,57.861888,9897.607704,138.911646,0.000000,1.400009,1.225000,500.000000,1708343569075007,1,0,0,-1986135,-57.162956,35.910000,-0.844119
1.588492,0,0,250,71.064720,0.230504,0.000000,57.861888,9897.607704,138.911646,0.000000,1.400009,1.225000,500.000000,1708343569075007,2,0,0,-2126622,-75.374161,35.910000,-0.844620
1.588492,0,0,250,71.064720,0.230504,0.000000,57.861888,9897.607704,138.911646,0.000000,1.400009,1.225000,500.000000,1708343569075007,3,0,0,2126622,75.374161,35.910000,0.844620
1.588492,0,0,250,71.064720,0.230504,0.000000,57.861888,9897.607704,138.911646,0.000000,1.400009,1.225000,500.000000,1708343569075007,4,0,0,1986328,57.162956,35.910000,0.844517
1.588492,0,0,250,71.064720,0.230504,0.000000,57.861888,9897.607704,138.911646,0.000000,1.400009,1.225000,500.000000,1708343569202902,1,0,0,-1986879,-78.087906,35.910000,-0.844379
1.588492,0,0,250,71.064720,0.230504,0.000000,57.861888,9897.607704,138.911646,0.000000,1.400009,1.225000,500.000000,1708343569202902,2,0,0,-2127294,-78.087906,35.910000,-0.844182
1.588492,0,0,250,71.064720,0.230504,0.000000,57.861888,9897.607704,138.911646,0.000000,1.400009,1.225000,500.000000,1708343569202902,3,0,0,2127294,78.087906,35.910000,0.844182
1.588492,0,0,250,71.064720,0.230504,0.000000,57.861888,9897.607704,138.911646,0.000000,1.400009,1.225000,500.000000,1708343569202902,4,0,0,1987072,78.087906,35.910000,0.844604
1.588492,0,0,250,71.064720,0.230504,0.000000,57.861888,9897.607704,138.911646,0.000000,1.400009,1.225000,500.000000,1708343569329948,1,0,0,-1987408,-63.053154,35.910000,-0.844742
1.588492,0,0,250,71.064720,0.230504,0.000000,57.861888,9897.607704,138.911646,0.000000,1.400009,1.225000,500.000000,1708343569329948,2,0,0,-2127901,-79.338402,35.910000,-0.844466
1.588492,0,0,250,71.064720,0.230504,0.000000,57.861888,9897.607704,138.911646,0.000000,1.400009,1.225000,500.000000,1708343569329948,3,0,0,2127901,79.338402,35.910000,0.844466
1.588492,0,0,250,71.064720,0.230504,0.000000,57.861888,9897.607704,138.911646,0.000000,1.400009,1.225000,500.000000,1708343569329948,4,0,0,1987679,79.338402,35.910000,0.844386
1.588492,0,0,250,71.064720,0.230504,0.000000,57.861888,9897.607704,138.911646,0.000000,1.400009,1.225000,500.000000,1708343569455176,1,0,0,-1988006,-63.363758,35.910000,-0.844492
1.588492,0,0,250,71.064720,0.230504,0.000000,57.861888,9897.607704,138.911646,0.000000,1.400009,1.225000,500.000000,1708343569455176,2,0,0,-2128496,-79.418762,35.910000,-0.844429
1.588492,0,0,250,71.064720,0.230504,0.000000,57.861888,9897.607704,138.911646,0.000000,1.400009,1.225000,500.000000,1708343569455176,3,0,0,2128496,79.418762,35.910000,0.844429
1.588492,0,0,250,71.064720,0.230504,0.000000,57.861888,9897.607704,138.911646,0.000000,1.400009,1.225000,500.000000,1708343569455176,4,0,0,1988274,79.418762,35.910000,0.844406
1.588492,0,0,250,71.064720,0.230504,0.000000,57.861888,9897.607704,138.911646,0.000000,1.400009,1.225000,500.000000,1708343569582266,1,0,0,-1988608,-62.836395,35.910000,-0.844742
1.588492,0,0,250,71.064720,0.230504,0.000000,57.861888,9897.607704,138.911646,0.000000,1.400009,1.225000,500.000000,1708343569582266,2,0,0,-2129101,-79.119583,35.910000,-0.844828
1.588492,0,0,250,71.064720,0.230504,0.000000,57.861888,9897.607704,138.911646,0.000000,1.400009,1.225000,500.000000,1708343569582266,3,0,0,2129101,79.119583,35.910000,0.844828
1.588492,0,0,250,71.064720,0.230504,0.000000,57.861888,9897.607704,138.911646,0.000000,1.400009,1.225000,500.000000,1708343569582266,4,0,0,1988879,79.119583,35.910000,0.844156
1.588492,0,0,250,71.064720,0.230504,0.000000,57.861888,9897.607704,138.911646,0.000000,1.400009,1.225000,500.000000,1708343569695061,1,0,0,-1988986,-79.228897,35.910000,-0.844711
1.588492,0,0,250,71.064720,0.230504,0.000000,57.861888,9897.607704,138.911646,0.000000,1.400009,1.225000,500.000000,1708343569695061,2,0,0,-2129401,-62.880074,35.910000,-0.860017
1.588492,0,0,250,71.064720,0.230504,0.000000,57.861888,9897.607704,138.911646,0.000000,1.400009,1.225000,500.000000,1708343569695061,3,0,0,2129401,62.880074,35.910000,0.844541
1.588492,0,0,250,71.064720,0.230504,0.000000,57.861888,9897.607704,138.911646,0.000000,1.400009,1.225000,500.000000,1708343569695061,4,0,0,1989179,62.880074,35.910000,0.844711
1.588492,0,0,250,71.064720,0.230504,0.000000,57.861888,9897.607704,138.911646,0.000000,1.400009,1.225000,500.000000,1708343569834666,1,0,0,-1989813,-79.292610,35.910000,-0.844556
1.588492,0,0,250,71.064720,0.230504,0.000000,57.861888,9897.607704,138.911646,0.000000,1.400009,1.225000,500.000000,1708343569834666,2,0,0,-2130228,-79.292610,35.910000,-0.844678
1.588492,0,0,250,71.064720,0.230504,0.000000,57.861888,9897.607704,138.911646,0.000000,1.400009,1.225000,500.000000,1708343569834666,3,0,0,2130228,63.307896,35.910000,0.844381
1.588492,0,0,250,71.064720,0.230504,0.000000,57.861888,9897.607704,138.911646,0.000000,1.400009,1.225000,500.000000,1708343569834666,4,0,0,1990006,79.292610,35.910000,0.844423
1.588492,0,0,250,71.064720,0.230504,0.000000,57.861888,9897.607704,138.911646,0.000000,1.400009,1.225000,500.000000,1708343569983067,1,0,0,-1990487,-70.108871,35.910000,-0.844633
1.588492,0,0,250,71.064720,0.230504,0.000000,57.861888,9897.607704,138.911646,0.000000,1.400009,1.225000,500.000000,1708343569983067,2,0,0,-2130902,-70.108871,35.910000,-0.844396
1.588492,0,0,250,71.064720,0.230504,0.000000,57.861888,9897.607704,138.911646,0.000000,1.400009,1.225000,500.000000,1708343569983067,3,0,0,2130902,70.108871,35.910000,0.844628
1.588492,0,0,250,71.064720,0.230504,0.000000,57.861888,9897.607704,138.911646,0.000000,1.400009,1.225000,500.000000,1708343569983067,4,0,0,1990680,70.108871,35.910000,0.844396
3.000704,0,0,250,73.424896,5.672666,0.000000,129.361845,9902.097076,138.911646,0.000000,2.660009,4.900000,500.000000,1708343570115354,1,0,0,-1991172,-78.793724,35.910000,-0.844216
3.000704,0,0,250,73.424896,5.672666,0.000000,129.361845,9902.097076,138.911646,0.000000,2.660009,4.900000,500.000000,1708343570115354,2,0,0,-2131587,-62.620274,35.910000,-0.844143
3.000704,0,0,250,73.424896,5.672666,0.000000,129.361845,9902.097076,138.911646,0.000000,2.660009,4.900000,500.000000,1708343570115354,3,0,0,2131587,62.620274,35.910000,0.844724
3.000704,0,0,250,73.424896,5.672666,0.000000,129.361845,9902.097076,138.911646,0.000000,2.660009,4.900000,500.000000,1708343570115354,4,0,0,1991365,62.620274,35.910000,0.844216
3.000704,0,0,250,73.424896,5.672666,0.000000,129.361845,9902.097076,138.911646,0.000000,2.660009,4.900000,500.000000,1708343570257416,1,0,0,-1991848,-68.009407,35.910000,-0.844439
3.000704,0,0,250,73.424896,5.672666,0.000000,129.361845,9902.097076,138.911646,0.000000,2.660009,4.900000,500.000000,1708343570257416,2,0,0,-2132263,-68.009407,35.910000,-0.844375
3.000704,0,0,250,73.424896,5.672666,0.000000,129.361845,9902.097076,138.911646,0.000000,2.660009,4.900000,500.000000,1708343570257416,3,0,0,2132263,68.009407,35.910000,0.844585
3.000704,0,0,250,73.424896,5.672666,0.000000,129.361845,9902.097076,138.911646,0.000000,2.660009,4.900000,500.000000,1708343570257416,4,0,0,1992041,68.009407,35.910000,0.844439
3.000704,0,0,250,73.424896,5.672666,0.000000,129.361845,9902.097076,138.911646,0.000000,2.660009,4.900000,500.000000,1708343570407586,1,0,0,-1992457,-55.846588,35.910000,-0.844280
3.000704,0,0,250,73.424896,5.672666,0.000000,129.361845,9902.097076,138.911646,0.000000,2.660009,4.900000,500.000000,1708343570407586,2,0,0,-2132945,-73.806068,35.910000,-0.844387
3.000704,0,0,250,73.424896,5.672666,0.000000,129.361845,9902.097076,138.911646,0.000000,2.660009,4.900000,500.000000,1708343570407586,3,0,0,2132945,73.806068,35.910000,0.844287
3.000704,0,0,250,73.424896,5.672666,0.000000,129.361845,9902.097076,138.911646,0.000000,2.660009,4.900000,500.000000,1708343570407586,4,0,0,1992723,73.806068,35.910000,0.844429
3.000704,0,0,250,73.424896,5.672666,0.000000,129.361845,9902.097076,138.911646,0.000000,2.660009,4.900000,500.000000,1708343570549583,1,0,0,-1993199,-68.388351,35.910000,-0.844370
3.000704,0,0,250,73.424896,5.672666,0.000000,129.361845,9902.097076,138.911646,0.000000,2.660009,4.900000,500.000000,1708343570549583,2,0,0,-2133688,-67.656929,35.910000,-0.844681
3.000704,0,0,250,73.424896,5.672666,0.000000,129.361845,9902.097076,138.911646,0.000000,2.660009,4.900000,500.000000,1708343570549583,3,0,0,2133688,67.656929,35.910000,0.844164
3.000704,0,0,250,73.424896,5.672666,0.000000,129.361845,9902.097076,138.911646,0.000000,2.660009,4.900000,500.000000,1708343570549583,4,0,0,1993466,81.919739,35.910000,0.844074
3.000704,0,0,250,73.424896,5.672666,0.000000,129.361845,9902.097076,138.911646,0.000000,2.660009,4.900000,500.000000,1708343570690300,1,0,0,-1993864,-72.324196,35.910000,-0.844201
3.000704,0,0,250,73.424896,5.672666,0.000000,129.361845,9902.097076,138.911646,0.000000,2.660009,4.900000,500.000000,1708343570690300,2,0,0,-2134279,-57.508457,35.910000,-0.844110
3.000704,0,0,250,73.424896,5.672666,0.000000,129.361845,9902.097076,138.911646,0.000000,2.660009,4.900000,500.000000,1708343570690300,3,0,0,2134352,72.324196,35.910000,0.844702
3.000704,0,0,250,73.424896,5.672666,0.000000,129.361845,9902.097076,138.911646,0.000000,2.660009,4.900000,500.000000,1708343570690300,4,0,0,1994057,58.093288,35.910000,0.844175
3.000704,0,0,250,73.424896,5.672666,0.000000,129.361845,9902.097076,138.911646,0.000000,2.660009,4.900000,500.000000,1708343570860162,1,0,0,-1994616,-54.737926,35.910000,-0.844206
3.000704,0,0,250,73.424896,5.672666,0.000000,129.361845,9902.097076,138.911646,0.000000,2.660009,4.900000,500.000000,1708343570860162,2,0,0,-2135104,-72.036057,35.910000,-0.844794
3.000704,0,0,250,73.424896,5.672666,0.000000,129.361845,9902.097076,138.911646,0.000000,2.660009,4.900000,500.000000,1708343570860162,3,0,0,2135104,72.036057,35.910000,0.844720
3.000704,0,0,250,73.424896,5.672666,0.000000,129.361845,9902.097076,138.911646,0.000000,2.660009,4.900000,500.000000,1708343570860162,4,0,0,1994882,72.036057,35.910000,0.844181
3.000704,0,0,250,73.424896,5.672666,0.000000,129.361845,9902.097076,138.911646,0.000000,2.660009,4.900000,500.000000,1708343571027703,1,0,0,-1995434,-83.843796,35.910000,-0.844224
3.000704,0,0,250,73.424896,5.672666,0.000000,129.361845,9902.097076,138.911646,0.000000,2.660009,4.900000,500.000000,1708343571027703,2,0,0,-2135849,-83.843796,35.910000,-0.844593
3.000704,0,0,250,73.424896,5.672666,0.000000,129.361845,9902.097076,138.911646,0.000000,2.660009,4.900000,500.000000,1708343571027703,3,0,0,2135849,60.120552,35.910000,0.844593
3.000704,0,0,250,73.424896,5.672666,0.000000,129.361845,9902.097076,138.911646,0.000000,2.660009,4.900000,500.000000,1708343571027703,4,0,0,1995627,83.843796,35.910000,0.844239
3.000704,0,0,250,73.424896,5.672666,0.000000,129.361845,9902.097076,138.911646,0.000000,2.660009,4.900000,500.000000,1708343571168377,1,0,0,-1996112,-65.357567,35.910000,-0.844597
3.000704,0,0,250,73.424896,5.672666,0.000000,129.361845,9902.097076,138.911646,0.000000,2.660009,4.900000,500.000000,1708343571168377,2,0,0,-2136604,-81.911957,35.910000,-0.844433
3.000704,0,0,250,73.424896,5.672666,0.000000,129.361845,9902.097076,138.911646,0.000000,2.660009,4.900000,500.000000,1708343571168377,3,0,0,2136604,81.911957,35.910000,0.844433
3.000704,0,0,250,73.424896,5.672666,0.000000,129.361845,9902.097076,138.911646,0.000000,2.660009,4.900000,500.000000,1708343571168377,4,0,0,1996305,65.357567,35.910000,0.844538
3.000704,0,0,250,73.424896,5.672666,0.000000,129.361845,9902.097076,138.911646,0.000000,2.660009,4.900000,500.000000,1708343571292673,1,0,0,-1996781,-63.250645,35.910000,-0.844417
3.000704,0,0,250,73.424896,5.672666,0.000000,129.361845,9902.097076,138.911646,0.000000,2.660009,4.900000,500.000000,1708343571292673,2,0,0,-2137196,-63.250645,35.910000,-0.844519
3.000704,0,0,250,73.424896,5.672666,0.000000,129.361845,9902.097076,138.911646,0.000000,2.660009,4.900000,500.000000,1708343571292673,3,0,0,2137196,63.250645,35.910000,0.844284
3.000704,0,0,250,73.424896,5.672666,0.000000,129.361845,9902.097076,138.911646,0.000000,2.660009,4.900000,500.000000,1708343571292673,4,0,0,1996974,63.250645,35.910000,0.844519
3.000704,0,0,250,73.424896,5.672666,0.000000,129.361845,9902.097076,138.911646,0.000000,2.660009,4.900000,500.000000,1708343571416311,1,0,0,-1997375,-63.647724,35.910000,-0.844279
3.000704,0,0,250,73.424896,5.672666,0.000000,129.361845,9902.097076,138.911646,0.000000,2.660009,4.900000,500.000000,1708343571416311,2,0,0,-2137790,-63.647724,35.910000,-0.844279
3.000704,0,0,250,73.424896,5.672666,0.000000,129.361845,9902.097076,138.911646,0.000000,2.660009,4.900000,500.000000,1708343571416311,3,0,0,2137790,63.647724,35.910000,0.851673
3.000704,0,0,250,73.424896,5.672666,0.000000,129.361845,9902.097076,138.911646,0.000000,2.660009,4.900000,500.000000,1708343571416311,4,0,0,1997568,63.647724,35.910000,0.844279
4.334191,0,0,250,70.280608,2.275280,0.000000,247.710594,9908.348981,138.911646,0.000000,2.800009,4.725000,500.000000,1708343571559571,1,0,0,-1997963,-61.561909,35.910000,-0.844384
4.334191,0,0,250,70.280608,2.275280,0.000000,247.710594,9908.348981,138.911646,0.000000,2.800009,4.725000,500.000000,1708343571559571,2,0,0,-2138452,-77.004562,35.910000,-0.844033
4.334191,0,0,250,70.280608,2.275280,0.000000,247.710594,9908.348981,138.911646,0.000000,2.800009,4.725000,500.000000,1708343571559571,3,0,0,2138452,77.004562,35.910000,0.844033
4.334191,0,0,250,70.280608,2.275280,0.000000,247.710594,9908.348981,138.911646,0.000000,2.800009,4.725000,500.000000,1708343571559571,4,0,0,1998156,61.561909,35.910000,0.851494
4.334191,0,0,250,70.280608,2.275280,0.000000,247.710594,9908.348981,138.911646,0.000000,2.800009,4.725000,500.000000,1708343571695575,1,0,0,-1998618,-63.124390,35.910000,-0.844324
4.334191,0,0,250,70.280608,2.275280,0.000000,247.710594,9908.348981,138.911646,0.000000,2.800009,4.725000,500.000000,1708343571695575,2,0,0,-2139107,-79.176636,35.910000,-0.844334
4.334191,0,0,250,70.280608,2.275280,0.000000,247.710594,9908.348981,138.911646,0.000000,2.800009,4.725000,500.000000,1708343571695575,3,0,0,2139107,79.176636,35.910000,0.844334
4.334191,0,0,250,70.280608,2.275280,0.000000,247.710594,9908.348981,138.911646,0.000000,2.800009,4.725000,500.000000,1708343571695575,4,0,0,1998885,79.176636,35.910000,0.844238
4.334191,0,0,250,70.280608,2.275280,0.000000,247.710594,9908.348981,138.911646,0.000000,2.800009,4.725000,500.000000,1708343571824584,1,0,0,-1999209,-57.917694,35.910000,-0.844291
4.334191,0,0,250,70.280608,2.275280,0.000000,247.710594,9908.348981,138.911646,0.000000,2.800009,4.725000,500.000000,1708343571824584,2,0,0,-2139698,-77.399101,35.910000,-0.844397
4.334191,0,0,250,70.280608,2.275280,0.000000,247.710594,9908.348981,138.911646,0.000000,2.800009,4.725000,500.000000,1708343571824584,3,0,0,2139698,77.399101,35.910000,0.844397
4.334191,0,0,250,70.280608,2.275280,0.000000,247.710594,9908.348981,138.911646,0.000000,2.800009,4.725000,500.000000,1708343571824584,4,0,0,1999476,77.399101,35.910000,0.844344
4.334191,0,0,250,70.280608,2.275280,0.000000,247.710594,9908.348981,138.911646,0.000000,2.800009,4.725000,500.000000,1708343571952339,1,0,0,-1999966,-78.364159,35.910000,-0.844636
4.334191,0,0,250,70.280608,2.275280,0.000000,247.710594,9908.348981,138.911646,0.000000,2.800009,4.725000,500.000000,1708343571952339,2,0,0,-2140381,-78.364159,35.910000,-0.844430
4.334191,0,0,250,70.280608,2.275280,0.000000,247.710594,9908.348981,138.911646,0.000000,2.800009,4.725000,500.000000,1708343571952339,3,0,0,2140381,63.644962,35.910000,0.844144
4.334191,0,0,250,70.280608,2.275280,0.000000,247.710594,9908.348981,138.911646,0.000000,2.800009,4.725000,500.000000,1708343571952339,4,0,0,2000159,78.364159,35.910000,0.844381
4.334191,0,0,250,70.280608,2.275280,0.000000,247.710594,9908.348981,138.911646,0.000000,2.800009,4.725000,500.000000,1708343572078198,1,0,0,-2000557,-78.374672,35.910000,-0.844648
4.334191,0,0,250,70.280608,2.275280,0.000000,247.710594,9908.348981,138.911646,0.000000,2.800009,4.725000,500.000000,1708343572078198,2,0,0,-2140972,-78.374672,35.910000,-0.844413
4.334191,0,0,250,70.280608,2.275280,0.000000,247.710594,9908.348981,138.911646,0.000000,2.800009,4.725000,500.000000,1708343572078198,3,0,0,2140972,62.911560,35.910000,0.844479
4.334191,0,0,250,70.280608,2.275280,0.000000,247.710594,9908.348981,138.911646,0.000000,2.800009,4.725000,500.000000,1708343572078198,4,0,0,2000750,78.374672,35.910000,0.844417
4.334191,0,0,250,70.280608,2.275280,0.000000,247.710594,9908.348981,138.911646,0.000000,2.800009,4.725000,500.000000,1708343572211823,1,0,0,-2001160,-68.947472,35.910000,-0.844281
4.334191,0,0,250,70.280608,2.275280,0.000000,247.710594,9908.348981,138.911646,0.000000,2.800009,4.725000,500.000000,1708343572211823,2,0,0,-2141575,-68.947472,35.910000,-0.844127
4.334191,0,0,250,70.280608,2.275280,0.000000,247.710594,9908.348981,138.911646,0.000000,2.800009,4.725000,500.000000,1708343572211823,3,0,0,2141575,68.947472,35.910000,0.844198
4.334191,0,0,250,70.280608,2.275280,0.000000,247.710594,9908.348981,138.911646,0.000000,2.800009,4.725000,500.000000,1708343572211823,4,0,0,2001353,68.947472,35.910000,0.844127
4.334191,0,0,250,70.280608,2.275280,0.000000,247.710594,9908.348981,138.911646,0.000000,2.800009,4.725000,500.000000,1708343572352212,1,0,0,-2001761,-58.242069,35.910000,-0.844552
4.334191,0,0,250,70.280608,2.275280,0.000000,247.710594,9908.348981,138.911646,0.000000,2.800009,4.725000,500.000000,1708343572352212,2,0,0,-2142176,-58.242069,35.910000,-0.844552
4.334191,0,0,250,70.280608,2.275280,0.000000,247.710594,9908.348981,138.911646,0.000000,2.800009,4.725000,500.000000,1708343572352212,3,0,0,2142176,58.242069,35.910000,0.851667
4.334191,0,0,250,70.280608,2.275280,0.000000,247.710594,9908.348981,138.911646,0.000000,2.800009,4.725000,500.000000,1708343572352212,4,0,0,2001954,58.242069,35.910000,0.844552
4.334191,0,0,250,70.280608,2.275280,0.000000,247.710594,9908.348981,138.911646,0.000000,2.800009,4.725000,500.000000,1708343572488922,1,0,0,-2002360,-58.206726,35.910000,-0.844575
4.334191,0,0,250,70.280608,2.275280,0.000000,247.710594,9908.348981,138.911646,0.000000,2.800009,4.725000,500.000000,1708343572488922,2,0,0,-2142851,-77.608971,35.910000,-0.844198
4.334191,0,0,250,70.280608,2.275280,0.000000,247.710594,9908.348981,138.911646,0.000000,2.800009,4.725000,500.000000,1708343572488922,3,0,0,2142851,77.608971,35.910000,0.844198
4.334191,0,0,250,70.280608,2.275280,0.000000,247.710594,9908.348981,138.911646,0.000000,2.800009,4.725000,500.000000,1708343572488922,4,0,0,2002553,58.206726,35.910000,0.844498
4.334191,0,0,250,70.280608,2.275280,0.000000,247.710594,9908.348981,138.911646,0.000000,2.800009,4.725000,500.000000,1708343572631987,1,0,0,-2003110,-76.332535,35.910000,-0.844412
4.334191,0,0,250,70.280608,2.275280,0.000000,247.710594,9908.348981,138.911646,0.000000,2.800009,4.725000,500.000000,1708343572631987,2,0,0,-2143525,-61.229305,35.910000,-0.843969
4.334191,0,0,250,70.280608,2.275280,0.000000,247.710594,9908.348981,138.911646,0.000000,2.800009,4.725000,500.000000,1708343572631987,3,0,0,2143525,61.229305,35.910000,0.844439
4.334191,0,0,250,70.280608,2.275280,0.000000,247.710594,9908.348981,138.911646,0.000000,2.800009,4.725000,500.000000,1708343572631987,4,0,0,2003303,61.229305,35.910000,0.843969
4.334191,0,0,250,70.280608,2.275280,0.000000,247.710594,9908.348981,138.911646,0.000000,2.800009,4.725000,500.000000,1708343572756328,1,0,0,-2003780,-81.148682,35.910000,-0.844388
4.334191,0,0,250,70.280608,2.275280,0.000000,247.710594,9908.348981,138.911646,0.000000,2.800009,4.725000,500.000000,1708343572756328,2,0,0,-2144195,-65.177933,35.910000,-0.844377
4.334191,0,0,250,70.280608,2.275280,0.000000,247.710594,9908.348981,138.911646,0.000000,2.800009,4.725000,500.000000,1708343572756328,3,0,0,2144195,65.177933,35.910000,0.844417
4.334191,0,0,250,70.280608,2.275280,0.000000,247.710594,9908.348981,138.911646,0.000000,2.800009,4.725000,500.000000,1708343572756328,4,0,0,2003973,65.177933,35.910000,0.844388
5.692301,0,0,250,71.973522,8.557226,0.000000,337.226726,9915.899166,138.911646,0.000000,2.730009,4.725000,500.000000,1708343572885456,1,0,0,-2004383,-77.712044,35.910000,-0.845048
5.692301,0,0,250,71.973522,8.557226,0.000000,337.226726,9915.899166,138.911646,0.000000,2.730009,4.725000,500.000000,1708343572885456,2,0,0,-2144798,-77.712044,35.910000,-0.844416
5.692301,0,0,250,71.973522,8.557226,0.000000,337.226726,9915.899166,138.911646,0.000000,2.730009,4.725000,500.000000,1708343572885456,3,0,0,2144798,77.712044,35.910000,0.844572
5.692301,0,0,250,71.973522,8.557226,0.000000,337.226726,9915.899166,138.911646,0.000000,2.730009,4.725000,500.000000,1708343572885456,4,0,0,2004576,77.712044,35.910000,0.845048
5.692301,0,0,250,71.973522,8.557226,0.000000,337.226726,9915.899166,138.911646,0.000000,2.730009,4.725000,500.000000,1708343573041307,1,0,0,-2004982,-68.993401,35.910000,-0.844560
5.692301,0,0,250,71.973522,8.557226,0.000000,337.226726,9915.899166,138.911646,0.000000,2.730009,4.725000,500.000000,1708343573041307,2,0,0,-2145473,-68.993401,35.910000,-0.844345
5.692301,0,0,250,71.973522,8.557226,0.000000,337.226726,9915.899166,138.911646,0.000000,2.730009,4.725000,500.000000,1708343573041307,3,0,0,2145473,68.993401,35.910000,0.844510
5.692301,0,0,250,71.973522,8.557226,0.000000,337.226726,9915.899166,138.911646,0.000000,2.730009,4.725000,500.000000,1708343573041307,4,0,0,2005251,68.993401,35.910000,0.844067
5.692301,0,0,250,71.973522,8.557226,0.000000,337.226726,9915.899166,138.911646,0.000000,2.730009,4.725000,500.000000,1708343573183556,1,0,0,-2005793,-69.703644,35.910000,-0.844000
5.692301,0,0,250,71.973522,8.557226,0.000000,337.226726,9915.899166,138.911646,0.000000,2.730009,4.725000,500.000000,1708343573183556,2,0,0,-2146208,-69.703644,35.910000,-0.844808
5.692301,0,0,250,71.973522,8.557226,0.000000,337.226726,9915.899166,138.911646,0.000000,2.730009,4.725000,500.000000,1708343573183556,3,0,0,2146208,69.703644,35.910000,0.844724
5.692301,0,0,250,71.973522,8.557226,0.000000,337.226726,9915.899166,138.911646,0.000000,2.730009,4.725000,500.000000,1708343573183556,4,0,0,2005986,69.703644,35.910000,0.844000
5.692301,0,0,250,71.973522,8.557226,0.000000,337.226726,9915.899166,138.911646,0.000000,2.730009,4.725000,500.000000,1708343573318584,1,0,0,-2006397,-59.095947,35.910000,-0.844164
5.692301,0,0,250,71.973522,8.557226,0.000000,337.226726,9915.899166,138.911646,0.000000,2.730009,4.725000,500.000000,1708343573318584,2,0,0,-2146884,-73.374161,35.910000,-0.844380
5.692301,0,0,250,71.973522,8.557226,0.000000,337.226726,9915.899166,138.911646,0.000000,2.730009,4.725000,500.000000,1708343573318584,3,0,0,2146884,73.374161,35.910000,0.844413
5.692301,0,0,250,71.973522,8.557226,0.000000,337.226726,9915.899166,138.911646,0.000000,2.730009,4.725000,500.000000,1708343573318584,4,0,0,2006662,73.374161,35.910000,0.844165
5.692301,0,0,250,71.973522,8.557226,0.000000,337.226726,9915.899166,138.911646,0.000000,2.730009,4.725000,500.000000,1708343573458411,1,0,0,-2007064,-76.216011,35.910000,-0.844349
5.692301,0,0,250,71.973522,8.557226,0.000000,337.226726,9915.899166,138.911646,0.000000,2.730009,4.725000,500.000000,1708343573458411,2,0,0,-2147479,-76.216011,35.910000,-0.844553
5.692301,0,0,250,71.973522,8.557226,0.000000,337.226726,9915.899166,138.911646,0.000000,2.730009,4.725000,500.000000,1708343573458411,3,0,0,2147479,76.216011,35.910000,0.844434
5.692301,0,0,250,71.973522,8.557226,0.000000,337.226726,9915.899166,138.911646,0.000000,2.730009,4.725000,500.000000,1708343573458411,4,0,0,2007257,76.216011,35.910000,0.844349
5.692301,0,0,250,71.973522,8.557226,0.000000,337.226726,9915.899166,138.911646,0.000000,2.730009,4.725000,500.000000,1708343573586080,1,0,0,-2007744,-79.830856,35.910000,-0.844592
5.692301,0,0,250,71.973522,8.557226,0.000000,337.226726,9915.899166,138.911646,0.000000,2.730009,4.725000,500.000000,1708343573586080,2,0,0,-2148159,-79.830856,35.910000,-0.844616
5.692301,0,0,250,71.973522,8.557226,0.000000,337.226726,9915.899166,138.911646,0.000000,2.730009,4.725000,500.000000,1708343573586080,3,0,0,2148159,79.830856,35.910000,0.844616
5.692301,0,0,250,71.973522,8.557226,0.000000,337.226726,9915.899166,138.911646,0.000000,2.730009,4.725000,500.000000,1708343573586080,4,0,0,2007937,79.830856,35.910000,0.844752
5.692301,0,0,250,71.973522,8.557226,0.000000,337.226726,9915.899166,138.911646,0.000000,2.730009,4.725000,500.000000,1708343573711406,1,0,0,-2008350,-79.135925,35.910000,-0.844622
5.692301,0,0,250,71.973522,8.557226,0.000000,337.226726,9915.899166,138.911646,0.000000,2.730009,4.725000,500.000000,1708343573711406,2,0,0,-2148766,-79.345833,35.910000,-0.844378
5.692301,0,0,250,71.973522,8.557226,0.000000,337.226726,9915.899166,138.911646,0.000000,2.730009,4.725000,500.000000,1708343573711406,3,0,0,2148766,79.345833,35.910000,0.844322
5.692301,0,0,250,71.973522,8.557226,0.000000,337.226726,9915.899166,138.911646,0.000000,2.730009,4.725000,500.000000,1708343573711406,4,0,0,2008543,79.135925,35.910000,0.844108
5.692301,0,0,250,71.973522,8.557226,0.000000,337.226726,9915.899166,138.911646,0.000000,2.730009,4.725000,500.000000,1708343573838086,1,0,0,-2008947,-79.005386,35.910000,-0.844538
5.692301,0,0,250,71.973522,8.557226,0.000000,337.226726,9915.899166,138.911646,0.000000,2.730009,4.725000,500.000000,1708343573838086,2,0,0,-2149363,-79.005386,35.910000,-0.844724
5.692301,0,0,250,71.973522,8.557226,0.000000,337.226726,9915.899166,138.911646,0.000000,2.730009,4.725000,500.000000,1708343573838086,3,0,0,2149363,79.005386,35.910000,0.844724
5.692301,0,0,250,71.973522,8.557226,0.000000,337.226726,9915.899166,138.911646,0.000000,2.730009,4.725000,500.000000,1708343573838086,4,0,0,2009140,79.005386,35.910000,0.844188
5.692301,0,0,250,71.973522,8.557226,0.000000,337.226726,9915.899166,138.911646,0.000000,2.730009,4.725000,500.000000,1708343573965033,1,0,0,-2009482,-64.503532,35.910000,-0.844746
5.692301,0,0,250,71.973522,8.557226,0.000000,337.226726,9915.899166,138.911646,0.000000,2.730009,4.725000,500.000000,1708343573965033,2,0,0,-2149976,-80.892052,35.910000,-0.844302
5.692301,0,0,250,71.973522,8.557226,0.000000,337.226726,9915.899166,138.911646,0.000000,2.730009,4.725000,500.000000,1708343573965033,3,0,0,2149976,80.892052,35.910000,0.844302
5.692301,0,0,250,71.973522,8.557226,0.000000,337.226726,9915.899166,138.911646,0.000000,2.730009,4.725000,500.000000,1708343573965033,4,0,0,2009753,80.892052,35.910000,0.844523
5.692301,0,0,250,71.973522,8.557226,0.000000,337.226726,9915.899166,138.911646,0.000000,2.730009,4.725000,500.000000,1708343574091196,1,0,0,-2010085,-57.917938,35.910000,-0.844501
5.692301,0,0,250,71.973522,8.557226,0.000000,337.226726,9915.899166,138.911646,0.000000,2.730009,4.725000,500.000000,1708343574091196,2,0,0,-2150576,-77.484810,35.910000,-0.844746
5.692301,0,0,250,71.973522,8.557226,0.000000,337.226726,9915.899166,138.911646,0.000000,2.730009,4.725000,500.000000,1708343574091196,3,0,0,2150576,77.484810,35.910000,0.844746
5.692301,0,0,250,71.973522,8.557226,0.000000,337.226726,9915.899166,138.911646,0.000000,2.730009,4.725000,500.000000,1708343574091196,4,0,0,2010353,77.484810,35.910000,0.844337
6.983940,0,0,0,695.217717,-81.684309,0.000000,613.009451,9883.748112,139.112746,0.000000,5.179917,354.575000,700.000000,1708343574232528,1,0,0,-2010752,-72.554649,35.910000,-0.844603
6.983940,0,0,0,695.217717,-81.684309,0.000000,613.009451,9883.748112,139.112746,0.000000,5.179917,354.575000,700.000000,1708343574232528,2,0,0,-2151168,-72.554649,35.910000,-0.844451
6.983940,0,0,0,695.217717,-81.684309,0.000000,613.009451,9883.748112,139.112746,0.000000,5.179917,354.575000,700.000000,1708343574232528,3,0,0,2151168,72.554649,35.910000,0.844369
6.983940,0,0,0,695.217717,-81.684309,0.000000,613.009451,9883.748112,139.112746,0.000000,5.179917,354.575000,700.000000,1708343574232528,4,0,0,2010945,72.554649,35.910000,0.844603
6.983940,0,0,0,695.217717,-81.684309,0.000000,613.009451,9883.748112,139.112746,0.000000,5.179917,354.575000,700.000000,1708343574360402,1,0,0,-2011351,-75.549088,35.910000,-0.844487
6.983940,0,0,0,695.217717,-81.684309,0.000000,613.009451,9883.748112,139.112746,0.000000,5.179917,354.575000,700.000000,1708343574360402,2,0,0,-2151767,-75.549088,35.910000,-0.844528
6.983940,0,0,0,695.217717,-81.684309,0.000000,613.009451,9883.748112,139.112746,0.000000,5.179917,354.575000,700.000000,1708343574360402,3,0,0,2151767,56.851318,35.910000,0.844574
6.983940,0,0,0,695.217717,-81.684309,0.000000,613.009451,9883.748112,139.112746,0.000000,5.179917,354.575000,700.000000,1708343574360402,4,0,0,2011544,75.549088,35.910000,0.844487
6.983940,0,0,0,695.217717,-81.684309,0.000000,613.009451,9883.748112,139.112746,0.000000,5.179917,354.575000,700.000000,1708343574487862,1,0,0,-2012019,-76.429092,35.910000,-0.844179
6.983940,0,0,0,695.217717,-81.684309,0.000000,613.009451,9883.748112,139.112746,0.000000,5.179917,354.575000,700.000000,1708343574487862,2,0,0,-2152435,-76.429092,35.910000,-0.844551
6.983940,0,0,0,695.217717,-81.684309,0.000000,613.009451,9883.748112,139.112746,0.000000,5.179917,354.575000,700.000000,1708343574487862,3,0,0,2152435,60.601814,35.910000,0.844478
6.983940,0,0,0,695.217717,-81.684309,0.000000,613.009451,9883.748112,139.112746,0.000000,5.179917,354.575000,700.000000,1708343574487862,4,0,0,2012212,76.429092,35.910000,0.844179
6.983940,0,0,0,695.217717,-81.684309,0.000000,613.009451,9883.748112,139.112746,0.000000,5.179917,354.575000,700.000000,1708343574616108,1,0,0,-2012615,-76.389519,35.910000,-0.844336
6.983940,0,0,0,695.217717,-81.684309,0.000000,613.009451,9883.748112,139.112746,0.000000,5.179917,354.575000,700.000000,1708343574616108,2,0,0,-2153031,-61.439289,35.910000,-0.844599
6.983940,0,0,0,695.217717,-81.684309,0.000000,613.009451,9883.748112,139.112746,0.000000,5.179917,354.575000,700.000000,1708343574616108,3,0,0,2153031,61.439289,35.910000,0.844108
6.983940,0,0,0,695.217717,-81.684309,0.000000,613.009451,9883.748112,139.112746,0.000000,5.179917,354.575000,700.000000,1708343574616108,4,0,0,2012808,61.439289,35.910000,0.844599
6.983940,0,0,0,695.217717,-81.684309,0.000000,613.009451,9883.748112,139.112746,0.000000,5.179917,354.575000,700.000000,1708343574744112,1,0,0,-2013205,-60.559788,35.910000,-0.844690
6.983940,0,0,0,695.217717,-81.684309,0.000000,613.009451,9883.748112,139.112746,0.000000,5.179917,354.575000,700.000000,1708343574744112,2,0,0,-2153621,-60.559788,35.910000,-0.844518
6.983940,0,0,0,695.217717,-81.684309,0.000000,613.009451,9883.748112,139.112746,0.000000,5.179917,354.575000,700.000000,1708343574744112,3,0,0,2153698,76.529320,35.910000,0.844482
6.983940,0,0,0,695.217717,-81.684309,0.000000,613.009451,9883.748112,139.112746,0.000000,5.179917,354.575000,700.000000,1708343574744112,4,0,0,2013398,60.559788,35.910000,0.844518
6.983940,0,0,0,695.217717,-81.684309,0.000000,613.009451,9883.748112,139.112746,0.000000,5.179917,354.575000,700.000000,1708343574893657,1,0,0,-2013797,-60.194592,35.910000,-0.844435
6.983940,0,0,0,695.217717,-81.684309,0.000000,613.009451,9883.748112,139.112746,0.000000,5.179917,354.575000,700.000000,1708343574893657,2,0,0,-2154288,-75.870270,35.910000,-0.844315
6.983940,0,0,0,695.217717,-81.684309,0.000000,613.009451,9883.748112,139.112746,0.000000,5.179917,354.575000,700.000000,1708343574893657,3,0,0,2154288,75.870270,35.910000,0.844315
6.983940,0,0,0,695.217717,-81.684309,0.000000,613.009451,9883.748112,139.112746,0.000000,5.179917,354.575000,700.000000,1708343574893657,4,0,0,2014065,75.870270,35.910000,0.844506
6.983940,0,0,0,695.217717,-81.684309,0.000000,613.009451,9883.748112,139.112746,0.000000,5.179917,354.575000,700.000000,1708343575035632,1,0,0,-2014622,-66.047523,35.910000,-0.844587
6.983940,0,0,0,695.217717,-81.684309,0.000000,613.009451,9883.748112,139.112746,0.000000,5.179917,354.575000,700.000000,1708343575035632,2,0,0,-2155038,-66.047523,35.910000,-0.844616
6.983940,0,0,0,695.217717,-81.684309,0.000000,613.009451,9883.748112,139.112746,0.000000,5.179917,354.575000,700.000000,1708343575035632,3,0,0,2155038,66.047523,35.910000,0.844318
6.983940,0,0,0,695.217717,-81.684309,0.000000,613.009451,9883.748112,139.112746,0.000000,5.179917,354.575000,700.000000,1708343575035632,4,0,0,2014815,66.047523,35.910000,0.844587
6.983940,0,0,0,695.217717,-81.684309,0.000000,613.009451,9883.748112,139.112746,0.000000,5.179917,354.575000,700.000000,1708343575163698,1,0,0,-2015231,-79.019730,35.910000,-0.844569
6.983940,0,0,0,695.217717,-81.684309,0.000000,613.009451,9883.748112,139.112746,0.000000,5.179917,354.575000,700.000000,1708343575163698,2,0,0,-2155647,-63.091667,35.910000,-0.844725
6.983940,0,0,0,695.217717,-81.684309,0.000000,613.009451,9883.748112,139.112746,0.000000,5.179917,354.575000,700.000000,1708343575163698,3,0,0,2155647,63.091667,35.910000,0.844398
6.983940,0,0,0,695.217717,-81.684309,0.000000,613.009451,9883.748112,139.112746,0.000000,5.179917,354.575000,700.000000,1708343575163698,4,0,0,2015424,63.091667,35.910000,0.844569
6.983940,0,0,0,695.217717,-81.684309,0.000000,613.009451,9883.748112,139.112746,0.000000,5.179917,354.575000,700.000000,1708343575305993,1,0,0,-2015838,-79.178146,35.910000,-0.844708
6.983940,0,0,0,695.217717,-81.684309,0.000000,613.009451,9883.748112,139.112746,0.000000,5.179917,354.575000,700.000000,1708343575305993,2,0,0,-2156254,-63.091820,35.910000,-0.844526
6.983940,0,0,0,695.217717,-81.684309,0.000000,613.009451,9883.748112,139.112746,0.000000,5.179917,354.575000,700.000000,1708343575305993,3,0,0,2156254,63.091820,35.910000,0.844540
6.983940,0,0,0,695.217717,-81.684309,0.000000,613.009451,9883.748112,139.112746,0.000000,5.179917,354.575000,700.000000,1708343575305993,4,0,0,2016031,63.091820,35.910000,0.844708
6.983940,0,0,0,695.217717,-81.684309,0.000000,613.009451,9883.748112,139.112746,0.000000,5.179917,354.575000,700.000000,1708343575445514,1,0,0,-2016600,-79.600113,35.910000,-0.844550
6.983940,0,0,0,695.217717,-81.684309,0.000000,613.009451,9883.748112,139.112746,0.000000,5.179917,354.575000,700.000000,1708343575445514,2,0,0,-2157016,-79.600113,35.910000,-0.844533
6.983940,0,0,0,695.217717,-81.684309,0.000000,613.009451,9883.748112,139.112746,0.000000,5.179917,354.575000,700.000000,1708343575445514,3,0,0,2157016,79.600113,35.910000,0.844533
6.983940,0,0,0,695.217717,-81.684309,0.000000,613.009451,9883.748112,139.112746,0.000000,5.179917,354.575000,700.000000,1708343575445514,4,0,0,2016793,79.600113,35.910000,0.844572
8.395218,0,0,0,690.242453,116.470406,0.000000,1589.219151,9902.043867,139.074411,0.000000,4.549917,358.600000,700.000000,1708343575584243,1,0,0,-2017203,-70.661362,35.910000,-0.843872
8.395218,0,0,0,690.242453,116.470406,0.000000,1589.219151,9902.043867,139.074411,0.000000,4.549917,358.600000,700.000000,1708343575584243,2,0,0,-2157619,-70.661362,35.910000,-0.844360
8.395218,0,0,0,690.242453,116.470406,0.000000,1589.219151,9902.043867,139.074411,0.000000,4.549917,358.600000,700.000000,1708343575584243,3,0,0,2157619,70.661362,35.910000,0.844917
8.395218,0,0,0,690.242453,116.470406,0.000000,1589.219151,9902.043867,139.074411,0.000000,4.549917,358.600000,700.000000,1708343575584243,4,0,0,2017396,70.661362,35.910000,0.844360
8.395218,0,0,0,690.242453,116.470406,0.000000,1589.219151,9902.043867,139.074411,0.000000,4.549917,358.600000,700.000000,1708343575717011,1,0,0,-2017883,-74.534706,35.910000,-0.843331
8.395218,0,0,0,690.242453,116.470406,0.000000,1589.219151,9902.043867,139.074411,0.000000,4.549917,358.600000,700.000000,1708343575717011,2,0,0,-2158299,-74.534706,35.910000,-0.844210
8.395218,0,0,0,690.242453,116.470406,0.000000,1589.219151,9902.043867,139.074411,0.000000,4.549917,358.600000,700.000000,1708343575717011,3,0,0,2158299,74.534706,35.910000,0.844486
8.395218,0,0,0,690.242453,116.470406,0.000000,1589.219151,9902.043867,139.074411,0.000000,4.549917,358.600000,700.000000,1708343575717011,4,0,0,2018076,74.534706,35.910000,0.843331
8.395218,0,0,0,690.242453,116.470406,0.000000,1589.219151,9902.043867,139.074411,0.000000,4.549917,358.600000,700.000000,1708343575844614,1,0,0,-2018472,-77.814629,35.910000,-0.844592
8.395218,0,0,0,690.242453,116.470406,0.000000,1589.219151,9902.043867,139.074411,0.000000,4.549917,358.600000,700.000000,1708343575844614,2,0,0,-2158888,-77.814629,35.910000,-0.844511
8.395218,0,0,0,690.242453,116.470406,0.000000,1589.219151,9902.043867,139.074411,0.000000,4.549917,358.600000,700.000000,1708343575844614,3,0,0,2158888,57.526329,35.910000,0.844412
8.395218,0,0,0,690.242453,116.470406,0.000000,1589.219151,9902.043867,139.074411,0.000000,4.549917,358.600000,700.000000,1708343575844614,4,0,0,2018665,77.814629,35.910000,0.844592
8.395218,0,0,0,690.242453,116.470406,0.000000,1589.219151,9902.043867,139.074411,0.000000,4.549917,358.600000,700.000000,1708343575985237,1,0,0,-2019083,-78.256920,35.910000,-0.844445
8.395218,0,0,0,690.242453,116.470406,0.000000,1589.219151,9902.043867,139.074411,0.000000,4.549917,358.600000,700.000000,1708343575985237,2,0,0,-2159498,-78.000336,35.910000,-0.844276
8.395218,0,0,0,690.242453,116.470406,0.000000,1589.219151,9902.043867,139.074411,0.000000,4.549917,358.600000,700.000000,1708343575985237,3,0,0,2159498,57.987091,35.910000,0.844735
8.395218,0,0,0,690.242453,116.470406,0.000000,1589.219151,9902.043867,139.074411,0.000000,4.549917,358.600000,700.000000,1708343575985237,4,0,0,2019275,78.000336,35.910000,0.844555
8.395218,0,0,0,690.242453,116.470406,0.000000,1589.219151,9902.043867,139.074411,0.000000,4.549917,358.600000,700.000000,1708343576112511,1,0,0,-2019686,-77.348152,35.910000,-0.844251
8.395218,0,0,0,690.242453,116.470406,0.000000,1589.219151,9902.043867,139.074411,0.000000,4.549917,358.600000,700.000000,1708343576112511,2,0,0,-2160102,-57.692020,35.910000,-0.844220
8.395218,0,0,0,690.242453,116.470406,0.000000,1589.219151,9902.043867,139.074411,0.000000,4.549917,358.600000,700.000000,1708343576112511,3,0,0,2160102,57.692020,35.910000,0.844458
8.395218,0,0,0,690.242453,116.470406,0.000000,1589.219151,9902.043867,139.074411,0.000000,4.549917,358.600000,700.000000,1708343576112511,4,0,0,2019879,77.348152,35.910000,0.844220
8.395218,0,0,0,690.242453,116.470406,0.000000,1589.219151,9902.043867,139.074411,0.000000,4.549917,358.600000,700.000000,1708343576258590,1,0,0,-2020425,-72.387604,35.910000,-0.844247
8.395218,0,0,0,690.242453,116.470406,0.000000,1589.219151,9902.043867,139.074411,0.000000,4.549917,358.600000,700.000000,1708343576258590,2,0,0,-2160841,-60.187450,35.910000,-0.844306
8.395218,0,0,0,690.242453,116.470406,0.000000,1589.219151,9902.043867,139.074411,0.000000,4.549917,358.600000,700.000000,1708343576258590,3,0,0,2160914,72.062271,35.910000,0.844479
8.395218,0,0,0,690.242453,116.470406,0.000000,1589.219151,9902.043867,139.074411,0.000000,4.549917,358.600000,700.000000,1708343576258590,4,0,0,2020618,60.187450,35.910000,0.844306
8.395218,0,0,0,690.242453,116.470406,0.000000,1589.219151,9902.043867,139.074411,0.000000,4.549917,358.600000,700.000000,1708343576386752,1,0,0,-2021025,-58.171547,35.910000,-0.844589
8.395218,0,0,0,690.242453,116.470406,0.000000,1589.219151,9902.043867,139.074411,0.000000,4.549917,358.600000,700.000000,1708343576386752,2,0,0,-2161441,-58.171547,35.910000,-0.844448
8.395218,0,0,0,690.242453,116.470406,0.000000,1589.219151,9902.043867,139.074411,0.000000,4.549917,358.600000,700.000000,1708343576386752,3,0,0,2161517,77.562065,35.910000,0.844624
8.395218,0,0,0,690.242453,116.470406,0.000000,1589.219151,9902.043867,139.074411,0.000000,4.549917,358.600000,700.000000,1708343576386752,4,0,0,2021218,58.171547,35.910000,0.844448
8.395218,0,0,0,690.242453,116.470406,0.000000,1589.219151,9902.043867,139.074411,0.000000,4.549917,358.600000,700.000000,1708343576528544,1,0,0,-2021631,-58.262756,35.910000,-0.844472
8.395218,0,0,0,690.242453,116.470406,0.000000,1589.219151,9902.043867,139.074411,0.000000,4.549917,358.600000,700.000000,1708343576528544,2,0,0,-2162122,-77.512566,35.910000,-0.844234
8.395218,0,0,0,690.242453,116.470406,0.000000,1589.219151,9902.043867,139.074411,0.000000,4.549917,358.600000,700.000000,1708343576528544,3,0,0,2162122,77.512566,35.910000,0.844234
8.395218,0,0,0,690.242453,116.470406,0.000000,1589.219151,9902.043867,139.074411,0.000000,4.549917,358.600000,700.000000,1708343576528544,4,0,0,2021824,58.262756,35.910000,0.844836
8.395218,0,0,0,690.242453,116.470406,0.000000,1589.219151,9902.043867,139.074411,0.000000,4.549917,358.600000,700.000000,1708343576656106,1,0,0,-2022308,-62.977757,35.910000,-0.844773
8.395218,0,0,0,690.242453,116.470406,0.000000,1589.219151,9902.043867,139.074411,0.000000,4.549917,358.600000,700.000000,1708343576656106,2,0,0,-2162724,-62.977757,35.910000,-0.844424
8.395218,0,0,0,690.242453,116.470406,0.000000,1589.219151,9902.043867,139.074411,0.000000,4.549917,358.600000,700.000000,1708343576656106,3,0,0,2162802,79.351974,35.910000,0.844424
8.395218,0,0,0,690.242453,116.470406,0.000000,1589.219151,9902.043867,139.074411,0.000000,4.549917,358.600000,700.000000,1708343576656106,4,0,0,2022501,62.977757,35.910000,0.844359
8.395218,0,0,0,690.242453,116.470406,0.000000,1589.219151,9902.043867,139.074411,0.000000,4.549917,358.600000,700.000000,1708343576783464,1,0,0,-2022915,-63.174351,35.910000,-0.844095
8.395218,0,0,0,690.242453,116.470406,0.000000,1589.219151,9902.043867,139.074411,0.000000,4.549917,358.600000,700.000000,1708343576783464,2,0,0,-2163402,-78.026596,35.910000,-0.844289
8.395218,0,0,0,690.242453,116.470406,0.000000,1589.219151,9902.043867,139.074411,0.000000,4.549917,358.600000,700.000000,1708343576783464,3,0,0,2163402,78.026596,35.910000,0.844289
8.395218,0,0,0,690.242453,116.470406,0.000000,1589.219151,9902.043867,139.074411,0.000000,4.549917,358.600000,700.000000,1708343576783464,4,0,0,2023108,63.174351,35.910000,0.844528
9.680267,0,0,0,699.809966,-16.309868,0.000000,2499.862939,9889.364509,139.074411,0.000000,4.549917,358.600000,700.000000,1708343576911804,1,0,0,-2023519,-63.976955,35.910000,-0.844465
9.680267,0,0,0,699.809966,-16.309868,0.000000,2499.862939,9889.364509,139.074411,0.000000,4.549917,358.600000,700.000000,1708343576911804,2,0,0,-2164010,-79.555756,35.910000,-0.844568
9.680267,0,0,0,699.809966,-16.309868,0.000000,2499.862939,9889.364509,139.074411,0.000000,4.549917,358.600000,700.000000,1708343576911804,3,0,0,2164010,79.555756,35.910000,0.844568
9.680267,0,0,0,699.809966,-16.309868,0.000000,2499.862939,9889.364509,139.074411,0.000000,4.549917,358.600000,700.000000,1708343576911804,4,0,0,2023712,63.976955,35.910000,0.844580
9.680267,0,0,0,699.809966,-16.309868,0.000000,2499.862939,9889.364509,139.074411,0.000000,4.549917,358.600000,700.000000,1708343577044107,1,0,0,-2024194,-71.760017,35.910000,-0.844179
9.680267,0,0,0,699.809966,-16.309868,0.000000,2499.862939,9889.364509,139.074411,0.000000,4.549917,358.600000,700.000000,1708343577044107,2,0,0,-2164610,-71.760017,35.910000,-0.844299
9.680267,0,0,0,699.809966,-16.309868,0.000000,2499.862939,9889.364509,139.074411,0.000000,4.549917,358.600000,700.000000,1708343577044107,3,0,0,2164611,71.952919,35.910000,0.844636
9.680267,0,0,0,699.809966,-16.309868,0.000000,2499.862939,9889.364509,139.074411,0.000000,4.549917,358.600000,700.000000,1708343577044107,4,0,0,2024388,71.952919,35.910000,0.844179
9.680267,0,0,0,699.809966,-16.309868,0.000000,2499.862939,9889.364509,139.074411,0.000000,4.549917,358.600000,700.000000,1708343577184080,1,0,0,-2024791,-76.607040,35.910000,-0.844587
9.680267,0,0,0,699.809966,-16.309868,0.000000,2499.862939,9889.364509,139.074411,0.000000,4.549917,358.600000,700.000000,1708343577184080,2,0,0,-2165206,-57.518909,35.910000,-0.844739
9.680267,0,0,0,699.809966,-16.309868,0.000000,2499.862939,9889.364509,139.074411,0.000000,4.549917,358.600000,700.000000,1708343577184080,3,0,0,2165207,57.518909,35.910000,0.844486
9.680267,0,0,0,699.809966,-16.309868,0.000000,2499.862939,9889.364509,139.074411,0.000000,4.549917,358.600000,700.000000,1708343577184080,4,0,0,2024985,76.607040,35.910000,0.844587
9.680267,0,0,0,699.809966,-16.309868,0.000000,2499.862939,9889.364509,139.074411,0.000000,4.549917,358.600000,700.000000,1708343577313167,1,0,0,-2025401,-77.822662,35.910000,-0.844578
9.680267,0,0,0,699.809966,-16.309868,0.000000,2499.862939,9889.364509,139.074411,0.000000,4.549917,358.600000,700.000000,1708343577313167,2,0,0,-2165817,-77.822662,35.910000,-0.844828
9.680267,0,0,0,699.809966,-16.309868,0.000000,2499.862939,9889.364509,139.074411,0.000000,4.549917,358.600000,700.000000,1708343577313167,3,0,0,2165818,57.985512,35.910000,0.844273
9.680267,0,0,0,699.809966,-16.309868,0.000000,2499.862939,9889.364509,139.074411,0.000000,4.549917,358.600000,700.000000,1708343577313167,4,0,0,2025595,77.822662,35.910000,0.844578
9.680267,0,0,0,699.809966,-16.309868,0.000000,2499.862939,9889.364509,139.074411,0.000000,4.549917,358.600000,700.000000,1708343577440536,1,0,0,-2026007,-76.734894,35.910000,-0.844554
9.680267,0,0,0,699.809966,-16.309868,0.000000,2499.862939,9889.364509,139.074411,0.000000,4.549917,358.600000,700.000000,1708343577440536,2,0,0,-2166423,-57.678215,35.910000,-0.844540
9.680267,0,0,0,699.809966,-16.309868,0.000000,2499.862939,9889.364509,139.074411,0.000000,4.549917,358.600000,700.000000,1708343577440536,3,0,0,2166424,57.678215,35.910000,0.844244
9.680267,0,0,0,699.809966,-16.309868,0.000000,2499.862939,9889.364509,139.074411,0.000000,4.549917,358.600000,700.000000,1708343577440536,4,0,0,2026201,76.734894,35.910000,0.844554
9.680267,0,0,0,699.809966,-16.309868,0.000000,2499.862939,9889.364509,139.074411,0.000000,4.549917,358.600000,700.000000,1708343577567497,1,0,0,-2026671,-76.901634,35.910000,-0.844259
9.680267,0,0,0,699.809966,-16.309868,0.000000,2499.862939,9889.364509,139.074411,0.000000,4.549917,358.600000,700.000000,1708343577567497,2,0,0,-2167087,-61.563332,35.910000,-0.844570
9.680267,0,0,0,699.809966,-16.309868,0.000000,2499.862939,9889.364509,139.074411,0.000000,4.549917,358.600000,700.000000,1708343577567497,3,0,0,2167088,61.563332,35.910000,0.844577
9.680267,0,0,0,699.809966,-16.309868,0.000000,2499.862939,9889.364509,139.074411,0.000000,4.549917,358.600000,700.000000,1708343577567497,4,0,0,2026865,61.563332,35.910000,0.844259
9.680267,0,0,0,699.809966,-16.309868,0.000000,2499.862939,9889.364509,139.074411,0.000000,4.549917,358.600000,700.000000,1708343577696048,1,0,0,-2027274,-63.261047,35.910000,-0.844528
9.680267,0,0,0,699.809966,-16.309868,0.000000,2499.862939,9889.364509,139.074411,0.000000,4.549917,358.600000,700.000000,1708343577696048,2,0,0,-2167689,-63.261047,35.910000,-0.844443
9.680267,0,0,0,699.809966,-16.309868,0.000000,2499.862939,9889.364509,139.074411,0.000000,4.549917,358.600000,700.000000,1708343577696048,3,0,0,2167690,63.261047,35.910000,0.844423
9.680267,0,0,0,699.809966,-16.309868,0.000000,2499.862939,9889.364509,139.074411,0.000000,4.549917,358.600000,700.000000,1708343577696048,4,0,0,2027467,63.261047,35.910000,0.844443
9.680267,0,0,0,699.809966,-16.309868,0.000000,2499.862939,9889.364509,139.074411,0.000000,4.549917,358.600000,700.000000,1708343577836960,1,0,0,-2027868,-56.864853,35.910000,-0.844250
9.680267,0,0,0,699.809966,-16.309868,0.000000,2499.862939,9889.364509,139.074411,0.000000,4.549917,358.600000,700.000000,1708343577836960,2,0,0,-2168283,-56.864853,35.910000,-0.844643
9.680267,0,0,0,699.809966,-16.309868,0.000000,2499.862939,9889.364509,139.074411,0.000000,4.549917,358.600000,700.000000,1708343577836960,3,0,0,2168357,75.733643,35.910000,0.844480
9.680267,0,0,0,699.809966,-16.309868,0.000000,2499.862939,9889.364509,139.074411,0.000000,4.549917,358.600000,700.000000,1708343577836960,4,0,0,2028061,56.864853,35.910000,0.844643
9.680267,0,0,0,699.809966,-16.309868,0.000000,2499.862939,9889.364509,139.074411,0.000000,4.549917,358.600000,700.000000,1708343577963640,1,0,0,-2028550,-63.361675,35.910000,-0.844671
9.680267,0,0,0,699.809966,-16.309868,0.000000,2499.862939,9889.364509,139.074411,0.000000,4.549917,358.600000,700.000000,1708343577963640,2,0,0,-2168965,-63.361675,35.910000,-0.844507
9.680267,0,0,0,699.809966,-16.309868,0.000000,2499.862939,9889.364509,139.074411,0.000000,4.549917,358.600000,700.000000,1708343577963640,3,0,0,2168966,63.361675,35.910000,0.844516
9.680267,0,0,0,699.809966,-16.309868,0.000000,2499.862939,9889.364509,139.074411,0.000000,4.549917,358.600000,700.000000,1708343577963640,4,0,0,2028743,63.361675,35.910000,0.844507
9.680267,0,0,0,699.809966,-16.309868,0.000000,2499.862939,9889.364509,139.074411,0.000000,4.549917,358.600000,700.000000,1708343578116717,1,0,0,-2029146,-60.506668,35.910000,-0.844444
9.680267,0,0,0,699.809966,-16.309868,0.000000,2499.862939,9889.364509,139.074411,0.000000,4.549917,358.600000,700.000000,1708343578116717,2,0,0,-2169561,-60.506668,35.910000,-0.852336
9.680267,0,0,0,699.809966,-16.309868,0.000000,2499.862939,9889.364509,139.074411,0.000000,4.549917,358.600000,700.000000,1708343578116717,3,0,0,2169637,75.942039,35.910000,0.844609
9.680267,0,0,0,699.809966,-16.309868,0.000000,2499.862939,9889.364509,139.074411,0.000000,4.549917,358.600000,700.000000,1708343578116717,4,0,0,2029339,60.506668,35.910000,0.844726
11.062220,0,0,0,699.871311,-13.421926,0.000000,3464.881301,9943.239187,139.112762,0.000000,4.549917,358.600000,700.000000,1708343578250708,1,0,0,-2029908,-79.062065,35.910000,-0.844463
11.062220,0,0,0,699.871311,-13.421926,0.000000,3464.881301,9943.239187,139.112762,0.000000,4.549917,358.600000,700.000000,1708343578250708,2,0,0,-2170323,-63.913692,35.910000,-0.844319
11.062220,0,0,0,699.871311,-13.421926,0.000000,3464.881301,9943.239187,139.112762,0.000000,4.549917,358.600000,700.000000,1708343578250708,3,0,0,2170324,63.913692,35.910000,0.844673
11.062220,0,0,0,699.871311,-13.421926,0.000000,3464.881301,9943.239187,139.112762,0.000000,4.549917,358.600000,700.000000,1708343578250708,4,0,0,2030101,63.913692,35.910000,0.844319
11.062220,0,0,0,699.871311,-13.421926,0.000000,3464.881301,9943.239187,139.112762,0.000000,4.549917,358.600000,700.000000,1708343578403208,1,0,0,-2030582,-70.912361,35.910000,-0.844813
11.062220,0,0,0,699.871311,-13.421926,0.000000,3464.881301,9943.239187,139.112762,0.000000,4.549917,358.600000,700.000000,1708343578403208,2,0,0,-2170995,-70.723763,35.910000,-0.843910
11.062220,0,0,0,699.871311,-13.421926,0.000000,3464.881301,9943.239187,139.112762,0.000000,4.549917,358.600000,700.000000,1708343578403208,3,0,0,2170996,70.723763,35.910000,0.844153
11.062220,0,0,0,699.871311,-13.421926,0.000000,3464.881301,9943.239187,139.112762,0.000000,4.549917,358.600000,700.000000,1708343578403208,4,0,0,2030774,70.723763,35.910000,0.844813
11.062220,0,0,0,699.871311,-13.421926,0.000000,3464.881301,9943.239187,139.112762,0.000000,4.549917,358.600000,700.000000,1708343578554533,1,0,0,-2031325,-62.047577,35.910000,-0.844180
11.062220,0,0,0,699.871311,-13.421926,0.000000,3464.881301,9943.239187,139.112762,0.000000,4.549917,358.600000,700.000000,1708343578554533,2,0,0,-2171810,-73.992561,35.910000,-0.844425
11.062220,0,0,0,699.871311,-13.421926,0.000000,3464.881301,9943.239187,139.112762,0.000000,4.549917,358.600000,700.000000,1708343578554533,3,0,0,2171811,73.992561,35.910000,0.844267
11.062220,0,0,0,699.871311,-13.421926,0.000000,3464.881301,9943.239187,139.112762,0.000000,4.549917,358.600000,700.000000,1708343578554533,4,0,0,2031517,62.047577,35.910000,0.844275
11.062220,0,0,0,699.871311,-13.421926,0.000000,3464.881301,9943.239187,139.112762,0.000000,4.549917,358.600000,700.000000,1708343578716399,1,0,0,-2032069,-71.359085,35.910000,-0.844480
11.062220,0,0,0,699.871311,-13.421926,0.000000,3464.881301,9943.239187,139.112762,0.000000,4.549917,358.600000,700.000000,1708343578716399,2,0,0,-2172482,-46.201447,35.910000,-0.844364
11.062220,0,0,0,699.871311,-13.421926,0.000000,3464.881301,9943.239187,139.112762,0.000000,4.549917,358.600000,700.000000,1708343578716399,3,0,0,2172483,46.201447,35.910000,0.844508
11.062220,0,0,0,699.871311,-13.421926,0.000000,3464.881301,9943.239187,139.112762,0.000000,4.549917,358.600000,700.000000,1708343578716399,4,0,0,2032261,71.359085,35.910000,0.844364
11.062220,0,0,0,699.871311,-13.421926,0.000000,3464.881301,9943.239187,139.112762,0.000000,4.549917,358.600000,700.000000,1708343578859022,1,0,0,-2032818,-64.601364,35.910000,-0.844231
11.062220,0,0,0,699.871311,-13.421926,0.000000,3464.881301,9943.239187,139.112762,0.000000,4.549917,358.600000,700.000000,1708343578859022,2,0,0,-2173231,-64.773636,35.910000,-0.844440
11.062220,0,0,0,699.871311,-13.421926,0.000000,3464.881301,9943.239187,139.112762,0.000000,4.549917,358.600000,700.000000,1708343578859022,3,0,0,2173232,64.773636,35.910000,0.844425
11.062220,0,0,0,699.871311,-13.421926,0.000000,3464.881301,9943.239187,139.112762,0.000000,4.549917,358.600000,700.000000,1708343578859022,4,0,0,2033010,64.601364,35.910000,0.844440
11.062220,0,0,0,699.871311,-13.421926,0.000000,3464.881301,9943.239187,139.112762,0.000000,4.549917,358.600000,700.000000,1708343578987727,1,0,0,-2033423,-62.978622,35.910000,-0.844724
11.062220,0,0,0,699.871311,-13.421926,0.000000,3464.881301,9943.239187,139.112762,0.000000,4.549917,358.600000,700.000000,1708343578987727,2,0,0,-2173836,-62.978622,35.910000,-0.844179
11.062220,0,0,0,699.871311,-13.421926,0.000000,3464.881301,9943.239187,139.112762,0.000000,4.549917,358.600000,700.000000,1708343578987727,3,0,0,2173837,62.978622,35.910000,0.844588
11.062220,0,0,0,699.871311,-13.421926,0.000000,3464.881301,9943.239187,139.112762,0.000000,4.549917,358.600000,700.000000,1708343578987727,4,0,0,2033615,62.978622,35.910000,0.844179
11.062220,0,0,0,699.871311,-13.421926,0.000000,3464.881301,9943.239187,139.112762,0.000000,4.549917,358.600000,700.000000,1708343579115690,1,0,0,-2034022,-63.418514,35.910000,-0.844525
11.062220,0,0,0,699.871311,-13.421926,0.000000,3464.881301,9943.239187,139.112762,0.000000,4.549917,358.600000,700.000000,1708343579115690,2,0,0,-2174435,-63.418514,35.910000,-0.844732
11.062220,0,0,0,699.871311,-13.421926,0.000000,3464.881301,9943.239187,139.112762,0.000000,4.549917,358.600000,700.000000,1708343579115690,3,0,0,2174436,63.418514,35.910000,0.844647
11.062220,0,0,0,699.871311,-13.421926,0.000000,3464.881301,9943.239187,139.112762,0.000000,4.549917,358.600000,700.000000,1708343579115690,4,0,0,2034214,63.418514,35.910000,0.844732
11.062220,0,0,0,699.871311,-13.421926,0.000000,3464.881301,9943.239187,139.112762,0.000000,4.549917,358.600000,700.000000,1708343579256009,1,0,0,-2034620,-60.901459,35.910000,-0.844027
11.062220,0,0,0,699.871311,-13.421926,0.000000,3464.881301,9943.239187,139.112762,0.000000,4.549917,358.600000,700.000000,1708343579256009,2,0,0,-2175104,-75.608955,35.910000,-0.844521
11.062220,0,0,0,699.871311,-13.421926,0.000000,3464.881301,9943.239187,139.112762,0.000000,4.549917,358.600000,700.000000,1708343579256009,3,0,0,2175105,75.608955,35.910000,0.844521
11.062220,0,0,0,699.871311,-13.421926,0.000000,3464.881301,9943.239187,139.112762,0.000000,4.549917,358.600000,700.000000,1708343579256009,4,0,0,2034883,75.608955,35.910000,0.844271
11.062220,0,0,0,699.871311,-13.421926,0.000000,3464.881301,9943.239187,139.112762,0.000000,4.549917,358.600000,700.000000,1708343579383507,1,0,0,-2035217,-58.774506,35.910000,-0.844563
11.062220,0,0,0,699.871311,-13.421926,0.000000,3464.881301,9943.239187,139.112762,0.000000,4.549917,358.600000,700.000000,1708343579383507,2,0,0,-2175706,-78.366013,35.910000,-0.844286
11.062220,0,0,0,699.871311,-13.421926,0.000000,3464.881301,9943.239187,139.112762,0.000000,4.549917,358.600000,700.000000,1708343579383507,3,0,0,2175707,78.366013,35.910000,0.844286
11.062220,0,0,0,699.871311,-13.421926,0.000000,3464.881301,9943.239187,139.112762,0.000000,4.549917,358.600000,700.000000,1708343579383507,4,0,0,2035485,78.366013,35.910000,0.844509
11.062220,0,0,0,699.871311,-13.421926,0.000000,3464.881301,9943.239187,139.112762,0.000000,4.549917,358.600000,700.000000,1708343579525005,1,0,0,-2035886,-62.946510,35.910000,-0.852195
11.062220,0,0,0,699.871311,-13.421926,0.000000,3464.881301,9943.239187,139.112762,0.000000,4.549917,358.600000,700.000000,1708343579525005,2,0,0,-2176449,-94.737679,35.910000,-0.844248
11.062220,0,0,0,699.871311,-13.421926,0.000000,3464.881301,9943.239187,139.112762,0.000000,4.549917,358.600000,700.000000,1708343579525005,3,0,0,2176450,94.737679,35.910000,0.844248
11.062220,0,0,0,699.871311,-13.421926,0.000000,3464.881301,9943.239187,139.112762,0.000000,4.549917,358.600000,700.000000,1708343579525005,4,0,0,2036078,62.946510,35.910000,0.844770
12.439869,0,0,0,699.904389,-11.569207,0.000000,4440.674379,9922.542255,139.112755,0.000000,4.549917,358.600000,700.000000,1708343579671376,1,0,0,-2036720,-75.291336,35.910000,-0.844111
12.439869,0,0,0,699.904389,-11.569207,0.000000,4440.674379,9922.542255,139.112755,0.000000,4.549917,358.600000,700.000000,1708343579671376,2,0,0,-2177133,-75.291336,35.910000,-0.844510
12.439869,0,0,0,699.904389,-11.569207,0.000000,4440.674379,9922.542255,139.112755,0.000000,4.549917,358.600000,700.000000,1708343579671376,3,0,0,2177134,75.291336,35.910000,0.844510
12.439869,0,0,0,699.904389,-11.569207,0.000000,4440.674379,9922.542255,139.112755,0.000000,4.549917,358.600000,700.000000,1708343579671376,4,0,0,2036912,75.291336,35.910000,0.844375
12.439869,0,0,0,699.904389,-11.569207,0.000000,4440.674379,9922.542255,139.112755,0.000000,4.549917,358.600000,700.000000,1708343579811270,1,0,0,-2037323,-77.561897,35.910000,-0.844606
12.439869,0,0,0,699.904389,-11.569207,0.000000,4440.674379,9922.542255,139.112755,0.000000,4.549917,358.600000,700.000000,1708343579811270,2,0,0,-2177736,-77.561897,35.910000,-0.844246
12.439869,0,0,0,699.904389,-11.569207,0.000000,4440.674379,9922.542255,139.112755,0.000000,4.549917,358.600000,700.000000,1708343579811270,3,0,0,2177736,77.305069,35.910000,0.844029
12.439869,0,0,0,699.904389,-11.569207,0.000000,4440.674379,9922.542255,139.112755,0.000000,4.549917,358.600000,700.000000,1708343579811270,4,0,0,2037514,77.305069,35.910000,0.844440
12.439869,0,0,0,699.904389,-11.569207,0.000000,4440.674379,9922.542255,139.112755,0.000000,4.549917,358.600000,700.000000,1708343579951967,1,0,0,-2037912,-74.470833,35.910000,-0.844462
12.439869,0,0,0,699.904389,-11.569207,0.000000,4440.674379,9922.542255,139.112755,0.000000,4.549917,358.600000,700.000000,1708343579951967,2,0,0,-2178325,-74.470833,35.910000,-0.844754
