CurrentTime,PlatformType,PlatformDirection,PlatformMovementType,PlayerVelocity.x,PlayerVelocity.y,PlayerVelocity.z,PlayerPosition.x,PlayerPosition.y,PlayerPosition.z,PlayerRotation.Pitch,PlayerRotation.Roll,PlayerRotation.Yaw,PlayerCurrentSpeed,UnixTimeStamp [us],ControllerId,MotorFlags,HallPosition,EncoderPosition,MotorVelocity,MotorVoltage,MotorCurrent,CurrentLeg
1.668645,0,0,250,500.000000,0.000000,0.000000,181.292457,9900.000000,138.911662,0.000000,0.000000,0.000000,500.000000,1713266118509798,1,0,0,-41604043,0.000000,35.910000,0.000186,0
1.668645,0,0,250,500.000000,0.000000,0.000000,181.292457,9900.000000,138.911662,0.000000,0.000000,0.000000,500.000000,1713266118509798,2,0,0,-47121987,0.000000,35.910000,0.000186,0
1.668645,0,0,250,500.000000,0.000000,0.000000,181.292457,9900.000000,138.911662,0.000000,0.000000,0.000000,500.000000,1713266118509798,3,0,0,48208433,0.000000,35.910000,-0.000177,0
1.668645,0,0,250,500.000000,0.000000,0.000000,181.292457,9900.000000,138.911662,0.000000,0.000000,0.000000,500.000000,1713266118509798,4,0,0,42713006,0.000000,35.910000,-0.000177,0
1.668645,0,0,250,500.000000,0.000000,0.000000,181.292457,9900.000000,138.911662,0.000000,0.000000,0.000000,500.000000,1713266118641110,1,0,0,-41604043,0.000000,35.910000,0.000186,0
1.668645,0,0,250,500.000000,0.000000,0.000000,181.292457,9900.000000,138.911662,0.000000,0.000000,0.000000,500.000000,1713266118641110,2,0,0,-47121987,0.000000,35.910000,0.000186,0
1.668645,0,0,250,500.000000,0.000000,0.000000,181.292457,9900.000000,138.911662,0.000000,0.000000,0.000000,500.000000,1713266118641110,3,0,0,48208433,0.000000,35.910000,-0.000177,0
1.668645,0,0,250,500.000000,0.000000,0.000000,181.292457,9900.000000,138.911662,0.000000,0.000000,0.000000,500.000000,1713266118641110,4,0,0,42713006,0.000000,35.910000,-0.000177,0
1.668645,0,0,250,500.000000,0.000000,0.000000,181.292457,9900.000000,138.911662,0.000000,0.000000,0.000000,500.000000,1713266118782522,1,0,0,-41604043,0.000000,35.910000,0.000186,0
1.668645,0,0,250,500.000000,0.000000,0.000000,181.292457,9900.000000,138.911662,0.000000,0.000000,0.000000,500.000000,1713266118782522,2,0,0,-47121987,0.000000,35.910000,0.000186,0
1.668645,0,0,250,500.000000,0.000000,0.000000,181.292457,9900.000000,138.911662,0.000000,0.000000,0.000000,500.000000,1713266118782522,3,0,0,48208433,0.000000,35.910000,-0.000177,0
1.668645,0,0,250,500.000000,0.000000,0.000000,181.292457,9900.000000,138.911662,0.000000,0.000000,0.000000,500.000000,1713266118782522,4,0,0,42713006,0.000000,35.910000,-0.000177,0
1.668645,0,0,250,500.000000,0.000000,0.000000,181.292457,9900.000000,138.911662,0.000000,0.000000,0.000000,500.000000,1713266118910384,1,0,0,-41604043,0.000000,35.910000,0.000186,0
1.668645,0,0,250,500.000000,0.000000,0.000000,181.292457,9900.000000,138.911662,0.000000,0.000000,0.000000,500.000000,1713266118910384,2,0,0,-47121987,0.000000,35.910000,0.000186,0
1.668645,0,0,250,500.000000,0.000000,0.000000,181.292457,9900.000000,138.911662,0.000000,0.000000,0.000000,500.000000,1713266118910384,3,0,0,48208433,0.000000,35.910000,-0.000177,0
1.668645,0,0,250,500.000000,0.000000,0.000000,181.292457,9900.000000,138.911662,0.000000,0.000000,0.000000,500.000000,1713266118910384,4,0,0,42713006,0.000000,35.910000,-0.000177,0
1.668645,0,0,250,500.000000,0.000000,0.000000,181.292457,9900.000000,138.911662,0.000000,0.000000,0.000000,500.000000,1713266119047221,1,0,0,-41604043,0.000000,35.910000,0.000186,0
1.668645,0,0,250,500.000000,0.000000,0.000000,181.292457,9900.000000,138.911662,0.000000,0.000000,0.000000,500.000000,1713266119047221,2,0,0,-47121987,0.000000,35.910000,0.000186,0
1.668645,0,0,250,500.000000,0.000000,0.000000,181.292457,9900.000000,138.911662,0.000000,0.000000,0.000000,500.000000,1713266119047221,3,0,0,48208433,0.000000,35.910000,-0.000177,0
1.668645,0,0,250,500.000000,0.000000,0.000000,181.292457,9900.000000,138.911662,0.000000,0.000000,0.000000,500.000000,1713266119047221,4,0,0,42713006,0.000000,35.910000,-0.000177,0
1.668645,0,0,250,500.000000,0.000000,0.000000,181.292457,9900.000000,138.911662,0.000000,0.000000,0.000000,500.000000,1713266119184991,1,0,0,-41604043,0.000000,35.910000,0.000186,0
1.668645,0,0,250,500.000000,0.000000,0.000000,181.292457,9900.000000,138.911662,0.000000,0.000000,0.000000,500.000000,1713266119184991,2,0,0,-47121987,0.000000,35.910000,0.000186,0
1.668645,0,0,250,500.000000,0.000000,0.000000,181.292457,9900.000000,138.911662,0.000000,0.000000,0.000000,500.000000,1713266119184991,3,0,0,48208433,0.000000,35.910000,-0.000177,0
1.668645,0,0,250,500.000000,0.000000,0.000000,181.292457,9900.000000,138.911662,0.000000,0.000000,0.000000,500.000000,1713266119184991,4,0,0,42713006,0.000000,35.910000,-0.000177,0
1.668645,0,0,250,500.000000,0.000000,0.000000,181.292457,9900.000000,138.911662,0.000000,0.000000,0.000000,500.000000,1713266119337258,1,0,0,-41604043,0.000000,35.910000,0.000186,0
1.668645,0,0,250,500.000000,0.000000,0.000000,181.292457,9900.000000,138.911662,0.000000,0.000000,0.000000,500.000000,1713266119337258,2,0,0,-47121987,0.000000,35.910000,0.000186,0
1.668645,0,0,250,500.000000,0.000000,0.000000,181.292457,9900.000000,138.911662,0.000000,0.000000,0.000000,500.000000,1713266119337258,3,0,0,48208433,0.000000,35.910000,-0.000177,0
1.668645,0,0,250,500.000000,0.000000,0.000000,181.292457,9900.000000,138.911662,0.000000,0.000000,0.000000,500.000000,1713266119337258,4,0,0,42713006,0.000000,35.910000,-0.000177,0
1.668645,0,0,250,500.000000,0.000000,0.000000,181.292457,9900.000000,138.911662,0.000000,0.000000,0.000000,500.000000,1713266119483450,1,0,0,-41604043,0.000000,35.910000,0.000186,0
1.668645,0,0,250,500.000000,0.000000,0.000000,181.292457,9900.000000,138.911662,0.000000,0.000000,0.000000,500.000000,1713266119483450,2,0,0,-47121987,0.000000,35.910000,0.000186,0
1.668645,0,0,250,500.000000,0.000000,0.000000,181.292457,9900.000000,138.911662,0.000000,0.000000,0.000000,500.000000,1713266119483450,3,0,0,48208433,0.000000,35.910000,-0.000177,0
1.668645,0,0,250,500.000000,0.000000,0.000000,181.292457,9900.000000,138.911662,0.000000,0.000000,0.000000,500.000000,1713266119483450,4,0,0,42713006,0.000000,35.910000,-0.000177,0
1.668645,0,0,250,500.000000,0.000000,0.000000,181.292457,9900.000000,138.911662,0.000000,0.000000,0.000000,500.000000,1713266119630814,1,0,0,-41604043,0.000000,35.910000,0.000186,0
1.668645,0,0,250,500.000000,0.000000,0.000000,181.292457,9900.000000,138.911662,0.000000,0.000000,0.000000,500.000000,1713266119630814,2,0,0,-47121987,0.000000,35.910000,0.000186,0
1.668645,0,0,250,500.000000,0.000000,0.000000,181.292457,9900.000000,138.911662,0.000000,0.000000,0.000000,500.000000,1713266119630814,3,0,0,48208433,0.000000,35.910000,-0.000177,0
1.668645,0,0,250,500.000000,0.000000,0.000000,181.292457,9900.000000,138.911662,0.000000,0.000000,0.000000,500.000000,1713266119630814,4,0,0,42713006,0.000000,35.910000,-0.000177,0
1.668645,0,0,250,500.000000,0.000000,0.000000,181.292457,9900.000000,138.911662,0.000000,0.000000,0.000000,500.000000,1713266119797982,1,0,0,-41604043,0.000000,35.910000,0.000186,0
1.668645,0,0,250,500.000000,0.000000,0.000000,181.292457,9900.000000,138.911662,0.000000,0.000000,0.000000,500.000000,1713266119797982,2,0,0,-47121987,0.000000,35.910000,0.000186,0
1.668645,0,0,250,500.000000,0.000000,0.000000,181.292457,9900.000000,138.911662,0.000000,0.000000,0.000000,500.000000,1713266119797982,3,0,0,48208433,0.000000,35.910000,-0.000177,0
1.668645,0,0,250,500.000000,0.000000,0.000000,181.292457,9900.000000,138.911662,0.000000,0.000000,0.000000,500.000000,1713266119797982,4,0,0,42713006,0.000000,35.910000,-0.000177,0
3.178500,0,0,250,500.000000,0.000000,0.000000,388.660174,9900.000000,138.911662,0.000000,0.000000,0.000000,500.000000,1713266119940556,1,0,0,-41604043,0.000000,35.910000,0.000186,0
3.178500,0,0,250,500.000000,0.000000,0.000000,388.660174,9900.000000,138.911662,0.000000,0.000000,0.000000,500.000000,1713266119940556,2,0,0,-47121987,0.000000,35.910000,0.000186,0
3.178500,0,0,250,500.000000,0.000000,0.000000,388.660174,9900.000000,138.911662,0.000000,0.000000,0.000000,500.000000,1713266119940556,3,0,0,48208433,0.000000,35.910000,-0.000177,0
3.178500,0,0,250,500.000000,0.000000,0.000000,388.660174,9900.000000,138.911662,0.000000,0.000000,0.000000,500.000000,1713266119940556,4,0,0,42713006,0.000000,35.910000,-0.000177,0
3.178500,0,0,250,500.000000,0.000000,0.000000,388.660174,9900.000000,138.911662,0.000000,0.000000,0.000000,500.000000,1713266120100629,1,0,0,-41604043,0.000000,35.910000,0.000186,0
3.178500,0,0,250,500.000000,0.000000,0.000000,388.660174,9900.000000,138.911662,0.000000,0.000000,0.000000,500.000000,1713266120100629,2,0,0,-47121987,0.000000,35.910000,0.000186,0
3.178500,0,0,250,500.000000,0.000000,0.000000,388.660174,9900.000000,138.911662,0.000000,0.000000,0.000000,500.000000,1713266120100629,3,0,0,48208433,0.000000,35.910000,-0.000177,0
3.178500,0,0,250,500.000000,0.000000,0.000000,388.660174,9900.000000,138.911662,0.000000,0.000000,0.000000,500.000000,1713266120100629,4,0,0,42713006,0.000000,35.910000,-0.000177,0
3.178500,0,0,250,500.000000,0.000000,0.000000,388.660174,9900.000000,138.911662,0.000000,0.000000,0.000000,500.000000,1713266120243737,1,0,0,-41604043,0.000000,35.910000,0.000186,0
3.178500,0,0,250,500.000000,0.000000,0.000000,388.660174,9900.000000,138.911662,0.000000,0.000000,0.000000,500.000000,1713266120243737,2,0,0,-47121987,0.000000,35.910000,0.000186,0
3.178500,0,0,250,500.000000,0.000000,0.000000,388.660174,9900.000000,138.911662,0.000000,0.000000,0.000000,500.000000,1713266120243737,3,0,0,48208433,0.000000,35.910000,-0.000177,0
3.178500,0,0,250,500.000000,0.000000,0.000000,388.660174,9900.000000,138.911662,0.000000,0.000000,0.000000,500.000000,1713266120243737,4,0,0,42713006,0.000000,35.910000,-0.000177,0
3.178500,0,0,250,500.000000,0.000000,0.000000,388.660174,9900.000000,138.911662,0.000000,0.000000,0.000000,500.000000,1713266120385370,1,0,0,-41604043,0.000000,35.910000,0.000186,0
3.178500,0,0,250,500.000000,0.000000,0.000000,388.660174,9900.000000,138.911662,0.000000,0.000000,0.000000,500.000000,1713266120385370,2,0,0,-47121987,0.000000,35.910000,0.000186,0
3.178500,0,0,250,500.000000,0.000000,0.000000,388.660174,9900.000000,138.911662,0.000000,0.000000,0.000000,500.000000,1713266120385370,3,0,0,48208433,0.000000,35.910000,-0.000177,0
3.178500,0,0,250,500.000000,0.000000,0.000000,388.660174,9900.000000,138.911662,0.000000,0.000000,0.000000,500.000000,1713266120385370,4,0,0,42713006,0.000000,35.910000,-0.000177,0
3.178500,0,0,250,500.000000,0.000000,0.000000,388.660174,9900.000000,138.911662,0.000000,0.000000,0.000000,500.000000,1713266120563483,1,0,0,-41604043,0.000000,35.910000,0.000186,0
3.178500,0,0,250,500.000000,0.000000,0.000000,388.660174,9900.000000,138.911662,0.000000,0.000000,0.000000,500.000000,1713266120563483,2,0,0,-47121987,0.000000,35.910000,0.000186,0
3.178500,0,0,250,500.000000,0.000000,0.000000,388.660174,9900.000000,138.911662,0.000000,0.000000,0.000000,500.000000,1713266120563483,3,0,0,48208433,0.000000,35.910000,-0.000177,0
3.178500,0,0,250,500.000000,0.000000,0.000000,388.660174,9900.000000,138.911662,0.000000,0.000000,0.000000,500.000000,1713266120563483,4,0,0,42713006,0.000000,35.910000,-0.000177,0
3.178500,0,0,250,500.000000,0.000000,0.000000,388.660174,9900.000000,138.911662,0.000000,0.000000,0.000000,500.000000,1713266120705019,1,0,0,-41604043,0.000000,35.910000,0.000186,0
3.178500,0,0,250,500.000000,0.000000,0.000000,388.660174,9900.000000,138.911662,0.000000,0.000000,0.000000,500.000000,1713266120705019,2,0,0,-47121987,0.000000,35.910000,0.000186,0
3.178500,0,0,250,500.000000,0.000000,0.000000,388.660174,9900.000000,138.911662,0.000000,0.000000,0.000000,500.000000,1713266120705019,3,0,0,48208433,0.000000,35.910000,-0.000177,0
3.178500,0,0,250,500.000000,0.000000,0.000000,388.660174,9900.000000,138.911662,0.000000,0.000000,0.000000,500.000000,1713266120705019,4,0,0,42713006,0.000000,35.910000,-0.000177,0
3.178500,0,0,250,500.000000,0.000000,0.000000,388.660174,9900.000000,138.911662,0.000000,0.000000,0.000000,500.000000,1713266120835551,1,0,0,-41604043,0.000000,35.910000,0.000186,0
3.178500,0,0,250,500.000000,0.000000,0.000000,388.660174,9900.000000,138.911662,0.000000,0.000000,0.000000,500.000000,1713266120835551,2,0,0,-47121987,0.000000,35.910000,0.000186,0
3.178500,0,0,250,500.000000,0.000000,0.000000,388.660174,9900.000000,138.911662,0.000000,0.000000,0.000000,500.000000,1713266120835551,3,0,0,48208433,0.000000,35.910000,-0.000177,0
3.178500,0,0,250,500.000000,0.000000,0.000000,388.660174,9900.000000,138.911662,0.000000,0.000000,0.000000,500.000000,1713266120835551,4,0,0,42713006,0.000000,35.910000,-0.000177,0
3.178500,0,0,250,500.000000,0.000000,0.000000,388.660174,9900.000000,138.911662,0.000000,0.000000,0.000000,500.000000,1713266120989031,1,0,0,-41604043,0.000000,35.910000,0.000186,0
3.178500,0,0,250,500.000000,0.000000,0.000000,388.660174,9900.000000,138.911662,0.000000,0.000000,0.000000,500.000000,1713266120989031,2,0,0,-47121987,0.000000,35.910000,0.000186,0
3.178500,0,0,250,500.000000,0.000000,0.000000,388.660174,9900.000000,138.911662,0.000000,0.000000,0.000000,500.000000,1713266120989031,3,0,0,48208433,0.000000,35.910000,-0.000177,0
3.178500,0,0,250,500.000000,0.000000,0.000000,388.660174,9900.000000,138.911662,0.000000,0.000000,0.000000,500.000000,1713266120989031,4,0,0,42713006,0.000000,35.910000,-0.000177,0
3.178500,0,0,250,500.000000,0.000000,0.000000,388.660174,9900.000000,138.911662,0.000000,0.000000,0.000000,500.000000,1713266121162448,1,0,0,-41604043,0.000000,35.910000,0.000186,0
3.178500,0,0,250,500.000000,0.000000,0.000000,388.660174,9900.000000,138.911662,0.000000,0.000000,0.000000,500.000000,1713266121162448,2,0,0,-47121987,0.000000,35.910000,0.000186,0
3.178500,0,0,250,500.000000,0.000000,0.000000,388.660174,9900.000000,138.911662,0.000000,0.000000,0.000000,500.000000,1713266121162448,3,0,0,48208433,0.000000,35.910000,-0.000177,0
3.178500,0,0,250,500.000000,0.000000,0.000000,388.660174,9900.000000,138.911662,0.000000,0.000000,0.000000,500.000000,1713266121162448,4,0,0,42713006,0.000000,35.910000,-0.000177,0
3.178500,0,0,250,500.000000,0.000000,0.000000,388.660174,9900.000000,138.911662,0.000000,0.000000,0.000000,500.000000,1713266121319390,1,0,0,-41604043,0.000000,35.910000,0.000186,0
3.178500,0,0,250,500.000000,0.000000,0.000000,388.660174,9900.000000,138.911662,0.000000,0.000000,0.000000,500.000000,1713266121319390,2,0,0,-47121987,0.000000,35.910000,0.000186,0
3.178500,0,0,250,500.000000,0.000000,0.000000,388.660174,9900.000000,138.911662,0.000000,0.000000,0.000000,500.000000,1713266121319390,3,0,0,48208433,0.000000,35.910000,-0.000177,0
3.178500,0,0,250,500.000000,0.000000,0.000000,388.660174,9900.000000,138.911662,0.000000,0.000000,0.000000,500.000000,1713266121319390,4,0,0,42713006,0.000000,35.910000,-0.000177,0
4.771749,0,0,250,0.000000,0.000000,0.000000,505.386586,9900.000000,138.911662,0.000000,0.000000,0.000000,500.000000,1713266121459069,1,0,0,-41604043,0.000000,35.910000,0.000186,1
4.771749,0,0,250,0.000000,0.000000,0.000000,505.386586,9900.000000,138.911662,0.000000,0.000000,0.000000,500.000000,1713266121459069,2,0,0,-47121987,0.000000,35.910000,0.000186,1
4.771749,0,0,250,0.000000,0.000000,0.000000,505.386586,9900.000000,138.911662,0.000000,0.000000,0.000000,500.000000,1713266121459069,3,0,0,48208433,0.000000,35.910000,-0.000177,1
4.771749,0,0,250,0.000000,0.000000,0.000000,505.386586,9900.000000,138.911662,0.000000,0.000000,0.000000,500.000000,1713266121459069,4,0,0,42713006,0.000000,35.910000,-0.000177,1
4.771749,0,0,250,0.000000,0.000000,0.000000,505.386586,9900.000000,138.911662,0.000000,0.000000,0.000000,500.000000,1713266121599321,1,0,0,-41604043,0.000000,35.910000,0.000186,1
4.771749,0,0,250,0.000000,0.000000,0.000000,505.386586,9900.000000,138.911662,0.000000,0.000000,0.000000,500.000000,1713266121599321,2,0,0,-47121987,0.000000,35.910000,0.000186,1
4.771749,0,0,250,0.000000,0.000000,0.000000,505.386586,9900.000000,138.911662,0.000000,0.000000,0.000000,500.000000,1713266121599321,3,0,0,48208433,0.000000,35.910000,-0.000177,1
4.771749,0,0,250,0.000000,0.000000,0.000000,505.386586,9900.000000,138.911662,0.000000,0.000000,0.000000,500.000000,1713266121599321,4,0,0,42713006,0.000000,35.910000,-0.000177,1
4.771749,0,0,250,0.000000,0.000000,0.000000,505.386586,9900.000000,138.911662,0.000000,0.000000,0.000000,500.000000,1713266121742922,1,0,0,-41604043,0.000000,35.910000,0.000186,1
4.771749,0,0,250,0.000000,0.000000,0.000000,505.386586,9900.000000,138.911662,0.000000,0.000000,0.000000,500.000000,1713266121742922,2,0,0,-47121987,0.000000,35.910000,0.000186,1
4.771749,0,0,250,0.000000,0.000000,0.000000,505.386586,9900.000000,138.911662,0.000000,0.000000,0.000000,500.000000,1713266121742922,3,0,0,48208433,0.000000,35.910000,-0.000177,1
4.771749,0,0,250,0.000000,0.000000,0.000000,505.386586,9900.000000,138.911662,0.000000,0.000000,0.000000,500.000000,1713266121742922,4,0,0,42713006,0.000000,35.910000,-0.000177,1
4.771749,0,0,250,0.000000,0.000000,0.000000,505.386586,9900.000000,138.911662,0.000000,0.000000,0.000000,500.000000,1713266121884146,1,0,0,-41604043,0.000000,35.910000,0.000186,1
4.771749,0,0,250,0.000000,0.000000,0.000000,505.386586,9900.000000,138.911662,0.000000,0.000000,0.000000,500.000000,1713266121884146,2,0,0,-47121987,0.000000,35.910000,0.000186,1
4.771749,0,0,250,0.000000,0.000000,0.000000,505.386586,9900.000000,138.911662,0.000000,0.000000,0.000000,500.000000,1713266121884146,3,0,0,48208433,0.000000,35.910000,-0.000177,1
4.771749,0,0,250,0.000000,0.000000,0.000000,505.386586,9900.000000,138.911662,0.000000,0.000000,0.000000,500.000000,1713266121884146,4,0,0,42713006,0.000000,35.910000,-0.000177,1
4.771749,0,0,250,0.000000,0.000000,0.000000,505.386586,9900.000000,138.911662,0.000000,0.000000,0.000000,500.000000,1713266122022663,1,0,0,-41604043,0.000000,35.910000,0.000186,1
4.771749,0,0,250,0.000000,0.000000,0.000000,505.386586,9900.000000,138.911662,0.000000,0.000000,0.000000,500.000000,1713266122022663,2,0,0,-47121987,0.000000,35.910000,0.000186,1
4.771749,0,0,250,0.000000,0.000000,0.000000,505.386586,9900.000000,138.911662,0.000000,0.000000,0.000000,500.000000,1713266122022663,3,0,0,48208433,0.000000,35.910000,-0.000177,1
4.771749,0,0,250,0.000000,0.000000,0.000000,505.386586,9900.000000,138.911662,0.000000,0.000000,0.000000,500.000000,1713266122022663,4,0,0,42713006,0.000000,35.910000,-0.000177,1
4.771749,0,0,250,0.000000,0.000000,0.000000,505.386586,9900.000000,138.911662,0.000000,0.000000,0.000000,500.000000,1713266122191284,1,0,0,-41604043,0.000000,35.910000,0.000186,1
4.771749,0,0,250,0.000000,0.000000,0.000000,505.386586,9900.000000,138.911662,0.000000,0.000000,0.000000,500.000000,1713266122191284,2,0,0,-47121987,0.000000,35.910000,0.000186,1
4.771749,0,0,250,0.000000,0.000000,0.000000,505.386586,9900.000000,138.911662,0.000000,0.000000,0.000000,500.000000,1713266122191284,3,0,0,48208433,0.000000,35.910000,-0.000177,1
4.771749,0,0,250,0.000000,0.000000,0.000000,505.386586,9900.000000,138.911662,0.000000,0.000000,0.000000,500.000000,1713266122191284,4,0,0,42713006,0.000000,35.910000,-0.000177,1
4.771749,0,0,250,0.000000,0.000000,0.000000,505.386586,9900.000000,138.911662,0.000000,0.000000,0.000000,500.000000,1713266122353596,1,0,0,-41604043,0.000000,35.910000,0.000186,1
4.771749,0,0,250,0.000000,0.000000,0.000000,505.386586,9900.000000,138.911662,0.000000,0.000000,0.000000,500.000000,1713266122353596,2,0,0,-47121987,0.000000,35.910000,0.000186,1
4.771749,0,0,250,0.000000,0.000000,0.000000,505.386586,9900.000000,138.911662,0.000000,0.000000,0.000000,500.000000,1713266122353596,3,0,0,48208433,0.000000,35.910000,-0.000177,1
4.771749,0,0,250,0.000000,0.000000,0.000000,505.386586,9900.000000,138.911662,0.000000,0.000000,0.000000,500.000000,1713266122353596,4,0,0,42713006,0.000000,35.910000,-0.000177,1
4.771749,0,0,250,0.000000,0.000000,0.000000,505.386586,9900.000000,138.911662,0.000000,0.000000,0.000000,500.000000,1713266122536191,1,0,0,-41604043,0.000000,35.910000,0.000186,1
4.771749,0,0,250,0.000000,0.000000,0.000000,505.386586,9900.000000,138.911662,0.000000,0.000000,0.000000,500.000000,1713266122536191,2,0,0,-47121987,0.000000,35.910000,0.000186,1
4.771749,0,0,250,0.000000,0.000000,0.000000,505.386586,9900.000000,138.911662,0.000000,0.000000,0.000000,500.000000,1713266122536191,3,0,0,48208433,0.000000,35.910000,-0.000177,1
4.771749,0,0,250,0.000000,0.000000,0.000000,505.386586,9900.000000,138.911662,0.000000,0.000000,0.000000,500.000000,1713266122536191,4,0,0,42713006,0.000000,35.910000,-0.000177,1
4.771749,0,0,250,0.000000,0.000000,0.000000,505.386586,9900.000000,138.911662,0.000000,0.000000,0.000000,500.000000,1713266122679858,1,0,0,-41604043,0.000000,35.910000,0.000186,1
4.771749,0,0,250,0.000000,0.000000,0.000000,505.386586,9900.000000,138.911662,0.000000,0.000000,0.000000,500.000000,1713266122679858,2,0,0,-47121987,0.000000,35.910000,0.000186,1
4.771749,0,0,250,0.000000,0.000000,0.000000,505.386586,9900.000000,138.911662,0.000000,0.000000,0.000000,500.000000,1713266122679858,3,0,0,48208433,0.000000,35.910000,-0.000177,1
4.771749,0,0,250,0.000000,0.000000,0.000000,505.386586,9900.000000,138.911662,0.000000,0.000000,0.000000,500.000000,1713266122679858,4,0,0,42713006,0.000000,35.910000,-0.000177,1
4.771749,0,0,250,0.000000,0.000000,0.000000,505.386586,9900.000000,138.911662,0.000000,0.000000,0.000000,500.000000,1713266122845081,1,0,0,-41604043,0.000000,35.910000,0.000186,1
4.771749,0,0,250,0.000000,0.000000,0.000000,505.386586,9900.000000,138.911662,0.000000,0.000000,0.000000,500.000000,1713266122845081,2,0,0,-47121987,0.000000,35.910000,0.000186,1
4.771749,0,0,250,0.000000,0.000000,0.000000,505.386586,9900.000000,138.911662,0.000000,0.000000,0.000000,500.000000,1713266122845081,3,0,0,48208433,0.000000,35.910000,-0.000177,1
4.771749,0,0,250,0.000000,0.000000,0.000000,505.386586,9900.000000,138.911662,0.000000,0.000000,0.000000,500.000000,1713266122845081,4,0,0,42713006,0.000000,35.910000,-0.000177,1
6.079135,0,0,250,55.851991,0.448329,0.000000,531.101939,9899.656115,138.911662,0.000000,0.000000,0.000000,500.000000,1713266122981783,1,0,0,-41604043,0.000000,35.910000,0.000186,0
6.079135,0,0,250,55.851991,0.448329,0.000000,531.101939,9899.656115,138.911662,0.000000,0.000000,0.000000,500.000000,1713266122981783,2,0,0,-47121987,0.000000,35.910000,0.000186,0
6.079135,0,0,250,55.851991,0.448329,0.000000,531.101939,9899.656115,138.911662,0.000000,0.000000,0.000000,500.000000,1713266122981783,3,0,0,48208433,0.000000,35.910000,-0.000177,0
6.079135,0,0,250,55.851991,0.448329,0.000000,531.101939,9899.656115,138.911662,0.000000,0.000000,0.000000,500.000000,1713266122981783,4,0,0,42713006,0.000000,35.910000,-0.000177,0
6.079135,0,0,250,55.851991,0.448329,0.000000,531.101939,9899.656115,138.911662,0.000000,0.000000,0.000000,500.000000,1713266123112908,1,0,0,-41604043,0.000000,35.910000,0.000186,0
6.079135,0,0,250,55.851991,0.448329,0.000000,531.101939,9899.656115,138.911662,0.000000,0.000000,0.000000,500.000000,1713266123112908,2,0,0,-47121987,0.000000,35.910000,0.000186,0
6.079135,0,0,250,55.851991,0.448329,0.000000,531.101939,9899.656115,138.911662,0.000000,0.000000,0.000000,500.000000,1713266123112908,3,0,0,48208433,0.000000,35.910000,-0.000177,0
6.079135,0,0,250,55.851991,0.448329,0.000000,531.101939,9899.656115,138.911662,0.000000,0.000000,0.000000,500.000000,1713266123112908,4,0,0,42713006,0.000000,35.910000,-0.000177,0
6.079135,0,0,250,55.851991,0.448329,0.000000,531.101939,9899.656115,138.911662,0.000000,0.000000,0.000000,500.000000,1713266123227301,1,0,0,-41604043,0.000000,35.910000,-2.231453,0
6.079135,0,0,250,55.851991,0.448329,0.000000,531.101939,9899.656115,138.911662,0.000000,0.000000,0.000000,500.000000,1713266123227301,2,0,0,-47121989,-0.258152,35.910000,-2.072968,0
6.079135,0,0,250,55.851991,0.448329,0.000000,531.101939,9899.656115,138.911662,0.000000,0.000000,0.000000,500.000000,1713266123227301,3,0,0,48208434,0.129076,35.910000,2.079284,0
6.079135,0,0,250,55.851991,0.448329,0.000000,531.101939,9899.656115,138.911662,0.000000,0.000000,0.000000,500.000000,1713266123227301,4,0,0,42713008,0.258152,35.910000,2.092494,0
6.079135,0,0,250,55.851991,0.448329,0.000000,531.101939,9899.656115,138.911662,0.000000,0.000000,0.000000,500.000000,1713266123360488,1,0,0,-41604147,-17.283213,35.910000,-1.811162,0
6.079135,0,0,250,55.851991,0.448329,0.000000,531.101939,9899.656115,138.911662,0.000000,0.000000,0.000000,500.000000,1713266123360488,2,0,0,-47122085,-16.520718,35.910000,-1.727544,0
6.079135,0,0,250,55.851991,0.448329,0.000000,531.101939,9899.656115,138.911662,0.000000,0.000000,0.000000,500.000000,1713266123360488,3,0,0,48208528,12.962409,35.910000,1.810720,0
6.079135,0,0,250,55.851991,0.448329,0.000000,531.101939,9899.656115,138.911662,0.000000,0.000000,0.000000,500.000000,1713266123360488,4,0,0,42713109,17.283213,35.910000,1.815666,0
6.079135,0,0,250,55.851991,0.448329,0.000000,531.101939,9899.656115,138.911662,0.000000,0.000000,0.000000,500.000000,1713266123514168,1,0,0,-41604394,-32.023636,35.910000,-1.594528,0
6.079135,0,0,250,55.851991,0.448329,0.000000,531.101939,9899.656115,138.911662,0.000000,0.000000,0.000000,500.000000,1713266123514168,2,0,0,-47122330,-32.023636,35.910000,-1.555614,0
6.079135,0,0,250,55.851991,0.448329,0.000000,531.101939,9899.656115,138.911662,0.000000,0.000000,0.000000,500.000000,1713266123514168,3,0,0,48208771,25.449245,35.910000,1.563492,0
6.079135,0,0,250,55.851991,0.448329,0.000000,531.101939,9899.656115,138.911662,0.000000,0.000000,0.000000,500.000000,1713266123514168,4,0,0,42713355,32.023636,35.910000,1.598025,0
6.079135,0,0,250,55.851991,0.448329,0.000000,531.101939,9899.656115,138.911662,0.000000,0.000000,0.000000,500.000000,1713266123645953,1,0,0,-41604752,-41.283768,35.910000,-1.346326,0
6.079135,0,0,250,55.851991,0.448329,0.000000,531.101939,9899.656115,138.911662,0.000000,0.000000,0.000000,500.000000,1713266123645953,2,0,0,-47122686,-41.084328,35.910000,-1.362944,0
6.079135,0,0,250,55.851991,0.448329,0.000000,531.101939,9899.656115,138.911662,0.000000,0.000000,0.000000,500.000000,1713266123645953,3,0,0,48209124,33.306225,35.910000,1.336612,0
6.079135,0,0,250,55.851991,0.448329,0.000000,531.101939,9899.656115,138.911662,0.000000,0.000000,0.000000,500.000000,1713266123645953,4,0,0,42713712,41.283768,35.910000,1.348668,0
6.079135,0,0,250,55.851991,0.448329,0.000000,531.101939,9899.656115,138.911662,0.000000,0.000000,0.000000,500.000000,1713266123776969,1,0,0,-41605136,-41.098957,35.910000,-1.280886,0
6.079135,0,0,250,55.851991,0.448329,0.000000,531.101939,9899.656115,138.911662,0.000000,0.000000,0.000000,500.000000,1713266123776969,2,0,0,-47123069,-40.896500,35.910000,-1.263040,0
6.079135,0,0,250,55.851991,0.448329,0.000000,531.101939,9899.656115,138.911662,0.000000,0.000000,0.000000,500.000000,1713266123776969,3,0,0,48209505,40.694042,35.910000,1.206991,0
6.079135,0,0,250,55.851991,0.448329,0.000000,531.101939,9899.656115,138.911662,0.000000,0.000000,0.000000,500.000000,1713266123776969,4,0,0,42714095,40.896500,35.910000,1.261282,0
6.079135,0,0,250,55.851991,0.448329,0.000000,531.101939,9899.656115,138.911662,0.000000,0.000000,0.000000,500.000000,1713266123923447,1,0,0,-41605579,-45.302631,35.910000,-1.160665,0
6.079135,0,0,250,55.851991,0.448329,0.000000,531.101939,9899.656115,138.911662,0.000000,0.000000,0.000000,500.000000,1713266123923447,2,0,0,-47123569,-56.578831,35.910000,-1.140809,0
6.079135,0,0,250,55.851991,0.448329,0.000000,531.101939,9899.656115,138.911662,0.000000,0.000000,0.000000,500.000000,1713266123923447,3,0,0,48210003,56.381004,35.910000,1.142337,0
6.079135,0,0,250,55.851991,0.448329,0.000000,531.101939,9899.656115,138.911662,0.000000,0.000000,0.000000,500.000000,1713266123923447,4,0,0,42714595,56.578831,35.910000,1.154023,0
6.079135,0,0,250,55.851991,0.448329,0.000000,531.101939,9899.656115,138.911662,0.000000,0.000000,0.000000,500.000000,1713266124055287,1,0,0,-41606164,-59.412724,35.910000,-1.087036,0
6.079135,0,0,250,55.851991,0.448329,0.000000,531.101939,9899.656115,138.911662,0.000000,0.000000,0.000000,500.000000,1713266124055287,2,0,0,-47124095,-59.212681,35.910000,-1.063085,0
6.079135,0,0,250,55.851991,0.448329,0.000000,531.101939,9899.656115,138.911662,0.000000,0.000000,0.000000,500.000000,1713266124055287,3,0,0,48210528,59.212681,35.910000,1.057041,0
6.079135,0,0,250,55.851991,0.448329,0.000000,531.101939,9899.656115,138.911662,0.000000,0.000000,0.000000,500.000000,1713266124055287,4,0,0,42715122,59.212681,35.910000,1.088168,0
6.079135,0,0,250,55.851991,0.448329,0.000000,531.101939,9899.656115,138.911662,0.000000,0.000000,0.000000,500.000000,1713266124186703,1,0,0,-41606670,-52.155426,35.910000,-1.003617,0
6.079135,0,0,250,55.851991,0.448329,0.000000,531.101939,9899.656115,138.911662,0.000000,0.000000,0.000000,500.000000,1713266124186703,2,0,0,-47124661,-64.486748,35.910000,-1.033995,0
6.079135,0,0,250,55.851991,0.448329,0.000000,531.101939,9899.656115,138.911662,0.000000,0.000000,0.000000,500.000000,1713266124186703,3,0,0,48211093,64.284592,35.910000,1.017813,0
6.079135,0,0,250,55.851991,0.448329,0.000000,531.101939,9899.656115,138.911662,0.000000,0.000000,0.000000,500.000000,1713266124186703,4,0,0,42715627,52.155426,35.910000,1.033200,0
7.393710,0,0,125,57.922420,-1.266456,0.000000,1121.761833,9898.838258,138.911662,0.000000,0.000000,0.000000,500.000000,1713266124333877,1,0,0,-41607259,-67.855896,35.910000,-0.974256,0
7.393710,0,0,125,57.922420,-1.266456,0.000000,1121.761833,9898.838258,138.911662,0.000000,0.000000,0.000000,500.000000,1713266124333877,2,0,0,-47125188,-67.649643,35.910000,-0.980611,0
7.393710,0,0,125,57.922420,-1.266456,0.000000,1121.761833,9898.838258,138.911662,0.000000,0.000000,0.000000,500.000000,1713266124333877,3,0,0,48211617,67.237144,35.910000,1.171566,0
7.393710,0,0,125,57.922420,-1.266456,0.000000,1121.761833,9898.838258,138.911662,0.000000,0.000000,0.000000,500.000000,1713266124333877,4,0,0,42716215,67.649643,35.910000,0.988597,0
7.393710,0,0,125,57.922420,-1.266456,0.000000,1121.761833,9898.838258,138.911662,0.000000,0.000000,0.000000,500.000000,1713266124478423,1,0,0,-41607880,-69.458817,35.910000,-0.952714,0
7.393710,0,0,125,57.922420,-1.266456,0.000000,1121.761833,9898.838258,138.911662,0.000000,0.000000,0.000000,500.000000,1713266124478423,2,0,0,-47125806,-68.957306,35.910000,-0.948715,0
7.393710,0,0,125,57.922420,-1.266456,0.000000,1121.761833,9898.838258,138.911662,0.000000,0.000000,0.000000,500.000000,1713266124478423,3,0,0,48212235,52.156799,35.910000,0.939134,0
7.393710,0,0,125,57.922420,-1.266456,0.000000,1121.761833,9898.838258,138.911662,0.000000,0.000000,0.000000,500.000000,1713266124478423,4,0,0,42716834,69.208061,35.910000,0.953218,0
7.393710,0,0,125,57.922420,-1.266456,0.000000,1121.761833,9898.838258,138.911662,0.000000,0.000000,0.000000,500.000000,1713266124609909,1,0,0,-41608439,-67.898155,35.910000,-0.924566,0
7.393710,0,0,125,57.922420,-1.266456,0.000000,1121.761833,9898.838258,138.911662,0.000000,0.000000,0.000000,500.000000,1713266124609909,2,0,0,-47126366,-51.111523,35.910000,-0.914339,0
7.393710,0,0,125,57.922420,-1.266456,0.000000,1121.761833,9898.838258,138.911662,0.000000,0.000000,0.000000,500.000000,1713266124609909,3,0,0,48212867,69.150887,35.910000,0.914700,0
7.393710,0,0,125,57.922420,-1.266456,0.000000,1121.761833,9898.838258,138.911662,0.000000,0.000000,0.000000,500.000000,1713266124609909,4,0,0,42717394,51.111523,35.910000,0.920456,0
7.393710,0,0,125,57.922420,-1.266456,0.000000,1121.761833,9898.838258,138.911662,0.000000,0.000000,0.000000,500.000000,1713266124740984,1,0,0,-41609071,-70.587616,35.910000,-0.899444,0
7.393710,0,0,125,57.922420,-1.266456,0.000000,1121.761833,9898.838258,138.911662,0.000000,0.000000,0.000000,500.000000,1713266124740984,2,0,0,-47126998,-70.587616,35.910000,-0.902824,0
7.393710,0,0,125,57.922420,-1.266456,0.000000,1121.761833,9898.838258,138.911662,0.000000,0.000000,0.000000,500.000000,1713266124740984,3,0,0,48213426,70.587616,35.910000,0.896530,0
7.393710,0,0,125,57.922420,-1.266456,0.000000,1121.761833,9898.838258,138.911662,0.000000,0.000000,0.000000,500.000000,1713266124740984,4,0,0,42718026,70.587616,35.910000,0.907912,0
7.393710,0,0,125,57.922420,-1.266456,0.000000,1121.761833,9898.838258,138.911662,0.000000,0.000000,0.000000,500.000000,1713266124871131,1,0,0,-41609725,-74.122368,35.910000,-0.884196,0
7.393710,0,0,125,57.922420,-1.266456,0.000000,1121.761833,9898.838258,138.911662,0.000000,0.000000,0.000000,500.000000,1713266124871131,2,0,0,-47127652,-74.122368,35.910000,-0.890480,0
7.393710,0,0,125,57.922420,-1.266456,0.000000,1121.761833,9898.838258,138.911662,0.000000,0.000000,0.000000,500.000000,1713266124871131,3,0,0,48214080,59.669537,35.910000,0.883011,0
7.393710,0,0,125,57.922420,-1.266456,0.000000,1121.761833,9898.838258,138.911662,0.000000,0.000000,0.000000,500.000000,1713266124871131,4,0,0,42718680,74.122368,35.910000,0.884384,0
7.393710,0,0,125,57.922420,-1.266456,0.000000,1121.761833,9898.838258,138.911662,0.000000,0.000000,0.000000,500.000000,1713266125014819,1,0,0,-41610306,-72.054405,35.910000,-0.879444,0
7.393710,0,0,125,57.922420,-1.266456,0.000000,1121.761833,9898.838258,138.911662,0.000000,0.000000,0.000000,500.000000,1713266125014819,2,0,0,-47128232,-54.661964,35.910000,-0.878890,0
7.393710,0,0,125,57.922420,-1.266456,0.000000,1121.761833,9898.838258,138.911662,0.000000,0.000000,0.000000,500.000000,1713266125014819,3,0,0,48214659,54.661964,35.910000,0.871832,0
7.393710,0,0,125,57.922420,-1.266456,0.000000,1121.761833,9898.838258,138.911662,0.000000,0.000000,0.000000,500.000000,1713266125014819,4,0,0,42719260,54.661964,35.910000,0.878746,0
7.393710,0,0,125,57.922420,-1.266456,0.000000,1121.761833,9898.838258,138.911662,0.000000,0.000000,0.000000,500.000000,1713266125148008,1,0,0,-41610959,-72.588516,35.910000,-0.873844,0
7.393710,0,0,125,57.922420,-1.266456,0.000000,1121.761833,9898.838258,138.911662,0.000000,0.000000,0.000000,500.000000,1713266125148008,2,0,0,-47128885,-72.588516,35.910000,-0.866786,0
7.393710,0,0,125,57.922420,-1.266456,0.000000,1121.761833,9898.838258,138.911662,0.000000,0.000000,0.000000,500.000000,1713266125148008,3,0,0,48215312,72.588516,35.910000,0.868985,0
7.393710,0,0,125,57.922420,-1.266456,0.000000,1121.761833,9898.838258,138.911662,0.000000,0.000000,0.000000,500.000000,1713266125148008,4,0,0,42719913,72.588516,35.910000,0.866807,0
7.393710,0,0,125,57.922420,-1.266456,0.000000,1121.761833,9898.838258,138.911662,0.000000,0.000000,0.000000,500.000000,1713266125278675,1,0,0,-41611614,-73.830917,35.910000,-0.862032,0
7.393710,0,0,125,57.922420,-1.266456,0.000000,1121.761833,9898.838258,138.911662,0.000000,0.000000,0.000000,500.000000,1713266125278675,2,0,0,-47129540,-73.830917,35.910000,-0.864168,0
7.393710,0,0,125,57.922420,-1.266456,0.000000,1121.761833,9898.838258,138.911662,0.000000,0.000000,0.000000,500.000000,1713266125278675,3,0,0,48215967,58.096462,35.910000,0.863240,0
7.393710,0,0,125,57.922420,-1.266456,0.000000,1121.761833,9898.838258,138.911662,0.000000,0.000000,0.000000,500.000000,1713266125278675,4,0,0,42720567,73.830917,35.910000,0.862115,0
7.393710,0,0,125,57.922420,-1.266456,0.000000,1121.761833,9898.838258,138.911662,0.000000,0.000000,0.000000,500.000000,1713266125409719,1,0,0,-41612218,-61.472286,35.910000,-0.859697,0
7.393710,0,0,125,57.922420,-1.266456,0.000000,1121.761833,9898.838258,138.911662,0.000000,0.000000,0.000000,500.000000,1713266125409719,2,0,0,-47130144,-61.472286,35.910000,-0.863049,0
7.393710,0,0,125,57.922420,-1.266456,0.000000,1121.761833,9898.838258,138.911662,0.000000,0.000000,0.000000,500.000000,1713266125409719,3,0,0,48216571,61.472286,35.910000,0.856017,0
7.393710,0,0,125,57.922420,-1.266456,0.000000,1121.761833,9898.838258,138.911662,0.000000,0.000000,0.000000,500.000000,1713266125409719,4,0,0,42721171,61.472286,35.910000,0.859767,0
7.393710,0,0,125,57.922420,-1.266456,0.000000,1121.761833,9898.838258,138.911662,0.000000,0.000000,0.000000,500.000000,1713266125540576,1,0,0,-41612818,-60.389099,35.910000,-0.856879,0
7.393710,0,0,125,57.922420,-1.266456,0.000000,1121.761833,9898.838258,138.911662,0.000000,0.000000,0.000000,500.000000,1713266125540576,2,0,0,-47130744,-60.389099,35.910000,-0.855783,0
7.393710,0,0,125,57.922420,-1.266456,0.000000,1121.761833,9898.838258,138.911662,0.000000,0.000000,0.000000,500.000000,1713266125540576,3,0,0,48217249,76.465378,35.910000,0.855841,0
7.393710,0,0,125,57.922420,-1.266456,0.000000,1121.761833,9898.838258,138.911662,0.000000,0.000000,0.000000,500.000000,1713266125540576,4,0,0,42721771,60.389099,35.910000,0.855736,0
8.790558,0,0,125,499.986925,3.615926,0.000000,1485.552291,9899.939210,138.911662,0.000000,0.000000,0.000000,500.000000,1713266125689662,1,0,0,-41613487,-69.265282,35.910000,-0.853298,1
8.790558,0,0,125,499.986925,3.615926,0.000000,1485.552291,9899.939210,138.911662,0.000000,0.000000,0.000000,500.000000,1713266125689662,2,0,0,-47131413,-69.265282,35.910000,-0.853375,1
8.790558,0,0,125,499.986925,3.615926,0.000000,1485.552291,9899.939210,138.911662,0.000000,0.000000,0.000000,500.000000,1713266125689662,3,0,0,48217840,69.265282,35.910000,0.873670,1
8.790558,0,0,125,499.986925,3.615926,0.000000,1485.552291,9899.939210,138.911662,0.000000,0.000000,0.000000,500.000000,1713266125689662,4,0,0,42722440,69.265282,35.910000,0.853338,1
8.790558,0,0,125,499.986925,3.615926,0.000000,1485.552291,9899.939210,138.911662,0.000000,0.000000,0.000000,500.000000,1713266125821138,1,0,0,-41614158,-61.182980,35.910000,-0.851720,1
8.790558,0,0,125,499.986925,3.615926,0.000000,1485.552291,9899.939210,138.911662,0.000000,0.000000,0.000000,500.000000,1713266125821138,2,0,0,-47132084,-61.182980,35.910000,-0.849532,1
8.790558,0,0,125,499.986925,3.615926,0.000000,1485.552291,9899.939210,138.911662,0.000000,0.000000,0.000000,500.000000,1713266125821138,3,0,0,48218511,61.182980,35.910000,0.849755,1
8.790558,0,0,125,499.986925,3.615926,0.000000,1485.552291,9899.939210,138.911662,0.000000,0.000000,0.000000,500.000000,1713266125821138,4,0,0,42723111,61.182980,35.910000,0.849508,1
8.790558,0,0,125,499.986925,3.615926,0.000000,1485.552291,9899.939210,138.911662,0.000000,0.000000,0.000000,500.000000,1713266125952760,1,0,0,-41614762,-63.208462,35.910000,-0.849071,1
8.790558,0,0,125,499.986925,3.615926,0.000000,1485.552291,9899.939210,138.911662,0.000000,0.000000,0.000000,500.000000,1713266125952760,2,0,0,-47132762,-78.394905,35.910000,-0.849164,1
8.790558,0,0,125,499.986925,3.615926,0.000000,1485.552291,9899.939210,138.911662,0.000000,0.000000,0.000000,500.000000,1713266125952760,3,0,0,48219189,78.394905,35.910000,0.849188,1
8.790558,0,0,125,499.986925,3.615926,0.000000,1485.552291,9899.939210,138.911662,0.000000,0.000000,0.000000,500.000000,1713266125952760,4,0,0,42723715,63.208462,35.910000,0.848923,1
8.790558,0,0,125,499.986925,3.615926,0.000000,1485.552291,9899.939210,138.911662,0.000000,0.000000,0.000000,500.000000,1713266126083436,1,0,0,-41615431,-76.384750,35.910000,-0.848491,1
8.790558,0,0,125,499.986925,3.615926,0.000000,1485.552291,9899.939210,138.911662,0.000000,0.000000,0.000000,500.000000,1713266126083436,2,0,0,-47133357,-76.384750,35.910000,-0.847445,1
8.790558,0,0,125,499.986925,3.615926,0.000000,1485.552291,9899.939210,138.911662,0.000000,0.000000,0.000000,500.000000,1713266126083436,3,0,0,48219784,76.384750,35.910000,0.848356,1
8.790558,0,0,125,499.986925,3.615926,0.000000,1485.552291,9899.939210,138.911662,0.000000,0.000000,0.000000,500.000000,1713266126083436,4,0,0,42724384,76.384750,35.910000,0.848508,1
8.790558,0,0,125,499.986925,3.615926,0.000000,1485.552291,9899.939210,138.911662,0.000000,0.000000,0.000000,500.000000,1713266126227283,1,0,0,-41616032,-74.609787,35.910000,-0.847964,1
8.790558,0,0,125,499.986925,3.615926,0.000000,1485.552291,9899.939210,138.911662,0.000000,0.000000,0.000000,500.000000,1713266126227283,2,0,0,-47133958,-54.910835,35.910000,-0.846947,1
8.790558,0,0,125,499.986925,3.615926,0.000000,1485.552291,9899.939210,138.911662,0.000000,0.000000,0.000000,500.000000,1713266126227283,3,0,0,48220385,54.910835,35.910000,0.847394,1
8.790558,0,0,125,499.986925,3.615926,0.000000,1485.552291,9899.939210,138.911662,0.000000,0.000000,0.000000,500.000000,1713266126227283,4,0,0,42724985,74.609787,35.910000,0.846936,1
8.790558,0,0,125,499.986925,3.615926,0.000000,1485.552291,9899.939210,138.911662,0.000000,0.000000,0.000000,500.000000,1713266126356100,1,0,0,-41616633,-57.497101,35.910000,-0.846800,1
8.790558,0,0,125,499.986925,3.615926,0.000000,1485.552291,9899.939210,138.911662,0.000000,0.000000,0.000000,500.000000,1713266126356100,2,0,0,-47134560,-57.497101,35.910000,-0.846606,1
8.790558,0,0,125,499.986925,3.615926,0.000000,1485.552291,9899.939210,138.911662,0.000000,0.000000,0.000000,500.000000,1713266126356100,3,0,0,48221063,76.747231,35.910000,0.846437,1
8.790558,0,0,125,499.986925,3.615926,0.000000,1485.552291,9899.939210,138.911662,0.000000,0.000000,0.000000,500.000000,1713266126356100,4,0,0,42725587,57.497101,35.910000,0.846597,1
8.790558,0,0,125,499.986925,3.615926,0.000000,1485.552291,9899.939210,138.911662,0.000000,0.000000,0.000000,500.000000,1713266126488609,1,0,0,-41617375,-74.190163,35.910000,-0.845776,1
8.790558,0,0,125,499.986925,3.615926,0.000000,1485.552291,9899.939210,138.911662,0.000000,0.000000,0.000000,500.000000,1713266126488609,2,0,0,-47135302,-74.190163,35.910000,-0.846487,1
8.790558,0,0,125,499.986925,3.615926,0.000000,1485.552291,9899.939210,138.911662,0.000000,0.000000,0.000000,500.000000,1713266126488609,3,0,0,48221729,74.190163,35.910000,0.845920,1
8.790558,0,0,125,499.986925,3.615926,0.000000,1485.552291,9899.939210,138.911662,0.000000,0.000000,0.000000,500.000000,1713266126488609,4,0,0,42726329,74.190163,35.910000,0.846100,1
8.790558,0,0,125,499.986925,3.615926,0.000000,1485.552291,9899.939210,138.911662,0.000000,0.000000,0.000000,500.000000,1713266126619062,1,0,0,-41617974,-75.472618,35.910000,-0.845661,1
8.790558,0,0,125,499.986925,3.615926,0.000000,1485.552291,9899.939210,138.911662,0.000000,0.000000,0.000000,500.000000,1713266126619062,2,0,0,-47135901,-75.472618,35.910000,-0.845735,1
8.790558,0,0,125,499.986925,3.615926,0.000000,1485.552291,9899.939210,138.911662,0.000000,0.000000,0.000000,500.000000,1713266126619062,3,0,0,48222329,60.541721,35.910000,0.845381,1
8.790558,0,0,125,499.986925,3.615926,0.000000,1485.552291,9899.939210,138.911662,0.000000,0.000000,0.000000,500.000000,1713266126619062,4,0,0,42726929,75.677155,35.910000,0.845667,1
8.790558,0,0,125,499.986925,3.615926,0.000000,1485.552291,9899.939210,138.911662,0.000000,0.000000,0.000000,500.000000,1713266126763391,1,0,0,-41618570,-58.295628,35.910000,-0.845068,1
8.790558,0,0,125,499.986925,3.615926,0.000000,1485.552291,9899.939210,138.911662,0.000000,0.000000,0.000000,500.000000,1713266126763391,2,0,0,-47136569,-72.620834,35.910000,-0.845646,1
8.790558,0,0,125,499.986925,3.615926,0.000000,1485.552291,9899.939210,138.911662,0.000000,0.000000,0.000000,500.000000,1713266126763391,3,0,0,48222997,72.620834,35.910000,0.845651,1
8.790558,0,0,125,499.986925,3.615926,0.000000,1485.552291,9899.939210,138.911662,0.000000,0.000000,0.000000,500.000000,1713266126763391,4,0,0,42727525,58.295628,35.910000,0.845140,1
8.790558,0,0,125,499.986925,3.615926,0.000000,1485.552291,9899.939210,138.911662,0.000000,0.000000,0.000000,500.000000,1713266126896107,1,0,0,-41619313,-73.692787,35.910000,-0.844845,1
8.790558,0,0,125,499.986925,3.615926,0.000000,1485.552291,9899.939210,138.911662,0.000000,0.000000,0.000000,500.000000,1713266126896107,2,0,0,-47137239,-73.494156,35.910000,-0.845329,1
8.790558,0,0,125,499.986925,3.615926,0.000000,1485.552291,9899.939210,138.911662,0.000000,0.000000,0.000000,500.000000,1713266126896107,3,0,0,48223667,73.494156,35.910000,0.845333,1
8.790558,0,0,125,499.986925,3.615926,0.000000,1485.552291,9899.939210,138.911662,0.000000,0.000000,0.000000,500.000000,1713266126896107,4,0,0,42728268,73.692787,35.910000,0.845507,1
10.096150,0,0,125,67.591355,-0.474035,0.000000,1888.428320,9898.747822,138.911662,0.000000,0.000000,0.000000,500.000000,1713266127027654,1,0,0,-41619920,-75.209915,35.910000,-0.845110,0
10.096150,0,0,125,67.591355,-0.474035,0.000000,1888.428320,9898.747822,138.911662,0.000000,0.000000,0.000000,500.000000,1713266127027654,2,0,0,-47137847,-75.209915,35.910000,-0.845265,0
10.096150,0,0,125,67.591355,-0.474035,0.000000,1888.428320,9898.747822,138.911662,0.000000,0.000000,0.000000,500.000000,1713266127027654,3,0,0,48224275,60.529903,35.910000,0.844677,0
10.096150,0,0,125,67.591355,-0.474035,0.000000,1888.428320,9898.747822,138.911662,0.000000,0.000000,0.000000,500.000000,1713266127027654,4,0,0,42728875,75.209915,35.910000,0.845112,0
10.096150,0,0,125,67.591355,-0.474035,0.000000,1888.428320,9898.747822,138.911662,0.000000,0.000000,0.000000,500.000000,1713266127158825,1,0,0,-41620529,-62.466251,35.910000,-0.844715,0
10.096150,0,0,125,67.591355,-0.474035,0.000000,1888.428320,9898.747822,138.911662,0.000000,0.000000,0.000000,500.000000,1713266127158825,2,0,0,-47138456,-62.466251,35.910000,-0.844623,0
10.096150,0,0,125,67.591355,-0.474035,0.000000,1888.428320,9898.747822,138.911662,0.000000,0.000000,0.000000,500.000000,1713266127158825,3,0,0,48224884,62.466251,35.910000,0.844922,0
10.096150,0,0,125,67.591355,-0.474035,0.000000,1888.428320,9898.747822,138.911662,0.000000,0.000000,0.000000,500.000000,1713266127158825,4,0,0,42729484,62.466251,35.910000,0.844621,0
10.096150,0,0,125,67.591355,-0.474035,0.000000,1888.428320,9898.747822,138.911662,0.000000,0.000000,0.000000,500.000000,1713266127321095,1,0,0,-41621271,-70.863365,35.910000,-0.844304,0
10.096150,0,0,125,67.591355,-0.474035,0.000000,1888.428320,9898.747822,138.911662,0.000000,0.000000,0.000000,500.000000,1713266127321095,2,0,0,-47139198,-70.863365,35.910000,-0.844619,0
10.096150,0,0,125,67.591355,-0.474035,0.000000,1888.428320,9898.747822,138.911662,0.000000,0.000000,0.000000,500.000000,1713266127321095,3,0,0,48225626,70.863365,35.910000,0.844417,0
10.096150,0,0,125,67.591355,-0.474035,0.000000,1888.428320,9898.747822,138.911662,0.000000,0.000000,0.000000,500.000000,1713266127321095,4,0,0,42730226,70.863365,35.910000,0.844305,0
10.096150,0,0,125,67.591355,-0.474035,0.000000,1888.428320,9898.747822,138.911662,0.000000,0.000000,0.000000,500.000000,1713266127452846,1,0,0,-41621939,-76.179642,35.910000,-0.845122,0
10.096150,0,0,125,67.591355,-0.474035,0.000000,1888.428320,9898.747822,138.911662,0.000000,0.000000,0.000000,500.000000,1713266127452846,2,0,0,-47139866,-60.661564,35.910000,-0.844756,0
10.096150,0,0,125,67.591355,-0.474035,0.000000,1888.428320,9898.747822,138.911662,0.000000,0.000000,0.000000,500.000000,1713266127452846,3,0,0,48226294,60.661564,35.910000,0.844453,0
10.096150,0,0,125,67.591355,-0.474035,0.000000,1888.428320,9898.747822,138.911662,0.000000,0.000000,0.000000,500.000000,1713266127452846,4,0,0,42730894,76.179642,35.910000,0.845038,0
10.096150,0,0,125,67.591355,-0.474035,0.000000,1888.428320,9898.747822,138.911662,0.000000,0.000000,0.000000,500.000000,1713266127580705,1,0,0,-41622552,-63.002010,35.910000,-0.844282,0
10.096150,0,0,125,67.591355,-0.474035,0.000000,1888.428320,9898.747822,138.911662,0.000000,0.000000,0.000000,500.000000,1713266127580705,2,0,0,-47140479,-63.002010,35.910000,-0.844265,0
10.096150,0,0,125,67.591355,-0.474035,0.000000,1888.428320,9898.747822,138.911662,0.000000,0.000000,0.000000,500.000000,1713266127580705,3,0,0,48226908,63.002010,35.910000,0.844546,0
10.096150,0,0,125,67.591355,-0.474035,0.000000,1888.428320,9898.747822,138.911662,0.000000,0.000000,0.000000,500.000000,1713266127580705,4,0,0,42731508,63.002010,35.910000,0.844264,0
10.096150,0,0,125,67.591355,-0.474035,0.000000,1888.428320,9898.747822,138.911662,0.000000,0.000000,0.000000,500.000000,1713266127707080,1,0,0,-41623145,-63.290630,35.910000,-0.844537,0
10.096150,0,0,125,67.591355,-0.474035,0.000000,1888.428320,9898.747822,138.911662,0.000000,0.000000,0.000000,500.000000,1713266127707080,2,0,0,-47141072,-63.290630,35.910000,-0.844498,0
10.096150,0,0,125,67.591355,-0.474035,0.000000,1888.428320,9898.747822,138.911662,0.000000,0.000000,0.000000,500.000000,1713266127707080,3,0,0,48227501,63.290630,35.910000,0.844641,0
10.096150,0,0,125,67.591355,-0.474035,0.000000,1888.428320,9898.747822,138.911662,0.000000,0.000000,0.000000,500.000000,1713266127707080,4,0,0,42732101,63.290630,35.910000,0.844497,0
10.096150,0,0,125,67.591355,-0.474035,0.000000,1888.428320,9898.747822,138.911662,0.000000,0.000000,0.000000,500.000000,1713266127848740,1,0,0,-41623748,-77.251060,35.910000,-0.844976,0
10.096150,0,0,125,67.591355,-0.474035,0.000000,1888.428320,9898.747822,138.911662,0.000000,0.000000,0.000000,500.000000,1713266127848740,2,0,0,-47141675,-57.298798,35.910000,-0.844809,0
10.096150,0,0,125,67.591355,-0.474035,0.000000,1888.428320,9898.747822,138.911662,0.000000,0.000000,0.000000,500.000000,1713266127848740,3,0,0,48228104,57.298798,35.910000,0.844541,0
10.096150,0,0,125,67.591355,-0.474035,0.000000,1888.428320,9898.747822,138.911662,0.000000,0.000000,0.000000,500.000000,1713266127848740,4,0,0,42732704,57.298798,35.910000,0.844809,0
10.096150,0,0,125,67.591355,-0.474035,0.000000,1888.428320,9898.747822,138.911662,0.000000,0.000000,0.000000,500.000000,1713266127978314,1,0,0,-41624357,-57.832310,35.910000,-0.845067,0
10.096150,0,0,125,67.591355,-0.474035,0.000000,1888.428320,9898.747822,138.911662,0.000000,0.000000,0.000000,500.000000,1713266127978314,2,0,0,-47142284,-57.832310,35.910000,-0.844425,0
10.096150,0,0,125,67.591355,-0.474035,0.000000,1888.428320,9898.747822,138.911662,0.000000,0.000000,0.000000,500.000000,1713266127978314,3,0,0,48228713,57.832310,35.910000,0.845046,0
10.096150,0,0,125,67.591355,-0.474035,0.000000,1888.428320,9898.747822,138.911662,0.000000,0.000000,0.000000,500.000000,1713266127978314,4,0,0,42733313,57.832310,35.910000,0.844425,0
10.096150,0,0,125,67.591355,-0.474035,0.000000,1888.428320,9898.747822,138.911662,0.000000,0.000000,0.000000,500.000000,1713266128110800,1,0,0,-41625035,-71.718414,35.910000,-0.844345,0
10.096150,0,0,125,67.591355,-0.474035,0.000000,1888.428320,9898.747822,138.911662,0.000000,0.000000,0.000000,500.000000,1713266128110800,2,0,0,-47142962,-71.718414,35.910000,-0.844873,0
10.096150,0,0,125,67.591355,-0.474035,0.000000,1888.428320,9898.747822,138.911662,0.000000,0.000000,0.000000,500.000000,1713266128110800,3,0,0,48229391,71.718414,35.910000,0.844385,0
10.096150,0,0,125,67.591355,-0.474035,0.000000,1888.428320,9898.747822,138.911662,0.000000,0.000000,0.000000,500.000000,1713266128110800,4,0,0,42733991,71.718414,35.910000,0.844645,0
10.096150,0,0,125,67.591355,-0.474035,0.000000,1888.428320,9898.747822,138.911662,0.000000,0.000000,0.000000,500.000000,1713266128242586,1,0,0,-41625719,-75.907104,35.910000,-0.844759,0
10.096150,0,0,125,67.591355,-0.474035,0.000000,1888.428320,9898.747822,138.911662,0.000000,0.000000,0.000000,500.000000,1713266128242586,2,0,0,-47143646,-75.907104,35.910000,-0.844650,0
10.096150,0,0,125,67.591355,-0.474035,0.000000,1888.428320,9898.747822,138.911662,0.000000,0.000000,0.000000,500.000000,1713266128242586,3,0,0,48230075,75.907104,35.910000,0.844714,0
10.096150,0,0,125,67.591355,-0.474035,0.000000,1888.428320,9898.747822,138.911662,0.000000,0.000000,0.000000,500.000000,1713266128242586,4,0,0,42734675,75.907104,35.910000,0.844828,0
11.493274,0,0,125,58.418343,-0.624843,0.000000,1979.647510,9898.200681,138.911662,0.000000,0.000000,0.000000,500.000000,1713266128373028,1,0,0,-41626334,-77.700966,35.910000,-0.844567,0
11.493274,0,0,125,58.418343,-0.624843,0.000000,1979.647510,9898.200681,138.911662,0.000000,0.000000,0.000000,500.000000,1713266128373028,2,0,0,-47144261,-77.700966,35.910000,-0.844726,0
11.493274,0,0,125,58.418343,-0.624843,0.000000,1979.647510,9898.200681,138.911662,0.000000,0.000000,0.000000,500.000000,1713266128373028,3,0,0,48230690,62.485371,35.910000,0.844099,0
11.493274,0,0,125,58.418343,-0.624843,0.000000,1979.647510,9898.200681,138.911662,0.000000,0.000000,0.000000,500.000000,1713266128373028,4,0,0,42735290,77.700966,35.910000,0.844567,0
11.493274,0,0,125,58.418343,-0.624843,0.000000,1979.647510,9898.200681,138.911662,0.000000,0.000000,0.000000,500.000000,1713266128518429,1,0,0,-41626925,-74.179848,35.910000,-0.844409,0
11.493274,0,0,125,58.418343,-0.624843,0.000000,1979.647510,9898.200681,138.911662,0.000000,0.000000,0.000000,500.000000,1713266128518429,2,0,0,-47144852,-58.616226,35.910000,-0.844209,0
11.493274,0,0,125,58.418343,-0.624843,0.000000,1979.647510,9898.200681,138.911662,0.000000,0.000000,0.000000,500.000000,1713266128518429,3,0,0,48231355,73.573471,35.910000,0.844209,0
11.493274,0,0,125,58.418343,-0.624843,0.000000,1979.647510,9898.200681,138.911662,0.000000,0.000000,0.000000,500.000000,1713266128518429,4,0,0,42735881,58.616226,35.910000,0.844698,0
11.493274,0,0,125,58.418343,-0.624843,0.000000,1979.647510,9898.200681,138.911662,0.000000,0.000000,0.000000,500.000000,1713266128650288,1,0,0,-41627604,-62.658932,35.910000,-0.844138,0
11.493274,0,0,125,58.418343,-0.624843,0.000000,1979.647510,9898.200681,138.911662,0.000000,0.000000,0.000000,500.000000,1713266128650288,2,0,0,-47145603,-77.306473,35.910000,-0.844738,0
11.493274,0,0,125,58.418343,-0.624843,0.000000,1979.647510,9898.200681,138.911662,0.000000,0.000000,0.000000,500.000000,1713266128650288,3,0,0,48232032,77.306473,35.910000,0.844738,0
11.493274,0,0,125,58.418343,-0.624843,0.000000,1979.647510,9898.200681,138.911662,0.000000,0.000000,0.000000,500.000000,1713266128650288,4,0,0,42736632,77.306473,35.910000,0.844745,0
11.493274,0,0,125,58.418343,-0.624843,0.000000,1979.647510,9898.200681,138.911662,0.000000,0.000000,0.000000,500.000000,1713266128780362,1,0,0,-41628280,-75.673561,35.910000,-0.844247,0
11.493274,0,0,125,58.418343,-0.624843,0.000000,1979.647510,9898.200681,138.911662,0.000000,0.000000,0.000000,500.000000,1713266128780362,2,0,0,-47146207,-75.673561,35.910000,-0.844568,0
11.493274,0,0,125,58.418343,-0.624843,0.000000,1979.647510,9898.200681,138.911662,0.000000,0.000000,0.000000,500.000000,1713266128780362,3,0,0,48232636,75.673561,35.910000,0.844785,0
11.493274,0,0,125,58.418343,-0.624843,0.000000,1979.647510,9898.200681,138.911662,0.000000,0.000000,0.000000,500.000000,1713266128780362,4,0,0,42737236,75.673561,35.910000,0.844702,0
11.493274,0,0,125,58.418343,-0.624843,0.000000,1979.647510,9898.200681,138.911662,0.000000,0.000000,0.000000,500.000000,1713266128911819,1,0,0,-41628806,-59.825714,35.910000,-0.851464,0
11.493274,0,0,125,58.418343,-0.624843,0.000000,1979.647510,9898.200681,138.911662,0.000000,0.000000,0.000000,500.000000,1713266128911819,2,0,0,-47146733,-44.818584,35.910000,-0.844223,0
11.493274,0,0,125,58.418343,-0.624843,0.000000,1979.647510,9898.200681,138.911662,0.000000,0.000000,0.000000,500.000000,1713266128911819,3,0,0,48233162,44.818584,35.910000,0.844812,0
11.493274,0,0,125,58.418343,-0.624843,0.000000,1979.647510,9898.200681,138.911662,0.000000,0.000000,0.000000,500.000000,1713266128911819,4,0,0,42737762,59.825714,35.910000,0.844223,0
11.493274,0,0,125,58.418343,-0.624843,0.000000,1979.647510,9898.200681,138.911662,0.000000,0.000000,0.000000,500.000000,1713266129057764,1,0,0,-41629481,-61.427021,35.910000,-0.844395,0
11.493274,0,0,125,58.418343,-0.624843,0.000000,1979.647510,9898.200681,138.911662,0.000000,0.000000,0.000000,500.000000,1713266129057764,2,0,0,-47147482,-76.281921,35.910000,-0.844300,0
11.493274,0,0,125,58.418343,-0.624843,0.000000,1979.647510,9898.200681,138.911662,0.000000,0.000000,0.000000,500.000000,1713266129057764,3,0,0,48233911,76.281921,35.910000,0.844301,0
11.493274,0,0,125,58.418343,-0.624843,0.000000,1979.647510,9898.200681,138.911662,0.000000,0.000000,0.000000,500.000000,1713266129057764,4,0,0,42738437,61.427021,35.910000,0.844175,0
11.493274,0,0,125,58.418343,-0.624843,0.000000,1979.647510,9898.200681,138.911662,0.000000,0.000000,0.000000,500.000000,1713266129187265,1,0,0,-41630223,-77.076431,35.910000,-0.844012,0
11.493274,0,0,125,58.418343,-0.624843,0.000000,1979.647510,9898.200681,138.911662,0.000000,0.000000,0.000000,500.000000,1713266129187265,2,0,0,-47148149,-76.870346,35.910000,-0.844507,0
11.493274,0,0,125,58.418343,-0.624843,0.000000,1979.647510,9898.200681,138.911662,0.000000,0.000000,0.000000,500.000000,1713266129187265,3,0,0,48234578,76.870346,35.910000,0.844655,0
11.493274,0,0,125,58.418343,-0.624843,0.000000,1979.647510,9898.200681,138.911662,0.000000,0.000000,0.000000,500.000000,1713266129187265,4,0,0,42739178,76.870346,35.910000,0.844237,0
11.493274,0,0,125,58.418343,-0.624843,0.000000,1979.647510,9898.200681,138.911662,0.000000,0.000000,0.000000,500.000000,1713266129319488,1,0,0,-41630821,-74.932808,35.910000,-0.844630,0
11.493274,0,0,125,58.418343,-0.624843,0.000000,1979.647510,9898.200681,138.911662,0.000000,0.000000,0.000000,500.000000,1713266129319488,2,0,0,-47148747,-74.932808,35.910000,-0.844111,0
11.493274,0,0,125,58.418343,-0.624843,0.000000,1979.647510,9898.200681,138.911662,0.000000,0.000000,0.000000,500.000000,1713266129319488,3,0,0,48235176,59.221092,35.910000,0.844752,0
11.493274,0,0,125,58.418343,-0.624843,0.000000,1979.647510,9898.200681,138.911662,0.000000,0.000000,0.000000,500.000000,1713266129319488,4,0,0,42739776,74.932808,35.910000,0.844111,0
11.493274,0,0,125,58.418343,-0.624843,0.000000,1979.647510,9898.200681,138.911662,0.000000,0.000000,0.000000,500.000000,1713266129450175,1,0,0,-41631432,-61.987335,35.910000,-0.844729,0
11.493274,0,0,125,58.418343,-0.624843,0.000000,1979.647510,9898.200681,138.911662,0.000000,0.000000,0.000000,500.000000,1713266129450175,2,0,0,-47149358,-61.987335,35.910000,-0.844653,0
11.493274,0,0,125,58.418343,-0.624843,0.000000,1979.647510,9898.200681,138.911662,0.000000,0.000000,0.000000,500.000000,1713266129450175,3,0,0,48235787,61.987335,35.910000,0.844659,0
11.493274,0,0,125,58.418343,-0.624843,0.000000,1979.647510,9898.200681,138.911662,0.000000,0.000000,0.000000,500.000000,1713266129450175,4,0,0,42740387,61.987335,35.910000,0.844653,0
11.493274,0,0,125,58.418343,-0.624843,0.000000,1979.647510,9898.200681,138.911662,0.000000,0.000000,0.000000,500.000000,1713266129579201,1,0,0,-41632050,-58.177990,35.910000,-0.844399,0
11.493274,0,0,125,58.418343,-0.624843,0.000000,1979.647510,9898.200681,138.911662,0.000000,0.000000,0.000000,500.000000,1713266129579201,2,0,0,-47149976,-58.177990,35.910000,-0.844400,0
11.493274,0,0,125,58.418343,-0.624843,0.000000,1979.647510,9898.200681,138.911662,0.000000,0.000000,0.000000,500.000000,1713266129579201,3,0,0,48236405,58.177990,35.910000,0.844583,0
11.493274,0,0,125,58.418343,-0.624843,0.000000,1979.647510,9898.200681,138.911662,0.000000,0.000000,0.000000,500.000000,1713266129579201,4,0,0,42741005,58.177990,35.910000,0.844400,0
12.803249,0,0,125,69.371850,0.200083,0.000000,2063.660256,9898.112770,138.911662,0.000000,0.000000,0.000000,500.000000,1713266129721934,1,0,0,-41632647,-57.904408,35.910000,-0.844589,1
12.803249,0,0,125,69.371850,0.200083,0.000000,2063.660256,9898.112770,138.911662,0.000000,0.000000,0.000000,500.000000,1713266129721934,2,0,0,-47150649,-77.290901,35.910000,-0.844839,1
12.803249,0,0,125,69.371850,0.200083,0.000000,2063.660256,9898.112770,138.911662,0.000000,0.000000,0.000000,500.000000,1713266129721934,3,0,0,48237078,77.290901,35.910000,0.844839,1
12.803249,0,0,125,69.371850,0.200083,0.000000,2063.660256,9898.112770,138.911662,0.000000,0.000000,0.000000,500.000000,1713266129721934,4,0,0,42741602,57.904408,35.910000,0.844454,1
12.803249,0,0,125,69.371850,0.200083,0.000000,2063.660256,9898.112770,138.911662,0.000000,0.000000,0.000000,500.000000,1713266129852884,1,0,0,-41633334,-76.550102,35.910000,-0.844099,1
12.803249,0,0,125,69.371850,0.200083,0.000000,2063.660256,9898.112770,138.911662,0.000000,0.000000,0.000000,500.000000,1713266129852884,2,0,0,-47151260,-76.550102,35.910000,-0.844570,1
12.803249,0,0,125,69.371850,0.200083,0.000000,2063.660256,9898.112770,138.911662,0.000000,0.000000,0.000000,500.000000,1713266129852884,3,0,0,48237689,76.550102,35.910000,0.844570,1
